timestampns;pitch;roll;yaw;vgx;vgy;vgz;templ;temph;tof;h;bat;baro;time;agx;agy;agz;
1716551677418195009;0;0;0;0;0;0;90;92;10;0;81;136.19;0;-2.00;4.00;-999.00
1716551677520923137;0;0;0;0;0;0;90;92;10;0;81;136.19;0;-2.00;5.00;-999.00
1716551677622247457;0;0;0;0;0;0;90;92;10;0;81;136.21;0;-2.00;5.00;-998.00
1716551677724381208;0;0;0;0;0;0;90;92;10;0;81;136.22;0;-3.00;4.00;-998.00
1716551677826383113;0;0;0;0;0;0;90;92;10;0;81;136.21;0;-7.00;0.00;-1002.00
1716551677928298473;0;0;0;0;0;0;90;92;10;0;81;136.21;0;-4.00;9.00;-1004.00
1716551678044072628;0;0;0;0;0;0;90;92;10;0;81;136.21;0;-1.00;7.00;-1003.00
1716551678132434606;0;0;0;0;0;0;90;92;10;0;81;136.21;0;1.00;6.00;-1003.00
1716551678238904714;0;0;0;0;0;0;90;92;10;0;81;136.21;0;-12.00;7.00;-1027.00
1716551678339741945;0;0;0;0;0;0;90;92;10;0;81;136.21;0;-7.00;10.00;-1180.00
1716551678438596248;-2;0;0;0;0;-1;90;92;10;0;81;136.21;0;9.00;-12.00;-1369.00
1716551678542301654;0;0;0;0;0;-5;90;92;13;0;81;136.21;0;-3.00;0.00;-1273.00
1716551678649967432;1;0;0;0;0;-7;90;92;22;0;81;136.53;0;-3.00;7.00;-1108.00
1716551678751288652;1;0;0;0;0;-8;90;92;31;10;81;136.62;0;-3.00;2.00;-1025.00
1716551678796126365;1;0;0;0;0;-8;90;92;39;20;81;136.78;1;-7.00;4.00;-965.00
1716551678898181200;0;0;0;0;0;-8;90;92;46;30;81;136.76;1;0.00;0.00;-924.00
1716551679000422954;0;0;0;0;0;-7;90;92;54;40;81;136.90;1;-1.00;4.00;-898.00
1716551679101991653;0;0;0;0;0;-6;90;92;60;40;81;136.92;1;-10.00;11.00;-884.00
1716551679205648183;0;0;0;0;0;-4;90;92;65;50;81;137.04;1;15.00;-2.00;-875.00
1716551679309365749;0;0;0;0;0;-3;90;92;68;50;81;137.05;1;0.00;1.00;-883.00
1716551679409184694;0;0;0;0;0;-2;90;92;71;50;81;137.13;1;7.00;-9.00;-907.00
1716551679510080099;0;0;0;0;0;-1;90;92;73;60;81;137.19;1;3.00;-2.00;-931.00
1716551679613016366;0;0;0;0;0;-1;90;92;75;60;81;137.18;1;-1.00;0.00;-948.00
1716551679715663194;0;0;0;0;0;0;90;92;76;60;81;137.20;1;-9.00;6.00;-967.00
1716551679824518680;0;0;0;0;0;0;90;92;77;60;81;137.17;2;0.00;1.00;-977.00
1716551679918377876;0;0;0;0;0;0;90;92;78;60;81;137.20;2;-4.00;5.00;-995.00
1716551680021134853;0;0;0;0;0;0;90;93;79;60;81;137.20;2;8.00;-1.00;-996.00
1716551680122361660;0;0;0;0;0;0;90;93;80;60;81;137.24;2;-4.00;1.00;-1005.00
1716551680225304365;0;0;0;0;0;0;90;93;80;60;80;137.22;2;0.00;10.00;-1002.00
1716551680327202558;0;0;0;0;0;0;90;93;81;60;80;137.18;2;-3.00;-8.00;-988.00
1716551680429797172;0;0;0;0;0;0;90;93;82;60;80;137.27;2;-2.00;-3.00;-1001.00
1716551680531625032;0;0;0;0;0;0;90;93;82;70;80;137.20;2;-1.00;2.00;-991.00
1716551680634062528;0;0;0;0;0;0;90;93;83;70;80;137.25;2;-12.00;6.00;-988.00
1716551680739642143;0;0;0;0;0;0;90;93;83;70;80;137.22;2;3.00;1.00;-996.00
1716551680839572429;0;0;0;0;0;0;90;93;84;70;80;137.26;3;0.00;-2.00;-990.00
1716551680941544532;0;0;0;0;0;0;90;93;84;70;80;137.18;3;-4.00;1.00;-985.00
1716551681042139053;0;0;0;0;0;0;90;92;84;70;80;137.21;3;-3.00;3.00;-987.00
1716551681146097421;0;0;0;0;0;0;90;92;84;70;80;137.21;3;-9.00;4.00;-999.00
1716551681246987104;0;0;0;0;0;0;90;92;84;70;80;137.15;3;0.00;3.00;-985.00
1716551681299774885;0;0;0;0;0;0;90;92;84;70;80;137.19;3;4.00;1.00;-990.00
1716551681401465415;0;0;0;0;0;0;90;92;84;70;80;137.28;3;6.00;-5.00;-993.00
1716551681503422021;0;0;0;0;0;0;90;92;84;70;80;137.25;3;15.00;-9.00;-978.00
1716551681603411436;0;0;0;0;0;0;90;92;83;70;80;137.23;3;-1.00;2.00;-1000.00
1716551681705183029;0;0;0;0;0;0;90;92;83;70;80;137.23;3;4.00;1.00;-1004.00
1716551681807167053;0;0;0;0;0;0;90;92;83;70;80;137.22;4;1.00;5.00;-1001.00
1716551681911976814;0;0;0;0;0;0;90;92;83;70;80;137.28;4;7.00;-7.00;-992.00
1716551682011790513;0;0;0;0;0;0;89;92;82;70;80;137.26;4;4.00;2.00;-1004.00
1716551682113121986;0;0;0;0;0;0;89;92;82;70;80;137.23;4;4.00;-1.00;-1006.00
1716551682215215921;0;0;0;0;0;0;89;92;82;70;80;137.20;4;-2.00;0.00;-988.00
1716551682318510770;0;0;0;0;0;0;89;92;82;70;80;137.21;4;2.00;-1.00;-1001.00
1716551682421305894;0;0;0;0;0;0;89;92;81;70;80;137.24;4;-4.00;9.00;-998.00
1716551682522156715;0;0;0;0;0;0;89;92;81;70;80;137.25;4;10.00;-1.00;-1000.00
1716551682624973535;0;0;0;0;0;0;89;92;81;70;80;137.24;4;5.00;0.00;-1000.00
1716551682726109027;0;0;0;0;0;0;89;92;81;70;80;137.26;4;4.00;8.00;-998.00
1716551682829339504;0;0;0;0;0;0;89;92;81;70;80;137.26;5;0.00;0.00;-981.00
1716551682933264493;0;0;0;0;0;0;89;92;80;70;80;137.18;5;4.00;0.00;-1006.00
1716551683036113262;0;0;0;0;0;0;89;91;80;70;80;137.26;5;-20.00;10.00;-1010.00
1716551683137350797;0;0;0;0;0;0;89;91;80;70;80;137.22;5;24.00;-5.00;-999.00
1716551683245662450;0;0;0;0;0;0;89;91;80;70;80;137.19;5;-10.00;7.00;-1001.00
1716551683339855670;0;0;0;0;0;0;89;91;80;70;80;137.18;5;-5.00;9.00;-992.00
1716551683443383693;0;0;0;0;0;0;89;91;80;70;80;137.21;5;13.00;-10.00;-1002.00
1716551683543162584;0;0;0;0;0;0;89;91;80;70;80;137.25;5;2.00;-1.00;-1010.00
1716551683645029544;0;0;0;0;0;0;89;91;80;70;80;137.22;5;10.00;-8.00;-996.00
1716551683747027635;0;0;0;0;0;0;89;91;80;70;80;137.22;6;9.00;2.00;-1008.00
1716551683849389553;1;0;0;0;0;0;89;91;80;70;80;137.21;6;21.00;-14.00;-1016.00
1716551683951277971;1;0;0;0;0;0;89;91;80;70;80;137.29;6;4.00;-3.00;-1000.00
1716551684052943944;1;0;0;0;0;0;88;90;80;70;80;137.20;6;12.00;1.00;-1001.00
1716551684156025409;1;0;0;0;0;0;88;90;80;70;80;137.26;6;7.00;0.00;-987.00
1716551684256856679;0;0;0;0;0;0;88;90;80;70;80;137.28;6;12.00;-5.00;-1005.00
1716551684360564231;-2;0;0;0;0;0;88;90;80;70;80;137.26;6;-6.00;0.00;-1011.00
1716551684410411357;-7;0;0;0;0;0;88;90;78;70;80;137.21;6;12.00;-1.00;-993.00
1716551684511802673;-8;0;0;2;0;0;88;90;79;70;80;137.26;6;3.00;-10.00;-1008.00
1716551684617346525;-8;0;0;3;0;0;88;90;80;70;80;137.21;6;-19.00;-5.00;-1003.00
1716551684716075181;-7;0;0;4;0;0;88;90;80;70;80;137.22;7;-34.00;-2.00;-1008.00
1716551684819906234;-7;0;0;5;0;0;88;90;80;70;80;137.14;7;-34.00;3.00;-1013.00
1716551684921735525;-6;0;0;6;0;0;88;90;80;70;80;137.16;7;-46.00;-1.00;-997.00
1716551685022262096;-5;0;0;7;0;0;87;91;80;70;80;137.17;7;-56.00;2.00;-1010.00
1716551685127364873;-4;0;0;7;0;0;87;91;80;70;80;137.16;7;-33.00;-2.00;-1005.00
1716551685226145744;-2;0;0;7;0;0;87;91;80;70;80;137.19;7;-53.00;8.00;-988.00
1716551685328034639;0;0;0;7;0;0;87;91;82;70;80;137.09;7;-57.00;1.00;-992.00
1716551685430938482;3;0;0;6;0;0;87;91;82;70;80;137.21;7;-47.00;1.00;-991.00
1716551685537555694;4;0;0;5;0;0;87;91;82;70;80;137.16;7;-45.00;0.00;-1015.00
1716551685633996725;3;0;0;4;0;0;87;91;82;70;80;137.22;7;-39.00;0.00;-999.00
1716551685738841295;2;0;0;3;0;0;87;91;82;70;80;137.20;8;-29.00;3.00;-994.00
1716551685842276811;0;0;0;3;0;0;87;91;82;70;80;137.17;8;-23.00;-3.00;-1007.00
1716551685943132877;0;0;0;2;0;0;87;91;83;60;80;137.21;8;-30.00;7.00;-995.00
1716551686044163942;0;0;0;2;0;0;88;90;83;60;80;137.23;8;-13.00;1.00;-1010.00
1716551686144624710;0;0;0;2;0;0;88;90;83;60;80;137.29;8;-2.00;-5.00;-1013.00
1716551686246816873;0;0;0;2;0;0;88;90;84;70;80;137.20;8;-22.00;0.00;-1003.00
1716551686348050832;0;0;0;2;0;0;88;90;84;70;80;137.26;8;-15.00;4.00;-995.00
1716551686449972629;3;0;0;2;0;0;88;90;85;70;80;137.23;8;-16.00;4.00;-975.00
1716551686551945686;4;0;0;1;0;0;88;90;85;70;80;137.32;8;-17.00;-2.00;-1025.00
1716551686655008554;2;0;0;0;0;0;88;90;86;70;80;137.23;8;-5.00;0.00;-1003.00
1716551686759536743;1;0;0;0;0;0;88;90;86;70;80;137.25;9;-5.00;3.00;-993.00
1716551686858361959;0;0;0;0;0;0;88;90;87;70;80;137.25;9;0.00;-2.00;-995.00
1716551686960066556;0;0;0;0;0;0;88;90;87;70;80;137.24;9;-7.00;-11.00;-988.00
1716551687061707496;0;0;0;0;0;0;88;90;87;70;80;137.21;9;-3.00;2.00;-984.00
1716551687163901090;0;0;0;0;0;0;88;90;88;70;80;137.32;9;-1.00;8.00;-998.00
1716551687270557165;0;0;0;0;0;0;88;90;87;70;80;137.25;9;0.00;2.00;-992.00
1716551687372845649;0;0;0;0;0;0;88;90;88;70;80;137.22;9;0.00;4.00;-988.00
1716551687475555658;0;0;0;0;0;0;88;90;87;70;80;137.33;9;-2.00;9.00;-996.00
1716551687579509258;0;0;0;0;0;0;88;90;87;70;80;137.21;9;-4.00;10.00;-994.00
1716551687675638198;0;0;0;0;0;0;88;90;87;70;80;137.30;9;9.00;2.00;-992.00
1716551687777117729;0;0;0;0;0;0;88;90;87;70;80;137.30;10;5.00;2.00;-977.00
1716551687879398584;0;0;2;0;0;0;88;90;87;70;80;137.30;10;10.00;-4.00;-994.00
1716551687983935832;0;0;8;0;0;0;88;90;86;70;80;137.29;10;1.00;6.00;-993.00
1716551688086085081;0;0;14;0;0;0;87;90;86;70;80;137.29;10;-8.00;5.00;-992.00
1716551688187717914;0;0;20;0;0;0;87;90;86;70;80;137.31;10;0.00;2.00;-994.00
1716551688288239717;0;0;26;0;0;0;87;90;86;70;80;137.25;10;3.00;0.00;-995.00
1716551688392662525;0;0;32;0;0;0;87;90;85;70;80;137.27;10;-1.00;5.00;-998.00
1716551688492036104;0;0;37;0;0;0;87;90;85;70;80;137.30;10;3.00;-1.00;-1000.00
1716551688592843294;0;0;43;0;0;0;87;90;85;70;80;137.33;10;2.00;0.00;-999.00
1716551688648546218;0;0;49;0;0;0;87;90;85;70;80;137.30;10;5.00;4.00;-1006.00
1716551688747579336;0;0;55;0;0;0;87;90;84;70;80;137.28;11;7.00;-3.00;-995.00
1716551688848415136;0;0;61;0;0;0;87;90;84;70;80;137.31;11;3.00;2.00;-1005.00
1716551688957028150;0;0;67;0;0;0;87;90;84;70;80;137.27;11;0.00;3.00;-1006.00
1716551689051905632;0;0;73;0;0;0;87;90;84;70;80;137.33;11;8.00;0.00;-1003.00
1716551689154055356;0;0;79;0;0;0;87;90;84;70;80;137.24;11;0.00;-1.00;-990.00
1716551689255795717;0;0;85;0;0;0;87;90;84;70;80;137.21;11;2.00;2.00;-1004.00
1716551689357809782;0;0;91;0;0;0;87;90;83;70;80;137.25;11;19.00;-6.00;-993.00
1716551689459968805;0;0;97;0;0;0;87;90;83;70;80;137.20;11;-4.00;10.00;-1001.00
1716551689563162565;0;0;103;0;0;0;87;90;83;70;80;137.20;11;-8.00;11.00;-1005.00
1716551689666342496;0;0;109;0;0;0;87;90;83;70;80;137.24;11;0.00;-1.00;-992.00
1716551689767051696;0;0;114;0;0;0;87;90;83;70;80;137.23;12;-6.00;2.00;-1000.00
1716551689868721008;0;0;120;0;0;0;87;90;83;70;80;137.18;12;-15.00;9.00;-1007.00
1716551689972875118;0;0;126;0;0;0;87;90;82;70;80;137.20;12;-1.00;4.00;-1006.00
1716551690076969623;0;0;132;0;0;0;86;89;83;70;80;137.21;12;12.00;1.00;-1008.00
1716551690176823854;0;0;136;0;0;0;86;89;82;70;80;137.24;12;-1.00;5.00;-996.00
1716551690281000614;0;0;140;0;0;0;86;89;82;70;80;137.28;12;1.00;-2.00;-992.00
1716551690380912065;0;0;143;0;0;0;86;89;82;70;80;137.21;12;-1.00;7.00;-1000.00
1716551690481090784;0;0;145;0;0;0;86;89;82;70;80;137.25;12;13.00;-3.00;-1001.00
1716551690582770109;0;0;146;0;0;0;86;89;82;70;80;137.25;12;4.00;-5.00;-1005.00
1716551690684754133;0;0;148;0;0;0;86;89;82;70;80;137.24;12;0.00;2.00;-1004.00
1716551690786781072;0;0;149;0;0;0;86;89;82;70;80;137.28;13;4.00;-9.00;-1003.00
1716551690888709068;0;0;149;0;0;0;86;89;82;70;80;137.20;13;-8.00;5.00;-1002.00
1716551690991741657;0;0;150;0;0;0;86;89;82;70;80;137.23;13;-10.00;4.00;-996.00
1716551691095577239;0;0;150;0;0;0;86;89;82;70;80;137.27;13;-12.00;3.00;-1017.00
1716551691198585033;-3;0;150;0;0;0;86;89;80;70;80;137.27;13;-13.00;6.00;-1001.00
1716551691298461437;-7;0;150;-1;0;0;86;89;80;70;80;137.26;13;-16.00;6.00;-991.00
1716551691401913404;-8;0;150;-2;1;0;86;89;81;70;80;137.23;13;-22.00;2.00;-1014.00
1716551691503620386;-8;0;150;-3;1;0;86;89;81;70;80;137.22;13;-29.00;-2.00;-997.00
1716551691608852148;-7;0;150;-4;2;0;86;89;80;70;80;137.20;13;-32.00;-9.00;-1004.00
1716551691713723897;-7;0;150;-5;3;0;86;89;80;70;80;137.16;13;-50.00;4.00;-1002.00
1716551691813555240;-6;0;150;-6;3;0;86;89;79;70;80;137.17;14;-52.00;0.00;-1002.00
1716551691912644386;-5;0;150;-6;3;0;86;89;79;70;80;137.13;14;-44.00;-4.00;-994.00
1716551692015858411;-5;0;150;-7;4;0;86;89;80;70;80;137.17;14;-44.00;-7.00;-982.00
1716551692116808891;-4;0;150;-7;4;0;86;88;81;70;80;137.02;14;-64.00;2.00;-993.00
1716551692227536916;-1;0;150;-7;4;0;86;88;82;70;80;137.12;14;-66.00;1.00;-994.00
1716551692272351980;1;0;150;-6;4;0;86;88;82;70;80;137.05;14;-66.00;-2.00;-1004.00
1716551692373773813;3;0;150;-6;3;0;86;88;83;70;80;137.13;14;-58.00;-4.00;-996.00
1716551692475813388;4;0;150;-5;2;0;86;88;83;70;80;137.16;14;-55.00;-5.00;-1004.00
1716551692580161094;3;0;150;-4;2;0;86;88;83;70;80;137.23;14;-38.00;-13.00;-991.00
1716551692679781436;1;0;150;-3;1;0;86;88;83;70;80;137.20;14;-34.00;-9.00;-998.00
1716551692781045913;0;0;150;-2;1;0;86;88;83;70;80;137.31;15;-29.00;-6.00;-989.00
1716551692882522106;0;0;150;-2;1;0;86;88;83;70;80;137.24;15;-24.00;-11.00;-987.00
1716551692985715627;0;0;150;-2;1;0;86;88;83;70;80;137.26;15;-33.00;-2.00;-990.00
1716551693086827754;-1;0;150;-2;1;0;85;88;83;70;80;137.21;15;-33.00;1.00;-1000.00
1716551693188801765;0;1;150;-2;1;0;85;88;83;70;80;137.19;15;-37.00;8.00;-987.00
1716551693294794797;0;2;150;-2;0;0;85;88;83;70;80;137.23;15;-26.00;17.00;-946.00
1716551693392711639;4;-1;150;-2;0;0;85;88;82;70;80;137.26;15;-39.00;-13.00;-1037.00
1716551693496418476;3;-1;150;-1;0;0;85;88;83;70;80;137.28;15;-20.00;-5.00;-995.00
1716551693599529981;1;0;150;0;0;0;85;88;83;70;80;137.24;15;-6.00;-7.00;-1004.00
1716551693706208229;0;0;150;0;0;0;85;88;83;70;80;137.16;15;-23.00;6.00;-987.00
1716551693806153059;0;0;150;0;0;0;85;88;83;70;80;137.28;16;-17.00;1.00;-1006.00
1716551693906546592;0;0;150;0;0;0;85;88;83;70;80;137.28;16;-22.00;9.00;-997.00
1716551694012235403;0;0;150;0;0;0;85;88;83;70;80;137.19;16;-14.00;-2.00;-990.00
1716551694109072685;0;0;150;0;0;0;85;88;83;70;80;137.28;16;-28.00;7.00;-999.00
1716551694210869789;0;0;150;0;0;0;85;88;83;70;80;137.23;16;-21.00;3.00;-977.00
1716551694315311670;0;0;150;0;0;0;85;88;83;70;80;137.26;16;-21.00;5.00;-999.00
1716551694414517402;0;0;146;0;0;0;85;88;83;70;80;137.33;16;-9.00;-4.00;-989.00
1716551694516707420;0;0;140;0;0;0;85;88;83;70;80;137.35;16;-6.00;11.00;-1003.00
1716551694619620561;0;0;134;0;0;0;85;88;83;70;80;137.29;16;-6.00;7.00;-1003.00
1716551694720567464;0;0;128;0;0;0;85;88;83;70;80;137.24;16;-4.00;2.00;-993.00
1716551694822948455;0;0;121;0;0;0;85;88;83;70;80;137.29;17;5.00;1.00;-1000.00
1716551694925493955;0;-1;115;0;0;0;85;88;83;70;80;137.24;17;-14.00;9.00;-1005.00
1716551695027490139;0;-1;109;0;0;0;85;88;83;70;80;137.29;17;4.00;5.00;-989.00
1716551695128458976;0;-1;103;0;0;0;85;88;83;70;80;137.26;17;0.00;6.00;-994.00
1716551695232078313;0;-1;98;0;0;0;85;88;83;70;80;137.31;17;2.00;9.00;-995.00
1716551695340935468;0;-1;92;0;0;0;85;88;83;70;80;137.28;17;2.00;5.00;-999.00
1716551695444153547;0;0;87;0;0;0;85;88;82;70;80;137.27;17;-20.00;14.00;-990.00
1716551695542234420;0;0;81;0;0;0;85;88;82;70;80;137.27;17;0.00;21.00;-1010.00
1716551695587495326;0;0;75;0;0;0;85;88;82;70;80;137.24;17;-4.00;8.00;-977.00
1716551695689387798;0;0;70;0;0;0;85;88;81;70;80;137.27;17;12.00;-1.00;-987.00
1716551695792969226;0;0;64;0;0;0;85;88;81;70;80;137.30;18;-6.00;13.00;-993.00
1716551695894548892;0;0;58;0;0;0;85;88;80;70;80;137.29;18;12.00;2.00;-1007.00
1716551695995865106;0;0;52;0;0;0;85;88;80;70;80;137.28;18;-10.00;12.00;-986.00
1716551696104077816;0;0;46;0;0;0;85;87;79;70;80;137.31;18;3.00;0.00;-992.00
1716551696201462745;0;0;40;0;0;0;85;87;79;70;80;137.23;18;4.00;7.00;-1003.00
1716551696301943778;0;0;34;0;0;0;85;87;78;70;80;137.24;18;-13.00;6.00;-1005.00
1716551696404154300;0;0;28;0;0;0;85;87;78;70;80;137.22;18;20.00;-1.00;-992.00
1716551696506287574;0;0;21;0;0;0;85;87;77;70;80;137.27;18;9.00;1.00;-981.00
1716551696612001180;0;0;15;0;0;0;85;87;78;70;80;137.21;18;11.00;7.00;-1012.00
1716551696712726116;0;0;10;0;0;0;85;87;77;70;80;137.18;18;29.00;-6.00;-998.00
1716551696814645051;0;0;7;0;0;0;85;87;77;60;80;137.20;19;11.00;0.00;-1022.00
1716551696914564847;0;-1;4;0;0;0;85;87;76;60;80;137.15;19;-2.00;7.00;-1020.00
1716551697020061492;0;-1;2;0;0;0;85;87;76;60;80;137.11;19;1.00;15.00;-1017.00
1716551697119114160;0;0;0;0;0;0;85;87;76;60;80;137.18;19;-5.00;11.00;-1035.00
1716551697220813035;0;0;-1;0;0;0;85;87;76;60;80;137.12;19;11.00;6.00;-995.00
1716551697327321767;-1;0;-1;0;0;0;85;87;76;60;80;137.16;19;15.00;3.00;-1015.00
1716551697425520896;-6;0;-1;0;0;0;85;87;74;60;80;137.13;19;1.00;19.00;-985.00
1716551697527606964;-8;0;-1;2;0;0;85;87;74;60;80;137.10;19;7.00;2.00;-1048.00
1716551697631798505;-8;0;-1;3;0;0;85;87;74;60;80;137.11;19;2.00;12.00;-976.00
1716551697734809398;-7;0;-1;4;0;0;85;87;74;60;80;137.09;20;2.00;-3.00;-1005.00
1716551697833629369;-6;0;-1;5;0;0;85;87;74;60;80;137.05;20;-18.00;9.00;-1014.00
1716551697935463190;-5;0;-1;6;0;0;85;87;75;60;80;137.17;20;-21.00;-8.00;-1002.00
1716551698042981624;-4;0;-1;7;0;0;85;87;76;60;80;137.18;20;-32.00;-11.00;-1015.00
1716551698143719673;-4;0;-1;7;0;0;85;87;76;60;80;137.03;20;-47.00;3.00;-1027.00
1716551698244289636;-2;0;-1;8;0;0;85;87;77;60;80;137.20;20;-38.00;-2.00;-1009.00
1716551698344400405;0;0;-1;7;0;0;85;87;79;70;80;137.15;20;-55.00;0.00;-996.00
1716551698468357563;3;0;-1;6;0;0;85;87;80;70;80;137.15;20;-50.00;4.00;-993.00
1716551698548593997;4;0;-1;5;0;0;85;87;80;70;80;137.14;20;-51.00;8.00;-993.00
1716551698655038118;3;0;-1;4;0;0;85;87;80;70;80;137.15;20;-53.00;11.00;-983.00
1716551698753471374;2;0;-1;3;0;0;85;87;81;70;80;137.17;21;-62.00;25.00;-1016.00
1716551698856891155;1;0;-1;3;0;0;85;87;81;70;80;137.21;21;-29.00;-1.00;-992.00
1716551698957275390;0;0;-1;2;0;0;85;87;81;70;80;137.19;21;-28.00;0.00;-996.00
1716551699010025262;0;0;-1;2;0;0;85;87;81;70;80;137.21;21;-32.00;6.00;-992.00
1716551699161220788;0;0;-1;2;0;0;84;87;81;70;80;137.22;21;-16.00;4.00;-996.00
1716551699266007184;0;0;-1;2;0;0;84;87;81;70;80;137.17;21;-15.00;4.00;-1005.00
1716551699316462993;0;0;-1;2;0;0;84;87;81;70;80;137.18;21;-11.00;9.00;-1015.00
1716551699418743610;0;0;-1;2;0;0;84;87;81;70;80;137.29;21;-14.00;1.00;-1004.00
1716551699522029161;2;-2;-1;1;0;0;84;87;81;70;80;137.23;21;0.00;-3.00;-952.00
1716551699622320890;3;-4;-1;1;0;0;84;87;80;70;80;137.30;21;-22.00;4.00;-1029.00
1716551699725677728;1;-4;-1;0;-1;0;84;87;81;70;80;137.29;22;-2.00;7.00;-1006.00
1716551699826989173;1;2;-1;0;-1;0;84;87;81;70;80;137.23;22;-3.00;24.00;-980.00
1716551699928243637;0;2;-1;0;0;0;84;87;81;70;80;137.23;22;3.00;10.00;-1001.00
1716551700033068656;0;1;-1;0;0;0;84;87;81;70;80;137.23;22;-13.00;14.00;-1008.00
1716551700134637594;0;0;-1;0;0;0;84;87;82;70;80;137.24;22;15.00;-3.00;-1004.00
1716551700243519544;0;0;-1;0;0;0;84;87;81;70;80;137.20;22;-14.00;21.00;-991.00
1716551700339880704;0;0;-1;0;0;0;84;87;81;70;80;137.23;22;-8.00;21.00;-1010.00
1716551700439265727;0;0;-1;0;0;0;84;87;81;70;80;137.26;22;5.00;6.00;-1000.00
1716551700543598651;0;0;-1;0;0;0;84;87;81;70;80;137.28;22;-3.00;12.00;-994.00
1716551700643701553;0;0;-1;0;0;0;84;87;81;70;80;137.28;22;7.00;-3.00;-999.00
1716551700746952533;0;0;-1;0;0;0;84;87;80;70;80;137.17;23;16.00;0.00;-1002.00
1716551700847542047;0;0;-5;0;0;0;84;87;80;70;80;137.28;23;0.00;12.00;-1008.00
1716551700951838493;0;0;-11;0;0;0;84;87;80;70;80;137.20;23;-7.00;11.00;-1004.00
1716551701051561832;0;0;-17;0;0;0;84;87;80;70;80;137.17;23;-8.00;4.00;-1002.00
1716551701154790639;0;0;-22;0;0;0;84;87;80;70;80;137.13;23;-10.00;16.00;-1011.00
1716551701262543439;0;0;-28;0;0;0;84;87;80;70;79;137.11;23;-9.00;6.00;-1000.00
1716551701357270002;0;0;-34;0;0;0;84;87;80;70;79;137.11;23;2.00;9.00;-995.00
1716551701463999271;0;0;-40;0;0;0;84;87;80;70;79;137.14;23;-2.00;4.00;-997.00
1716551701564043045;0;0;-46;0;0;0;84;87;80;70;79;137.11;23;1.00;-3.00;-992.00
1716551701664166212;0;0;-52;0;0;0;84;87;80;70;79;137.10;23;-7.00;10.00;-994.00
1716551701769221782;0;0;-58;0;0;0;84;87;80;70;79;137.17;24;-9.00;16.00;-1009.00
1716551701869916915;0;0;-64;0;0;0;84;87;80;70;79;137.15;24;2.00;-1.00;-995.00
1716551701974081039;0;0;-70;0;0;0;84;87;80;70;79;137.08;24;0.00;12.00;-1015.00
1716551702073662757;0;0;-75;0;0;0;84;87;80;70;79;137.05;24;-9.00;11.00;-1003.00
1716551702178292274;0;0;-79;0;0;0;84;86;80;70;79;137.01;24;-8.00;-3.00;-984.00
1716551702281168222;0;0;-82;0;0;0;84;86;80;70;79;137.08;24;-10.00;6.00;-1008.00
1716551702379207611;0;0;-84;0;0;0;84;86;80;70;79;137.09;24;-12.00;6.00;-1000.00
1716551702480617284;0;0;-86;0;0;0;84;86;80;70;79;137.12;24;-16.00;4.00;-1007.00
1716551702582417249;0;0;-87;0;0;0;84;86;79;70;79;137.11;24;-8.00;7.00;-1006.00
1716551702636249780;0;0;-88;0;0;0;84;86;79;70;79;137.06;24;-20.00;0.00;-995.00
1716551702739068508;0;0;-89;0;0;0;84;86;79;70;79;137.07;25;0.00;0.00;-997.00
1716551702844735383;0;0;-89;0;0;0;84;86;80;70;79;137.06;25;-12.00;1.00;-1017.00
1716551702943805456;0;0;-89;0;0;0;84;86;80;70;79;137.10;25;-19.00;11.00;-1006.00
1716551703043508291;-1;0;-89;0;0;0;84;86;79;70;79;137.06;25;-19.00;0.00;-1028.00
1716551703147605419;-7;0;-89;0;0;0;83;86;79;70;79;137.02;25;-3.00;2.00;-983.00
1716551703247415781;-8;0;-89;0;-1;0;83;86;79;70;79;137.04;25;-28.00;2.00;-1007.00
1716551703349783658;-8;0;-89;0;-3;0;83;86;79;70;79;137.11;25;-30.00;3.00;-998.00
1716551703469946861;-8;0;-89;0;-4;0;83;86;79;70;79;137.01;25;-24.00;-6.00;-1014.00
1716551703557684183;-8;0;-89;0;-5;0;83;86;80;70;79;137.05;25;-38.00;-5.00;-992.00
1716551703657453060;-8;0;-89;0;-6;0;83;86;80;70;79;136.97;25;-43.00;-3.00;-1002.00
1716551703758845090;-6;0;-89;0;-7;0;83;86;80;70;79;136.97;26;-58.00;8.00;-993.00
1716551703859932899;-5;0;-89;0;-7;0;83;86;79;70;79;136.94;26;-56.00;0.00;-1011.00
1716551703965255498;-3;0;-89;0;-8;0;83;86;81;70;79;136.98;26;-64.00;3.00;-983.00
1716551704065323114;0;0;-89;0;-7;0;83;86;82;70;79;136.99;26;-68.00;5.00;-980.00
1716551704166396856;1;0;-89;0;-7;0;83;86;83;70;79;136.99;26;-71.00;3.00;-1001.00
1716551704270206212;3;0;-89;0;-6;0;83;86;83;70;79;136.98;26;-56.00;2.00;-1005.00
1716551704377457141;3;0;-89;0;-4;0;83;86;84;70;79;136.97;26;-42.00;4.00;-1013.00
1716551704474923849;2;0;-89;0;-4;0;83;86;83;70;79;137.05;26;-34.00;2.00;-993.00
1716551704577850341;0;0;-89;0;-3;0;83;86;83;70;79;137.04;26;-37.00;-3.00;-997.00
1716551704680141448;0;0;-89;0;-2;0;83;86;83;70;79;137.06;26;-35.00;3.00;-993.00
1716551704781421661;0;0;-89;0;-2;0;83;86;84;70;79;137.10;27;-35.00;7.00;-1000.00
1716551704880128622;-1;0;-89;0;-2;0;83;86;84;70;79;137.07;27;-24.00;0.00;-994.00
1716551704984632253;-1;0;-89;0;-2;0;83;86;84;70;79;137.10;27;-27.00;-5.00;-989.00
1716551705084049224;-1;0;-89;0;-3;0;83;86;84;70;79;137.05;27;-25.00;0.00;-1004.00
1716551705190724134;2;0;-89;0;-3;0;83;85;84;70;78;137.08;27;-22.00;-6.00;-992.00
1716551705288249492;5;0;-89;0;-2;0;83;85;84;70;78;137.11;27;-30.00;-7.00;-1039.00
1716551705391447782;3;0;-89;0;-1;0;83;85;84;70;78;137.13;27;-11.00;-1.00;-993.00
1716551705492495298;1;0;-89;0;0;0;83;85;84;70;78;137.11;27;-13.00;2.00;-998.00
1716551705597759962;0;0;-89;0;0;0;83;85;85;70;78;137.11;27;-16.00;1.00;-1000.00
1716551705700402975;0;0;-89;0;0;0;83;85;85;70;78;137.13;27;-9.00;-1.00;-999.00
1716551705804253578;0;0;-89;0;0;0;83;85;85;70;78;137.12;28;3.00;-3.00;-1003.00
1716551705907798290;0;0;-89;0;0;0;83;85;86;70;78;137.22;28;0.00;-2.00;-1000.00
1716551705953203916;0;0;-89;0;0;0;83;85;86;70;78;137.20;28;-11.00;19.00;-1009.00
1716551706055061817;0;0;-89;0;0;0;83;85;86;70;78;137.22;28;-5.00;3.00;-993.00
1716551706212617397;0;0;-89;0;0;0;83;85;86;70;78;137.24;28;-2.00;3.00;-1000.00
1716551706310685157;0;0;-89;0;0;0;83;85;86;70;78;137.24;28;-47.00;51.00;-1001.00
1716551706428793191;0;0;-93;0;0;0;83;85;86;70;78;137.22;28;3.00;-4.00;-987.00
1716551706514331340;0;0;-99;0;0;0;83;85;86;70;78;137.26;28;7.00;3.00;-983.00
1716551706619182825;0;0;-105;0;0;0;83;85;86;70;78;137.26;28;1.00;1.00;-995.00
1716551706667089939;0;0;-111;0;0;0;83;85;86;70;78;137.28;28;-7.00;-1.00;-980.00
1716551706769080638;0;0;-117;0;0;0;83;85;86;70;78;137.23;29;0.00;6.00;-1003.00
1716551706871374368;0;0;-123;0;0;0;83;85;86;70;78;137.33;29;-4.00;3.00;-995.00
1716551706976290464;0;0;-129;0;0;0;83;85;86;70;78;137.27;29;-9.00;3.00;-998.00
1716551707078579187;0;0;-135;0;0;0;83;85;85;70;78;137.28;29;-8.00;16.00;-1027.00
1716551707183293342;0;0;-141;0;0;0;84;86;85;70;78;137.30;29;-5.00;5.00;-1000.00
1716551707282949447;0;0;-147;0;0;0;84;86;85;70;78;137.25;29;2.00;-3.00;-988.00
1716551707392128467;0;0;-153;0;0;0;84;86;85;70;78;137.22;29;-2.00;0.00;-997.00
1716551707486969709;0;0;-159;0;0;0;84;86;84;70;78;137.34;29;-5.00;3.00;-1002.00
1716551707588942050;0;0;-164;0;0;0;84;86;84;70;78;137.24;29;18.00;-21.00;-985.00
1716551707690915346;0;0;-168;0;0;0;84;86;84;70;78;137.23;29;19.00;-11.00;-990.00
1716551707791157960;0;0;-170;0;0;0;84;86;84;70;78;137.25;30;3.00;-5.00;-998.00
1716551707893302440;0;0;-173;0;0;0;84;86;84;70;78;137.27;30;2.00;0.00;-995.00
1716551707995165586;0;0;-174;0;0;0;84;86;83;70;78;137.30;30;1.00;-2.00;-1004.00
1716551708097212314;0;0;-176;0;0;0;84;86;83;70;78;137.26;30;6.00;-3.00;-1007.00
1716551708200136423;0;0;-177;0;0;0;82;85;83;70;78;137.28;30;17.00;-6.00;-993.00
1716551708304131507;0;0;-177;0;0;0;82;85;83;70;78;137.23;30;19.00;-10.00;-1004.00
1716551708404840707;0;0;-178;0;0;0;82;85;83;70;78;137.20;30;-1.00;-5.00;-1033.00
1716551708510210752;-2;0;-178;0;0;0;82;85;81;70;78;137.23;30;2.00;9.00;-1005.00
1716551708607987403;-7;0;-178;0;0;0;82;85;82;70;78;137.23;30;-2.00;0.00;-1005.00
1716551708718816757;-8;0;-178;-2;0;0;82;85;82;70;78;137.25;30;-10.00;-4.00;-1004.00
1716551708811869382;-8;0;-178;-3;0;0;82;85;82;70;78;137.21;31;-23.00;-5.00;-995.00
1716551708916643381;-8;0;-178;-4;0;0;82;85;82;70;78;137.29;31;-36.00;11.00;-997.00
1716551709016943693;-7;0;-178;-5;0;0;82;85;82;70;78;137.22;31;-43.00;1.00;-997.00
1716551709118366003;-6;0;-178;-6;0;0;82;85;81;70;78;137.30;31;-46.00;5.00;-985.00
1716551709219998121;-5;0;-178;-7;0;0;82;86;81;70;77;137.21;31;-59.00;11.00;-999.00
1716551709333360433;-4;0;-178;-7;0;0;82;86;82;70;77;137.14;31;-50.00;5.00;-993.00
1716551709424325466;-2;0;-178;-8;0;0;82;86;83;70;77;137.16;31;-63.00;9.00;-989.00
1716551709527071714;0;0;-178;-7;0;0;82;86;83;70;77;137.22;31;-64.00;10.00;-1004.00
1716551709628360271;3;0;-178;-6;0;0;82;86;83;70;77;137.23;31;-46.00;0.00;-1008.00
1716551709729932308;4;0;-178;-5;0;0;82;86;83;70;77;137.21;31;-68.00;10.00;-1011.00
1716551709832014560;3;0;-178;-4;0;0;82;86;83;70;77;137.20;32;-37.00;5.00;-1004.00
1716551709934613466;1;0;-178;-3;0;0;82;86;83;70;77;137.20;32;-15.00;2.00;-1010.00
1716551710038974285;0;0;-178;-3;0;0;82;86;83;70;77;137.19;32;-26.00;1.00;-998.00
1716551710086850166;0;0;-178;-2;0;0;82;86;82;70;77;137.17;32;-25.00;-2.00;-1014.00
1716551710244836330;0;0;-178;-2;0;0;83;85;82;70;77;137.19;32;-32.00;4.00;-998.00
1716551710348859310;0;0;-178;-2;0;0;83;85;82;70;77;137.15;32;-21.00;-2.00;-999.00
1716551710395162820;-1;0;-178;-2;0;0;83;85;82;70;77;137.16;32;-38.00;6.00;-998.00
1716551710495918512;-1;0;-178;-2;0;0;83;85;82;70;77;137.22;32;-20.00;-3.00;-991.00
1716551710598814487;0;0;-178;-2;0;0;83;85;82;70;77;137.16;32;-33.00;13.00;-1017.00
1716551710700492143;5;0;-178;-2;0;0;83;85;82;70;77;137.19;32;-35.00;6.00;-1032.00
1716551710803023815;3;0;-178;-1;0;0;83;85;82;70;77;137.14;33;0.00;-13.00;-992.00
1716551710914334058;1;0;-177;0;0;0;83;85;82;70;77;137.18;33;-12.00;0.00;-1010.00
1716551711010706186;1;0;-177;0;0;0;83;85;83;70;77;137.21;33;2.00;-7.00;-996.00
1716551711118188142;0;0;-177;0;0;0;83;85;83;70;77;137.23;33;-11.00;11.00;-1001.00
1716551711212367773;0;0;-177;0;0;0;83;85;83;70;77;137.25;33;11.00;-4.00;-987.00
1716551711314095020;0;0;-177;0;0;0;83;85;83;70;77;137.21;33;11.00;-13.00;-981.00
1716551711416768312;0;0;-177;0;0;0;83;85;83;70;77;137.21;33;-25.00;7.00;-973.00
1716551711519214630;0;0;-177;0;0;0;83;85;83;70;77;137.24;33;-22.00;15.00;-1000.00
1716551711618949174;0;0;-177;0;0;0;83;85;84;70;77;137.28;33;5.00;-2.00;-966.00
1716551711722439765;0;0;-177;0;0;0;83;85;84;70;77;137.19;34;-21.00;14.00;-1008.00
1716551711823948144;0;0;179;0;0;0;83;85;84;70;77;137.24;34;-31.00;16.00;-1013.00
1716551711924919128;0;0;174;0;0;0;83;85;84;70;77;137.29;34;3.00;5.00;-972.00
1716551712026768207;0;0;170;0;0;0;83;85;84;70;77;137.29;34;-1.00;-3.00;-989.00
1716551712131551265;0;0;165;0;0;0;83;85;84;70;77;137.24;34;13.00;-10.00;-999.00
1716551712232075452;0;0;160;0;0;0;82;84;84;70;77;137.21;34;4.00;3.00;-985.00
1716551712332986593;0;0;154;0;0;0;82;84;84;70;77;137.26;34;-4.00;-8.00;-1008.00
1716551712435837268;0;0;149;0;0;0;82;84;84;70;77;137.26;34;10.00;-10.00;-993.00
1716551712537827253;0;0;143;0;0;0;82;84;85;70;77;137.25;34;5.00;0.00;-1001.00
1716551712645592927;0;0;137;0;0;0;82;84;85;70;77;137.26;34;-2.00;1.00;-996.00
1716551712745157003;0;0;131;0;0;0;82;84;85;70;77;137.26;35;-6.00;2.00;-982.00
1716551712844355821;0;0;125;0;0;0;82;84;85;70;77;137.29;35;1.00;-2.00;-995.00
1716551712948676109;0;0;119;0;0;0;82;84;85;70;77;137.35;35;-17.00;5.00;-983.00
1716551713053596973;0;0;113;0;0;0;82;84;85;70;77;137.35;35;3.00;6.00;-978.00
1716551713149805784;0;-1;109;0;0;0;82;84;85;70;77;137.35;35;-4.00;22.00;-1026.00
1716551713251992225;0;-1;106;0;0;0;82;85;86;70;77;137.37;35;-3.00;0.00;-994.00
1716551713356647253;0;-1;103;0;0;0;82;85;86;70;77;137.42;35;-13.00;1.00;-987.00
1716551713459239244;0;0;101;0;0;0;82;85;85;70;77;137.38;35;10.00;5.00;-1009.00
1716551713561279535;0;0;99;0;0;0;82;85;85;70;77;137.28;35;11.00;-2.00;-1020.00
1716551713661795139;0;0;97;0;0;0;82;85;85;70;77;137.36;35;-1.00;15.00;-1023.00
1716551713763650894;0;0;95;0;0;0;82;85;85;70;77;137.45;36;7.00;-10.00;-969.00
1716551713814843893;0;0;94;0;0;0;82;85;85;70;77;137.44;36;-12.00;15.00;-988.00
1716551713916799068;0;0;93;0;0;0;82;85;85;70;77;137.37;36;-18.00;6.00;-999.00
1716551714018628120;-1;0;92;0;0;0;82;85;85;70;77;137.34;36;-12.00;0.00;-1031.00
1716551714124315023;-7;0;92;0;0;0;82;85;82;70;77;137.41;36;18.00;-7.00;-979.00
1716551714277844905;-7;0;91;0;2;0;82;84;82;70;76;137.29;36;-12.00;-15.00;-1014.00
1716551714334771871;-4;0;90;0;3;0;82;84;81;70;76;137.32;36;-14.00;-6.00;-998.00
1716551714430512905;-2;0;90;0;3;0;82;84;82;70;76;137.32;36;-30.00;-3.00;-989.00
1716551714532066345;0;0;89;0;3;0;82;84;83;70;76;137.21;36;-34.00;5.00;-1011.00
1716551714632288694;0;0;88;0;3;0;82;84;83;70;76;137.24;36;-16.00;-4.00;-1018.00
1716551714732684612;0;0;88;0;3;0;82;84;82;70;76;137.24;37;-24.00;-3.00;-1000.00
1716551714834882020;0;0;87;0;2;0;82;84;82;70;76;137.18;37;-22.00;4.00;-999.00
1716551714947825908;0;0;87;0;2;0;82;84;82;70;76;137.15;37;8.00;-18.00;-1004.00
1716551715040516853;0;0;87;0;2;0;82;84;82;70;76;137.24;37;-24.00;11.00;-992.00
1716551715141706228;0;0;87;0;2;0;82;84;82;70;76;137.26;37;-5.00;-6.00;-1011.00
1716551715244979381;0;0;87;0;2;0;82;84;81;70;76;137.23;37;-12.00;2.00;-1014.00
1716551715344647645;0;0;87;0;2;0;82;84;81;70;76;137.24;37;-21.00;-1.00;-1009.00
1716551715447370052;-1;0;87;0;2;0;82;84;81;70;76;137.22;37;-22.00;0.00;-1006.00
1716551715548547029;-1;0;87;0;2;0;82;84;81;70;76;137.15;37;-19.00;5.00;-1012.00
1716551715651124000;-1;0;87;0;2;0;82;84;82;70;76;137.12;37;-16.00;1.00;-998.00
1716551715758279323;-1;0;87;0;2;0;82;84;82;70;76;137.07;38;-6.00;0.00;-1001.00
1716551715854743003;4;0;87;0;2;0;82;84;82;70;76;137.10;38;-38.00;10.00;-1030.00
1716551715959352970;4;0;87;0;1;0;82;84;82;70;76;137.09;38;-12.00;-1.00;-1015.00
1716551716060101270;1;0;87;0;0;0;82;84;83;70;76;137.15;38;0.00;1.00;-1002.00
1716551716160596132;0;0;87;0;0;0;82;84;83;70;76;137.16;38;0.00;-1.00;-992.00
1716551716262768030;0;0;87;0;0;0;82;84;84;70;76;137.17;38;0.00;0.00;-988.00
1716551716366041183;0;0;87;0;0;0;82;84;84;70;76;137.14;38;-7.00;-2.00;-985.00
1716551716467554092;0;0;87;0;0;0;82;84;84;70;76;137.30;38;0.00;5.00;-996.00
1716551716599568605;0;0;87;0;0;0;82;84;84;70;76;137.21;38;13.00;5.00;-997.00
1716551716680736541;0;-1;87;0;0;0;82;84;84;70;76;137.15;38;8.00;6.00;-977.00
1716551716775333404;0;-1;87;0;0;0;82;84;84;70;76;137.23;39;7.00;10.00;-947.00
1716551716877231597;0;-1;87;0;0;0;82;84;83;70;76;137.21;39;4.00;0.00;-931.00
1716551716977738857;0;-1;87;0;0;1;82;84;82;70;76;137.23;39;4.00;1.00;-935.00
1716551717080857276;0;-1;87;0;0;2;82;84;80;60;76;137.22;39;6.00;3.00;-908.00
1716551717181747913;0;0;87;0;0;3;82;84;77;60;76;137.14;39;2.00;-1.00;-924.00
1716551717283601760;0;0;87;0;0;3;80;84;73;60;76;137.04;39;-17.00;9.00;-928.00
1716551717388957500;0;0;87;0;0;4;80;84;68;50;76;137.05;39;9.00;-5.00;-954.00
1716551717487972021;0;0;87;0;0;4;80;84;64;50;76;137.02;39;-1.00;0.00;-996.00
1716551717589511394;0;0;87;0;0;4;80;84;59;40;76;137.00;39;-4.00;-12.00;-1007.00
1716551717691979408;0;0;87;0;0;4;80;84;54;40;76;136.95;39;2.00;-14.00;-999.00
1716551717793807029;0;0;87;0;0;4;80;84;50;40;76;136.87;40;21.00;-23.00;-1001.00
1716551717845420598;0;0;87;0;0;4;80;84;47;30;76;136.86;40;12.00;-17.00;-999.00
1716551717946895599;0;0;87;0;0;4;80;84;42;30;76;136.75;40;0.00;-14.00;-1008.00
1716551718048674583;0;0;87;0;0;4;80;84;37;20;76;136.70;40;5.00;-6.00;-999.00
1716551718150899410;0;0;87;0;0;4;80;84;32;20;76;136.61;40;-14.00;4.00;-1004.00
1716551718253397941;0;0;87;0;0;4;80;83;28;10;76;136.62;40;-7.00;6.00;-1009.00
1716551718354479312;0;0;87;0;0;4;80;83;24;10;76;136.60;40;20.00;-6.00;-1005.00
1716551718457836389;0;0;87;0;0;4;80;83;19;0;76;136.45;40;8.00;3.00;-1017.00
1716551718560081720;0;0;87;0;0;4;80;83;15;0;76;136.21;40;2.00;9.00;-1015.00
1716551718660595417;0;0;87;0;0;4;80;83;10;0;76;135.78;40;-7.00;25.00;-1049.00
1716551718765967130;0;0;87;0;0;3;80;83;10;0;76;134.93;41;-10.00;12.00;-1031.00
1716551718865624666;0;0;87;0;0;3;80;83;10;0;76;133.61;41;-4.00;7.00;-1045.00
1716551718970279455;0;0;87;0;0;2;80;83;10;0;76;133.52;41;3.00;9.00;-1080.00
1716551719078866481;0;-1;87;0;0;0;80;83;10;0;76;134.79;41;-3.00;-6.00;-625.00
1716551719176243305;0;0;87;0;0;0;80;83;10;0;76;135.55;41;-25.00;-35.00;-1106.00
1716551719273502111;0;0;87;0;0;0;81;83;10;0;76;135.91;41;-2.00;2.00;-996.00
1716551719375661849;0;0;87;0;0;0;81;83;10;0;76;136.06;41;-3.00;1.00;-1000.00
1716551719480736732;0;0;87;0;0;0;81;83;10;0;76;136.12;41;-4.00;-3.00;-1001.00
1716551719580317735;0;0;87;0;0;0;81;83;10;0;76;136.18;41;0.00;0.00;-997.00
1716551719682786464;0;0;87;0;0;0;81;83;10;0;76;136.19;41;-3.00;0.00;-999.00
1716551719786393404;0;0;87;1;0;0;81;83;10;0;76;136.25;41;-3.00;-2.00;-1000.00
1716551719887706518;0;0;87;1;0;0;81;83;10;0;76;136.27;41;-3.00;0.00;-997.00
1716551719988351345;0;0;87;1;0;0;81;83;10;0;76;136.30;41;-3.00;0.00;-997.00
1716551720093364000;0;0;87;1;0;0;81;83;10;0;76;136.30;41;-3.00;-1.00;-1000.00
1716551720194267272;0;0;87;0;0;0;81;83;10;0;76;136.29;41;-3.00;-1.00;-998.00
1716551720300292253;0;0;87;0;0;0;81;84;10;0;76;136.33;41;-4.00;-1.00;-1000.00
1716551720401904821;0;0;87;0;0;0;81;84;10;0;76;136.31;41;-4.00;-2.00;-1001.00
1716551720500662326;0;0;87;0;0;0;81;84;10;0;76;136.31;41;-3.00;-1.00;-999.00
1716551720610559701;0;0;87;0;0;0;81;84;10;0;76;136.31;41;-3.00;-1.00;-1000.00
1716551720704204797;0;0;87;0;0;0;81;84;10;0;76;136.31;41;-3.00;-2.00;-999.00
1716551720809022903;0;0;87;0;0;0;81;84;10;0;76;136.31;41;-3.00;-3.00;-997.00
1716551720912226676;0;0;87;0;0;0;81;84;10;0;76;136.34;41;-4.00;0.00;-1002.00
1716551721009266853;0;0;87;0;0;0;81;84;10;0;76;136.36;41;-3.00;-2.00;-1001.00
1716551721112054824;0;0;87;0;0;0;81;84;10;0;76;136.31;41;-3.00;0.00;-999.00
1716551721213382720;0;0;87;0;0;0;81;84;10;0;76;136.37;41;-4.00;0.00;-999.00
1716551721315834999;0;0;87;0;0;0;81;83;10;0;76;136.36;41;-3.00;-1.00;-1001.00
1716551721417787551;0;0;87;0;0;0;81;83;10;0;76;136.35;41;-5.00;-2.00;-1001.00
1716551721469544410;0;0;87;0;0;0;81;83;10;0;76;136.36;41;-3.00;0.00;-999.00
1716551721584396362;0;0;87;0;0;0;81;83;10;0;76;136.35;41;-4.00;0.00;-997.00
1716551721683648824;0;0;87;0;0;0;81;83;10;0;76;136.31;41;-2.00;-1.00;-1001.00
1716551721775918245;0;0;87;0;0;0;81;83;10;0;76;136.34;41;-4.00;-2.00;-999.00
1716551721878787517;0;0;87;0;0;0;81;83;10;0;76;136.35;41;-4.00;-2.00;-999.00
1716551721979775428;0;0;87;0;0;0;81;83;10;0;76;136.36;41;-3.00;-2.00;-1000.00
1716551722081364154;0;0;87;0;0;0;81;83;10;0;76;136.36;41;-2.00;0.00;-1001.00
1716551722183493852;0;0;87;0;0;0;81;83;10;0;76;136.34;41;-3.00;0.00;-997.00
1716551722285722970;0;0;87;0;0;0;81;84;10;0;76;136.34;41;-3.00;-2.00;-999.00
1716551722387475728;0;0;87;0;0;0;81;84;10;0;76;136.33;41;-2.00;-1.00;-999.00
1716551722490664720;0;0;87;0;0;0;81;84;10;0;76;136.38;41;-2.00;0.00;-999.00
1716551722592809677;0;0;87;0;0;0;81;84;10;0;76;136.32;41;-2.00;-1.00;-999.00
1716551722699604511;0;0;87;0;0;0;81;84;10;0;76;136.36;41;-3.00;-2.00;-1000.00
1716551722811240911;0;0;87;0;0;0;81;84;10;0;76;136.31;41;-4.00;0.00;-999.00
1716551722907706975;0;0;87;0;0;0;81;84;10;0;76;136.35;41;-2.00;-3.00;-1000.00
1716551723003540992;0;0;87;0;0;0;81;84;10;0;76;136.34;41;-2.00;-2.00;-1001.00
1716551723105194807;0;0;87;0;0;0;81;84;10;0;76;136.34;41;-3.00;-1.00;-1000.00
1716551723210780382;0;0;87;0;0;0;81;84;10;0;76;136.35;41;-2.00;-3.00;-1001.00
1716551723309787988;0;0;87;0;0;0;81;84;10;0;76;136.34;41;-4.00;-1.00;-1002.00
1716551723417124509;0;0;87;0;0;0;81;84;10;0;76;136.35;41;-2.00;-1.00;-1000.00
1716551723518104791;0;0;87;0;0;0;81;84;10;0;76;136.32;41;-3.00;0.00;-1001.00
1716551723616010904;0;0;87;0;0;0;81;84;10;0;76;136.36;41;-2.00;-2.00;-1005.00
1716551723718879699;0;0;87;0;0;0;81;84;10;0;76;136.34;41;-4.00;-1.00;-1003.00
1716551723821510076;0;0;87;0;0;0;81;84;10;0;76;136.35;41;-3.00;-1.00;-1001.00
1716551723921297550;0;0;87;0;0;0;81;84;10;0;76;136.34;41;-3.00;-2.00;-1000.00
1716551724023764848;0;0;87;0;0;0;81;84;10;0;76;136.34;41;-3.00;-3.00;-1001.00
1716551724127014160;0;0;87;0;0;0;81;84;10;0;76;136.35;41;-2.00;-1.00;-1004.00
1716551724230029582;0;0;87;0;0;0;81;84;10;0;76;136.38;41;-4.00;0.00;-1001.00
1716551724330991983;0;0;87;0;0;0;80;83;10;0;76;136.33;41;-3.00;-2.00;-1002.00
1716551724439288616;0;0;87;0;0;0;80;83;10;0;76;136.27;41;-2.00;-1.00;-1002.00
1716551724539866447;0;0;87;0;0;0;80;83;10;0;76;136.36;41;-2.00;-3.00;-1001.00
1716551724584391355;0;0;87;0;0;0;80;83;10;0;76;136.33;41;-1.00;-1.00;-1002.00
1716551724686203956;0;0;87;0;0;0;80;83;10;0;76;136.27;41;-4.00;-3.00;-1000.00
1716551724788526058;0;0;87;0;0;0;80;83;10;0;76;136.35;41;-3.00;-1.00;-1001.00
1716551724890986204;0;0;87;0;0;0;80;83;10;0;76;136.34;41;-4.00;-2.00;-1001.00
1716551724997907400;0;0;87;0;0;0;80;83;10;0;76;136.30;41;-4.00;-1.00;-1000.00
1716551725102051734;0;0;87;0;0;0;80;83;10;0;76;136.29;41;-4.00;-2.00;-999.00
1716551725201693773;0;0;87;0;0;0;80;83;10;0;76;136.26;41;-3.00;-1.00;-999.00
1716551725302772521;0;0;87;0;0;0;81;84;10;0;76;136.34;41;-3.00;-1.00;-1003.00
1716551725406269073;0;0;87;0;0;0;81;84;10;0;76;136.34;41;-4.00;0.00;-1002.00
1716551725503639698;0;0;87;0;0;0;81;84;10;0;76;136.30;41;-3.00;-1.00;-1001.00
1716551725606279373;0;0;87;0;0;0;81;84;10;0;76;136.34;41;-2.00;-1.00;-1000.00
1716551725710098743;0;0;87;0;0;0;81;84;10;0;76;136.35;41;-3.00;-2.00;-999.00
1716551725810448408;0;0;87;0;0;0;81;84;10;0;76;136.32;41;-3.00;-1.00;-1000.00
1716551725911102771;0;0;87;0;0;0;81;84;10;0;76;136.39;41;-1.00;-1.00;-1003.00
1716551726013098716;0;0;87;0;0;0;81;84;10;0;76;136.36;41;-2.00;0.00;-1000.00
1716551726115654468;0;0;87;0;0;0;81;84;10;0;76;136.36;41;-4.00;-1.00;-999.00
1716551726217132568;0;0;87;0;0;0;81;84;10;0;76;136.35;41;-4.00;-2.00;-1000.00
1716551726319226026;0;0;87;0;0;0;82;84;10;0;76;136.36;41;-4.00;-2.00;-1003.00
1716551726421144008;0;0;87;0;0;0;82;84;10;0;76;136.36;41;-1.00;0.00;-1002.00
1716551726525038957;0;0;87;0;0;0;82;84;10;0;76;136.36;41;-3.00;0.00;-1002.00
1716551726627608299;0;0;87;0;0;0;82;84;10;0;76;136.36;41;-3.00;-2.00;-1000.00
1716551726731941938;0;0;87;0;0;0;82;84;10;0;76;136.34;41;-3.00;0.00;-1003.00
1716551726832443952;0;0;87;0;0;0;82;84;10;0;76;136.33;41;-4.00;-1.00;-1000.00
1716551726934404373;0;0;87;0;0;0;82;84;10;0;76;136.35;41;-4.00;-1.00;-1001.00
1716551727038889408;0;0;87;0;0;0;82;84;10;0;76;136.36;41;-4.00;0.00;-1002.00
1716551727137197017;0;0;87;0;0;0;82;84;10;0;76;136.38;41;-4.00;-1.00;-998.00
1716551727243715524;0;0;87;0;0;0;82;84;10;0;76;136.34;41;-3.00;-2.00;-1001.00
1716551727341331481;0;0;87;0;0;0;82;84;10;0;76;136.33;41;-3.00;-3.00;-1001.00
1716551727444871902;0;0;87;0;0;0;82;84;10;0;76;136.33;41;-4.00;0.00;-1001.00
1716551727548467636;0;0;87;0;0;0;82;84;10;0;76;136.32;41;-2.00;0.00;-1001.00
1716551727649451732;0;0;87;0;0;0;82;84;10;0;76;136.32;41;-2.00;-1.00;-1002.00
1716551727750452995;0;0;87;0;0;0;82;84;10;0;76;136.33;41;-3.00;0.00;-1001.00
1716551727806728363;0;0;87;0;0;0;82;84;10;0;76;136.35;41;-3.00;0.00;-1001.00
1716551727904155254;0;0;87;0;0;0;82;84;10;0;76;136.30;41;-3.00;0.00;-1001.00
1716551728004979133;0;0;87;0;0;0;82;84;10;0;76;136.31;41;-2.00;-1.00;-1000.00
1716551728108851194;0;0;87;0;0;0;82;84;10;0;76;136.31;41;-4.00;-1.00;-999.00
1716551728209189414;0;0;87;0;0;0;82;84;10;0;76;136.32;41;-3.00;-1.00;-999.00
1716551728311833858;0;0;87;0;0;0;82;84;10;0;76;136.32;41;-3.00;-1.00;-999.00
1716551728415494441;0;0;87;0;0;0;82;84;10;0;76;136.37;41;-3.00;-3.00;-1000.00
1716551728516225576;0;0;87;0;0;0;82;84;10;0;76;136.37;41;-4.00;-1.00;-999.00
1716551728618879556;0;0;87;0;0;0;82;84;10;0;76;136.38;41;-3.00;-1.00;-1001.00
1716551728722214698;0;0;87;0;0;0;82;84;10;0;76;136.34;41;-2.00;-1.00;-1002.00
1716551728822251081;0;0;87;0;0;0;82;84;10;0;76;136.34;41;-3.00;0.00;-999.00
1716551728924029350;0;0;87;0;0;0;82;84;10;0;76;136.35;41;-3.00;-1.00;-1000.00
1716551729029698848;0;0;87;0;0;0;82;84;10;0;76;136.35;41;-2.00;0.00;-1001.00
1716551729134229183;0;0;87;0;0;0;82;84;10;0;76;136.35;41;-4.00;0.00;-1001.00
1716551729233767509;0;0;87;0;0;0;82;84;10;0;76;136.37;41;-3.00;0.00;-1001.00
1716551729334206819;0;0;87;0;0;0;82;84;10;0;76;136.36;41;-4.00;-1.00;-1000.00
1716551729435519218;0;0;87;0;0;0;82;84;10;0;76;136.37;41;-3.00;-2.00;-997.00
1716551729537430763;0;0;87;0;0;0;82;84;10;0;76;136.36;41;-4.00;-1.00;-1001.00
1716551729640820026;0;0;87;0;0;0;82;84;10;0;76;136.33;41;-4.00;0.00;-999.00
1716551729740987062;0;0;87;0;0;0;82;84;10;0;76;136.39;41;-3.00;-1.00;-998.00
1716551729846104860;0;0;87;0;0;0;82;84;10;0;76;136.38;41;-4.00;-1.00;-1000.00
1716551729945079565;0;0;87;0;0;0;82;84;10;0;76;136.38;41;-4.00;0.00;-1000.00
1716551730047021150;0;0;87;0;0;0;82;84;10;0;76;136.36;41;-3.00;-1.00;-1001.00
1716551730149104118;0;0;87;0;0;0;82;84;10;0;76;136.36;41;-4.00;-1.00;-1001.00
1716551730251214265;0;0;87;0;0;0;82;84;10;0;76;136.32;41;-3.00;-1.00;-1000.00
1716551730353151082;0;0;87;0;0;0;82;84;10;0;76;136.36;41;-3.00;-1.00;-998.00
1716551730457319498;0;0;87;0;0;0;82;84;10;0;76;136.35;41;-4.00;-1.00;-998.00
1716551730558106184;0;0;87;0;0;0;82;84;10;0;76;136.37;41;-4.00;-1.00;-1000.00
1716551730660300731;0;0;87;0;0;0;82;84;10;0;76;136.35;41;-3.00;-1.00;-998.00
1716551730768958091;0;0;87;0;0;0;82;84;10;0;76;136.33;41;-2.00;-1.00;-999.00
1716551730870871305;0;0;87;0;0;0;82;84;10;0;76;136.33;41;-4.00;-1.00;-998.00
1716551730967032670;0;0;87;0;0;0;82;84;10;0;76;136.28;41;-3.00;0.00;-1000.00
1716551731017865419;0;0;87;0;0;0;82;84;10;0;76;136.33;41;-2.00;0.00;-1000.00
1716551731120063304;0;0;87;0;0;0;82;84;10;0;76;136.31;41;-3.00;0.00;-999.00
1716551731223198652;0;0;87;0;0;0;82;84;10;0;76;136.35;41;-3.00;0.00;-999.00
1716551731323977947;0;0;87;0;0;0;83;85;10;0;76;136.36;41;-5.00;-1.00;-1003.00
1716551731429302215;0;0;87;0;0;0;83;85;10;0;76;136.33;41;-3.00;-2.00;-999.00
1716551731531319141;0;0;87;0;0;0;83;85;10;0;76;136.31;41;-4.00;0.00;-1002.00
1716551731636750221;0;0;87;0;0;0;83;85;10;0;76;136.36;41;-3.00;-2.00;-1001.00
1716551731735097646;0;0;87;0;0;0;83;85;10;0;76;136.32;41;-4.00;0.00;-1001.00
1716551731836197137;0;0;87;0;0;0;83;85;10;0;76;136.28;41;-3.00;0.00;-998.00
1716551731940006494;0;0;87;0;0;0;83;85;10;0;76;136.33;41;-3.00;-1.00;-1000.00
1716551732039900302;0;0;87;0;0;0;83;85;10;0;76;136.34;41;-2.00;-1.00;-998.00
1716551732141965389;0;0;87;0;0;0;83;85;10;0;76;136.31;41;-3.00;0.00;-999.00
1716551732243935823;0;0;87;0;0;0;83;85;10;0;76;136.30;41;-4.00;0.00;-999.00
1716551732345987081;0;0;87;0;0;0;83;85;10;0;76;136.29;41;-3.00;-1.00;-1000.00
1716551732448723554;0;0;87;0;0;0;83;85;10;0;76;136.28;41;-3.00;0.00;-1001.00
1716551732550176620;0;0;87;0;0;0;83;85;10;0;76;136.27;41;-5.00;0.00;-997.00
1716551732651884555;0;0;87;0;0;0;83;85;10;0;76;136.32;41;-4.00;-2.00;-999.00
1716551732753800868;0;0;87;0;0;0;83;85;10;0;76;136.26;41;-4.00;-2.00;-1001.00
1716551732855776548;0;0;87;0;0;0;83;85;10;0;76;136.26;41;-3.00;-1.00;-1000.00
1716551732957910060;0;0;87;0;0;0;83;85;10;0;76;136.27;41;-3.00;-1.00;-998.00
1716551733068018913;0;0;87;0;0;0;83;85;10;0;76;136.23;41;-4.00;-1.00;-999.00
1716551733165059328;0;0;87;0;0;0;83;85;10;0;76;136.23;41;-3.00;0.00;-999.00
1716551733266567945;0;0;87;0;0;0;83;85;10;0;76;136.23;41;-4.00;0.00;-998.00
1716551733370836496;0;0;87;0;0;0;83;85;10;0;76;136.23;41;-3.00;0.00;-998.00
1716551733468751907;0;0;87;0;0;0;83;85;10;0;76;136.22;41;-2.00;0.00;-998.00
1716551733572601079;0;0;87;0;0;0;83;85;10;0;76;136.28;41;-2.00;-1.00;-999.00
1716551733672867774;0;0;87;0;0;0;83;85;10;0;76;136.25;41;-4.00;-1.00;-997.00
1716551733775546312;0;0;87;0;0;0;83;85;10;0;76;136.24;41;-4.00;0.00;-1002.00
1716551733879904508;0;0;87;0;0;0;83;85;10;0;76;136.31;41;-5.00;-1.00;-1000.00
1716551733978931188;0;0;87;0;0;0;83;85;10;0;76;136.31;41;-5.00;-2.00;-998.00
1716551734080718994;0;0;87;0;0;0;83;85;10;0;76;136.36;41;-4.00;-1.00;-999.00
1716551734134443998;0;0;87;0;0;0;83;85;10;0;76;136.31;41;-4.00;-2.00;-997.00
1716551734234071493;0;0;87;0;0;0;83;85;10;0;76;136.36;41;-2.00;-2.00;-1001.00
1716551734386813402;0;0;87;0;0;0;83;85;10;0;76;136.37;41;-2.00;-1.00;-1000.00
1716551734438886880;0;0;87;0;0;0;83;85;10;0;76;136.29;41;-5.00;-1.00;-1003.00
1716551734540678262;0;0;87;0;0;0;83;85;10;0;76;136.30;41;-2.00;-2.00;-998.00
1716551734641827821;0;0;87;0;0;0;83;85;10;0;76;136.32;41;-3.00;0.00;-1000.00
1716551734746225118;0;0;87;0;0;0;83;85;10;0;76;136.24;41;-2.00;0.00;-997.00
1716551734847834110;0;0;87;0;0;0;83;85;10;0;76;136.27;41;-2.00;0.00;-1001.00
1716551734949558496;0;0;87;0;0;0;83;85;10;0;76;136.24;41;-4.00;-2.00;-1003.00
1716551735049871444;0;0;87;0;0;0;83;85;10;0;76;136.24;41;-3.00;-1.00;-1001.00
1716551735151962995;0;0;87;0;0;0;83;85;10;0;76;136.26;41;-3.00;-1.00;-1002.00
1716551735254199028;0;0;87;0;0;0;83;85;10;0;76;136.18;41;-3.00;-2.00;-1000.00
1716551735355768680;0;0;87;0;0;0;83;85;10;0;76;136.20;41;-3.00;0.00;-1000.00
1716551735458337545;0;0;87;0;0;0;83;85;10;0;76;136.20;41;-4.00;-1.00;-999.00
1716551735564096450;0;0;87;0;0;0;83;85;10;0;76;136.17;41;-3.00;0.00;-999.00
1716551735668463945;0;0;87;0;0;0;83;85;10;0;76;136.12;41;-2.00;-1.00;-998.00
1716551735770338773;0;0;87;0;0;0;83;85;10;0;76;136.14;41;-4.00;0.00;-1002.00
1716551735869343519;0;0;87;0;0;0;83;85;10;0;76;136.17;41;-3.00;0.00;-1001.00
1716551735972858667;0;0;87;0;0;0;83;85;10;0;76;136.13;41;-2.00;-2.00;-999.00
1716551736070844650;0;0;87;0;0;0;83;85;10;0;76;136.14;41;-3.00;-1.00;-999.00
1716551736174228429;0;0;87;0;0;0;83;85;10;0;76;136.18;41;-3.00;0.00;-998.00
1716551736275233983;0;0;87;0;0;0;83;85;10;0;76;136.17;41;-4.00;-4.00;-997.00
1716551736376845598;0;0;87;0;0;0;83;85;10;0;76;136.16;41;-3.00;-2.00;-1000.00
1716551736479849815;0;0;87;0;0;0;83;85;10;0;76;136.18;41;-3.00;-2.00;-998.00
1716551736583990097;0;0;87;0;0;0;83;85;10;0;76;136.23;41;-5.00;-1.00;-999.00
1716551736685436964;0;0;87;0;0;0;83;85;10;0;76;136.15;41;-4.00;-2.00;-1000.00
1716551736786844253;0;0;87;0;0;0;83;85;10;0;76;136.15;41;-4.00;-2.00;-999.00
1716551736889729738;0;0;87;0;0;0;83;85;10;0;76;136.17;41;-4.00;0.00;-999.00
1716551736989555120;0;0;87;0;0;0;83;85;10;0;76;136.21;41;-2.00;-2.00;-1002.00
1716551737103877067;0;0;87;0;0;0;83;85;10;0;76;136.25;41;-4.00;-1.00;-998.00
1716551737201633930;0;0;87;0;0;0;83;85;10;0;76;136.25;41;-3.00;0.00;-1000.00
1716551737245559692;0;0;87;0;0;0;83;85;10;0;76;136.24;41;-4.00;0.00;-1000.00
1716551737404930353;0;0;87;0;0;0;82;86;10;0;76;136.24;41;-4.00;0.00;-1000.00
1716551737451270341;0;0;87;0;0;0;82;86;10;0;76;136.23;41;-4.00;-2.00;-1000.00
1716551737551686048;0;0;87;0;0;0;82;86;10;0;76;136.25;41;-3.00;0.00;-997.00
1716551737653789520;0;0;87;0;0;0;82;86;10;0;76;136.24;41;-1.00;-2.00;-999.00
1716551737755493640;0;0;87;0;0;0;82;86;10;0;76;136.30;41;-4.00;-2.00;-1001.00
1716551737857576608;0;0;87;0;0;0;82;86;10;0;76;136.28;41;-4.00;0.00;-1001.00
1716551737969855785;0;0;87;0;0;0;82;86;10;0;76;136.27;41;-4.00;-1.00;-1000.00
1716551738064133167;0;0;87;0;0;0;82;86;10;0;76;136.29;41;-4.00;0.00;-998.00
1716551738165770292;0;0;87;0;0;0;82;86;10;0;76;136.21;41;-3.00;-1.00;-1001.00
1716551738270033836;0;0;87;0;0;0;82;86;10;0;76;136.29;41;-4.00;-1.00;-999.00
1716551738368551969;0;0;87;0;0;0;83;85;10;0;76;136.26;41;-5.00;0.00;-998.00
1716551738475086688;0;0;87;0;0;0;83;85;10;0;76;136.29;41;-3.00;-2.00;-1000.00
1716551738572653532;0;0;87;0;0;0;83;85;10;0;76;136.29;41;-4.00;-1.00;-999.00
1716551738674449920;0;0;87;0;0;0;83;85;10;0;76;136.27;41;-4.00;-2.00;-998.00
1716551738777111291;0;0;87;0;0;0;83;85;10;0;76;136.28;41;-3.00;-2.00;-1004.00
1716551738879673242;0;0;87;0;0;0;83;85;10;0;76;136.25;41;-4.00;-1.00;-998.00
1716551738980479717;0;0;87;0;0;0;83;85;10;0;76;136.22;41;-4.00;0.00;-1000.00
1716551739082857608;0;0;87;0;0;0;83;85;10;0;76;136.30;41;-3.00;-1.00;-1000.00
1716551739184823036;0;0;87;0;0;0;83;85;10;0;76;136.27;41;-2.00;-1.00;-998.00
1716551739288692235;0;0;87;0;0;0;83;85;10;0;76;136.23;41;-4.00;0.00;-997.00
1716551739388974905;0;0;87;0;0;0;84;86;10;0;76;136.23;41;-2.00;-1.00;-1001.00
1716551739497691392;0;0;87;0;0;0;84;86;10;0;76;136.16;41;-4.00;-1.00;-1000.00
1716551739600532054;0;0;87;0;0;0;84;86;10;0;76;136.22;41;-3.00;-1.00;-1000.00
1716551739701594352;0;0;87;0;0;0;84;86;10;0;76;136.23;41;-3.00;0.00;-1002.00
1716551739802762746;0;0;87;0;0;0;84;86;10;0;76;136.21;41;-3.00;0.00;-998.00
1716551739904408693;0;0;87;0;0;0;84;86;10;0;76;136.26;41;-3.00;-1.00;-999.00
1716551740003782510;0;0;87;0;0;0;84;86;10;0;76;136.30;41;-3.00;0.00;-1001.00
1716551740103771924;0;0;87;0;0;0;84;86;10;0;76;136.24;41;-3.00;0.00;-1000.00
1716551740207454919;0;0;87;0;0;0;84;86;10;0;76;136.21;41;-3.00;-1.00;-999.00
1716551740307510375;0;0;87;0;0;0;84;86;10;0;76;136.32;41;-3.00;0.00;-997.00
1716551740409759044;0;0;87;0;0;0;84;86;10;0;76;136.26;41;-3.00;0.00;-998.00
1716551740517222881;0;0;87;0;0;0;84;86;10;0;76;136.33;41;-4.00;-1.00;-998.00
1716551740614589452;0;0;87;0;0;0;84;86;10;0;76;136.33;41;-3.00;-1.00;-997.00
1716551740717068433;0;0;87;0;0;0;84;86;10;0;76;136.34;41;-4.00;-1.00;-1000.00
1716551740770511150;0;0;87;0;0;0;84;86;10;0;76;136.28;41;-4.00;-1.00;-999.00
1716551740869639396;0;0;87;0;0;0;84;86;10;0;76;136.36;41;-3.00;-1.00;-1000.00
1716551740971786022;0;0;87;0;0;0;84;86;10;0;76;136.39;41;-3.00;-1.00;-999.00
1716551741078531503;0;0;87;0;0;0;84;86;10;0;76;136.39;41;-3.00;-1.00;-999.00
1716551741175446748;0;0;87;0;0;0;84;86;10;0;76;136.38;41;-4.00;-1.00;-1000.00
1716551741279252767;0;0;87;0;0;0;84;86;10;0;76;136.39;41;-4.00;-1.00;-999.00
1716551741379888534;0;0;87;0;0;0;84;86;10;0;76;136.42;41;-2.00;-2.00;-1000.00
1716551741482384681;0;0;87;0;0;0;84;86;10;0;76;136.36;41;-4.00;-1.00;-998.00
1716551741583682298;0;0;87;0;0;0;84;86;10;0;76;136.38;41;-5.00;-1.00;-999.00
1716551741686085700;0;0;87;0;0;0;84;86;10;0;76;136.41;41;-4.00;-3.00;-1000.00
1716551741787471532;0;0;87;0;0;0;84;86;10;0;76;136.34;41;-4.00;-1.00;-1001.00
1716551741890018701;0;0;87;0;0;0;84;86;10;0;76;136.31;41;-3.00;-1.00;-1000.00
1716551741994780063;0;0;87;0;0;0;84;86;10;0;76;136.34;41;-4.00;-1.00;-1002.00
1716551742098364591;0;0;87;0;0;0;84;86;10;0;76;136.36;41;-4.00;-1.00;-998.00
1716551742201148271;0;0;87;0;0;0;84;86;10;0;76;136.41;41;-3.00;0.00;-1001.00
1716551742299594640;0;0;87;0;0;0;84;86;10;0;76;136.37;41;-3.00;-1.00;-1000.00
1716551742401643276;0;0;87;0;0;0;84;87;10;0;76;136.36;41;-4.00;-1.00;-1000.00
1716551742502726316;0;0;87;0;0;0;84;87;10;0;76;136.42;41;-3.00;-1.00;-1000.00
1716551742604658126;0;0;87;0;0;0;84;87;10;0;76;136.39;41;-5.00;-1.00;-999.00
1716551742706282377;0;0;87;0;0;0;84;87;10;0;76;136.32;41;-4.00;-2.00;-999.00
1716551742810171604;0;0;87;0;0;0;84;87;10;0;76;136.34;41;-5.00;-2.00;-998.00
1716551742911559343;0;0;87;0;0;0;84;87;10;0;76;136.34;41;-5.00;-2.00;-999.00
1716551743012723445;0;0;87;0;0;0;84;87;10;0;76;136.34;41;-2.00;0.00;-996.00
1716551743114633560;0;0;87;0;0;0;84;87;10;0;76;136.36;41;-4.00;0.00;-999.00
1716551743216359376;0;0;87;0;0;0;84;87;10;0;76;136.35;41;-5.00;0.00;-1000.00
1716551743318490982;0;0;87;0;0;0;84;87;10;0;76;136.32;41;-3.00;-1.00;-1000.00
1716551743420536994;0;0;87;0;0;0;83;86;10;0;76;136.36;41;-4.00;0.00;-998.00
1716551743523766756;0;0;87;0;0;0;83;86;10;0;76;136.37;41;-3.00;-2.00;-999.00
1716551743627017974;0;0;87;0;0;0;83;86;10;0;76;136.36;41;-3.00;-1.00;-1000.00
1716551743730873584;0;0;87;0;0;0;83;86;10;0;76;136.36;41;-3.00;-2.00;-998.00
1716551743831729173;0;0;87;0;0;0;83;86;10;0;76;136.34;41;-4.00;-1.00;-1001.00
1716551743881838083;0;0;87;0;0;0;83;86;10;0;76;136.32;41;-4.00;-1.00;-999.00
1716551743984224319;0;0;87;0;0;0;83;86;10;0;76;136.33;41;-3.00;0.00;-998.00
1716551744085334539;0;0;87;0;0;0;83;86;10;0;76;136.36;41;-3.00;-1.00;-999.00
1716551744187578678;0;0;87;0;0;0;83;86;10;0;76;136.36;41;-5.00;0.00;-999.00
1716551744290836334;0;0;87;0;0;0;83;86;10;0;76;136.34;41;-4.00;-2.00;-1002.00
1716551744394675016;0;0;87;0;0;0;83;87;10;0;76;136.33;41;-3.00;-1.00;-998.00
1716551744498594284;0;0;87;0;0;0;83;87;10;0;76;136.33;41;-2.00;-1.00;-999.00
1716551744599826574;0;0;87;0;0;0;83;87;10;0;76;136.34;41;-3.00;0.00;-1002.00
1716551744702214717;0;0;87;0;0;0;83;87;10;0;76;136.31;41;-3.00;-1.00;-1000.00
1716551744803528308;0;0;87;0;0;0;83;87;10;0;76;136.34;41;-4.00;0.00;-1000.00
1716551744903501272;0;0;87;0;0;0;83;87;10;0;76;136.31;41;-2.00;-1.00;-1002.00
1716551745004511833;0;0;87;0;0;0;83;87;10;0;76;136.36;41;-2.00;-2.00;-998.00
1716551745106214284;0;0;87;0;0;0;83;87;10;0;76;136.40;41;-4.00;-2.00;-1001.00
1716551745208478689;0;0;87;0;0;0;83;87;10;0;76;136.34;41;-4.00;-1.00;-1000.00
1716551745312018156;0;0;87;0;0;0;83;87;10;0;76;136.38;41;-3.00;0.00;-1001.00
1716551745412348985;0;0;87;0;0;0;84;87;10;0;76;136.43;41;-3.00;-1.00;-1000.00
1716551745514440298;0;0;87;0;0;0;84;87;10;0;76;136.33;41;-4.00;0.00;-1000.00
1716551745616721868;0;0;87;0;0;0;84;87;10;0;76;136.37;41;-4.00;-1.00;-998.00
1716551745718491792;0;0;87;0;0;0;84;87;10;0;76;136.41;41;-4.00;-1.00;-999.00
1716551745820457696;0;0;87;0;0;0;84;87;10;0;76;136.39;41;-4.00;-1.00;-998.00
1716551745922490358;0;0;87;0;0;0;84;87;10;0;76;136.37;41;-4.00;-2.00;-998.00
1716551746024617433;0;0;87;0;0;0;84;87;10;0;76;136.36;41;-3.00;-1.00;-1002.00
1716551746134431123;0;0;87;0;0;0;84;87;10;0;76;136.39;41;-3.00;-1.00;-1000.00
1716551746231945991;0;0;87;0;0;0;84;87;10;0;76;136.37;41;-4.00;-2.00;-999.00
1716551746334245443;0;0;87;0;0;0;84;87;10;0;76;136.36;41;-3.00;-1.00;-1002.00
1716551746433935403;0;0;87;0;0;0;85;87;10;0;76;136.39;41;-2.00;0.00;-999.00
1716551746537967920;0;0;87;0;0;0;85;87;10;0;76;136.36;41;-2.00;0.00;-997.00
1716551746638628244;0;0;87;0;0;0;85;87;10;0;76;136.36;41;-5.00;-1.00;-998.00
1716551746739744424;0;0;87;0;0;0;85;87;10;0;76;136.38;41;-5.00;-1.00;-1000.00
1716551746840163230;0;0;87;0;0;0;85;87;10;0;76;136.38;41;-3.00;0.00;-999.00
1716551746942117452;0;0;87;0;0;0;85;87;10;0;76;136.40;41;-2.00;-2.00;-1001.00
1716551747001837491;0;0;87;0;0;0;85;87;10;0;76;136.34;41;-2.00;0.00;-997.00
1716551747101019144;0;0;87;0;0;0;85;87;10;0;76;136.37;41;-3.00;0.00;-998.00
1716551747198560714;0;0;87;0;0;0;85;87;10;0;76;136.42;41;-4.00;0.00;-998.00
1716551747307966947;0;0;87;0;0;0;85;87;10;0;76;136.34;41;-4.00;-1.00;-999.00
1716551747409027576;0;0;87;0;0;0;85;86;10;0;76;136.36;41;-4.00;-1.00;-999.00
1716551747504919767;0;0;87;0;0;0;85;86;10;0;76;136.38;41;-2.00;-1.00;-1000.00
1716551747606190919;0;0;87;0;0;0;85;86;10;0;76;136.32;41;-3.00;0.00;-999.00
1716551747708535909;0;0;87;0;0;0;85;86;10;0;76;136.38;41;-4.00;0.00;-999.00
1716551747811746835;0;0;87;0;0;0;85;86;10;0;76;136.38;41;-3.00;0.00;-1002.00
1716551747912108182;0;0;87;0;0;0;85;86;10;0;76;136.38;41;-3.00;-1.00;-1000.00
1716551748017500877;0;0;87;0;0;0;85;86;10;0;76;136.40;41;-5.00;-1.00;-1000.00
1716551748116486072;0;0;87;0;0;0;85;86;10;0;76;136.41;41;-5.00;0.00;-998.00
1716551748218233585;0;0;87;0;0;0;85;86;10;0;76;136.39;41;-3.00;0.00;-999.00
1716551748321924686;0;0;87;0;0;0;85;86;10;0;76;136.34;41;-3.00;0.00;-1000.00
1716551748423540115;0;0;87;0;0;0;85;88;10;0;76;136.38;41;-3.00;-1.00;-1000.00
1716551748524083137;0;0;87;0;0;0;85;88;10;0;76;136.37;41;-3.00;-1.00;-998.00
1716551748627811908;0;0;87;0;0;0;85;88;10;0;76;136.38;41;-4.00;1.00;-1000.00
1716551748731966972;0;0;87;0;0;0;85;88;10;0;76;136.35;41;-5.00;0.00;-999.00
1716551748835835218;0;0;87;0;0;0;85;88;10;0;76;136.38;41;-3.00;-2.00;-1001.00
1716551748936351776;0;0;87;0;0;0;85;88;10;0;76;136.41;41;-4.00;0.00;-1000.00
1716551749035377740;0;0;87;0;0;0;85;88;10;0;76;136.38;41;-4.00;-1.00;-1000.00
1716551749137468338;0;0;87;0;0;0;85;88;10;0;76;136.33;41;-3.00;-1.00;-1000.00
1716551749240609169;0;0;87;0;0;0;85;88;10;0;76;136.36;41;-4.00;0.00;-1000.00
1716551749342252016;0;0;87;0;0;0;85;88;10;0;76;136.38;41;-2.00;0.00;-999.00
1716551749443167209;0;0;87;0;0;0;85;87;10;0;76;136.40;41;-4.00;0.00;-1000.00
1716551749545255422;0;0;87;0;0;0;85;87;10;0;76;136.36;41;-4.00;-1.00;-1000.00
1716551749647130727;0;0;87;0;0;0;85;87;10;0;76;136.37;41;-3.00;0.00;-999.00
1716551749749238491;0;0;87;0;0;0;85;87;10;0;76;136.37;41;-5.00;-1.00;-999.00
1716551749851232528;0;0;87;0;0;0;85;87;10;0;76;136.34;41;-4.00;-2.00;-999.00
1716551749953255653;0;0;87;0;0;0;85;87;10;0;76;136.41;41;-2.00;-2.00;-999.00
1716551750055242776;0;0;87;0;0;0;85;87;10;0;76;136.33;41;-4.00;-2.00;-1000.00
1716551750157365322;0;0;87;0;0;0;85;87;10;0;76;136.42;41;-4.00;0.00;-1002.00
1716551750262307167;0;0;87;0;0;0;85;87;10;0;76;136.36;41;-3.00;0.00;-998.00
1716551750312116384;0;0;87;0;0;0;85;87;10;0;76;136.36;41;-5.00;-2.00;-1002.00
1716551750414394855;0;0;87;0;0;0;85;87;10;0;76;136.35;41;-4.00;-1.00;-999.00
1716551750515686511;0;0;87;0;0;0;85;87;10;0;76;136.34;41;-4.00;0.00;-1002.00
1716551750617393493;0;0;87;0;0;0;85;87;10;0;76;136.36;41;-4.00;0.00;-999.00
1716551750719206571;0;0;87;0;0;0;85;87;10;0;76;136.46;41;-2.00;-1.00;-1001.00
1716551750821282863;0;0;87;0;0;0;85;87;10;0;76;136.42;41;-4.00;0.00;-1000.00
1716551750926976203;0;0;87;0;0;0;85;87;10;0;76;136.42;41;-4.00;-2.00;-1000.00
1716551751028764724;0;0;87;0;0;0;85;87;10;0;76;136.39;41;-4.00;-1.00;-996.00
1716551751131516695;0;0;87;0;0;0;85;87;10;0;76;136.40;41;-5.00;-1.00;-999.00
1716551751237322092;0;0;87;0;0;0;85;87;10;0;76;136.39;41;-3.00;-2.00;-1000.00
1716551751333690643;0;0;87;0;0;0;85;87;10;0;76;136.44;41;-3.00;-2.00;-1000.00
1716551751435172319;0;0;87;0;0;0;84;88;10;0;76;136.43;41;-3.00;-1.00;-1000.00
1716551751538322448;0;0;87;0;0;0;84;88;10;0;76;136.35;41;-3.00;0.00;-999.00
1716551751638674259;0;0;87;0;0;0;84;88;10;0;76;136.36;41;-3.00;-1.00;-1001.00
1716551751744456768;0;0;87;0;0;0;84;88;10;0;76;136.34;41;-4.00;-1.00;-1001.00
1716551751842103719;0;0;87;0;0;0;84;88;10;0;76;136.35;41;-4.00;-1.00;-999.00
1716551751944051265;0;0;87;0;0;0;84;88;10;0;76;136.34;41;-3.00;-2.00;-1000.00
1716551752053614854;0;0;87;0;0;0;84;88;10;0;76;136.31;41;-1.00;-2.00;-997.00
1716551752148155927;0;0;87;0;0;0;84;88;10;0;76;136.29;41;-3.00;-2.00;-1001.00
1716551752250025987;0;0;87;0;0;0;84;88;10;0;76;136.31;41;-4.00;0.00;-999.00
1716551752353599786;0;0;87;0;0;0;84;88;10;0;76;136.37;41;-4.00;-1.00;-1000.00
1716551752454257488;0;0;87;0;0;0;85;87;10;0;76;136.34;41;-3.00;-2.00;-1000.00
1716551752558036327;0;0;87;0;0;0;85;87;10;0;76;136.31;41;-6.00;-1.00;-1001.00
1716551752663659334;0;0;87;0;0;0;85;87;10;0;76;136.27;41;-2.00;-2.00;-998.00
1716551752760473012;0;0;87;0;0;0;85;87;10;0;76;136.32;41;-5.00;-1.00;-1003.00
1716551752865461826;0;0;87;0;0;0;85;87;10;0;76;136.24;41;-3.00;-1.00;-999.00
1716551752967673778;0;0;87;0;0;0;85;87;10;0;76;136.27;41;-3.00;-2.00;-999.00
1716551753074353218;0;0;87;0;0;0;85;87;10;0;76;136.30;41;-3.00;-1.00;-997.00
1716551753168050527;0;0;87;0;0;0;85;87;10;0;76;136.33;41;-4.00;-1.00;-999.00
1716551753270173072;0;0;87;0;0;0;85;87;10;0;76;136.33;41;-2.00;0.00;-1001.00
1716551753372774362;0;0;87;0;0;0;85;87;10;0;76;136.33;41;-4.00;0.00;-1002.00
1716551753475062370;0;0;87;0;0;0;86;88;10;0;76;136.30;41;-3.00;-1.00;-998.00
1716551753576886177;0;0;87;0;0;0;86;88;10;0;76;136.34;41;-3.00;0.00;-998.00
1716551753679236173;0;0;87;0;0;0;86;88;10;0;76;136.39;41;-4.00;0.00;-1001.00
1716551753734922647;0;0;87;0;0;0;86;88;10;0;76;136.40;41;-3.00;-1.00;-1002.00
1716551753833236694;0;0;87;0;0;0;86;88;10;0;76;136.40;41;-3.00;0.00;-999.00
1716551753937559604;0;0;87;0;0;0;86;88;10;0;76;136.43;41;-5.00;-1.00;-999.00
1716551754038148164;0;0;87;0;0;0;86;88;10;0;76;136.42;41;-3.00;-2.00;-1001.00
1716551754139086484;0;0;87;0;0;0;86;88;10;0;76;136.46;41;-4.00;-1.00;-998.00
1716551754240283489;0;0;87;0;0;0;86;88;10;0;76;136.42;41;-3.00;-1.00;-1000.00
1716551754342119932;0;0;87;0;0;0;86;88;10;0;76;136.50;41;-3.00;0.00;-1001.00
1716551754444032669;0;0;87;0;0;0;86;88;10;0;76;136.47;41;-3.00;0.00;-997.00
1716551754546207189;0;0;87;0;0;0;86;88;10;0;76;136.44;41;-2.00;-1.00;-999.00
