timestampns;pitch;roll;yaw;vgx;vgy;vgz;templ;temph;tof;h;bat;baro;time;agx;agy;agz;
1716551404587913036;0;0;0;0;0;0;72;75;10;0;83;136.30;10;2.00;1.00;-998.00
1716551404693927526;0;0;0;0;0;0;72;75;10;0;83;136.40;10;4.00;0.00;-999.00
1716551404861985683;0;0;0;0;0;0;72;75;10;0;83;136.36;10;2.00;0.00;-999.00
1716551404950229644;0;0;0;0;0;0;72;75;10;0;83;136.33;10;2.00;1.00;-999.00
1716551404996079683;0;0;0;0;0;0;72;75;10;0;83;136.31;10;1.00;3.00;-999.00
1716551405098315715;0;0;0;0;0;0;72;75;10;0;83;136.31;10;0.00;2.00;-1003.00
1716551405200088500;0;0;0;0;0;0;72;75;10;0;83;136.31;10;9.00;4.00;-997.00
1716551405302340507;0;0;0;0;0;0;72;75;10;0;83;136.31;10;8.00;7.00;-1030.00
1716551405404212236;0;0;0;0;0;0;72;75;10;0;83;136.31;10;-2.00;5.00;-1151.00
1716551405506224393;-2;0;0;0;0;0;72;75;10;0;83;136.31;10;30.00;-3.00;-1326.00
1716551405608370542;0;0;0;0;0;-3;72;75;10;0;83;136.31;10;-3.00;0.00;-1235.00
1716551405710252285;0;0;0;0;0;-5;72;75;16;0;83;136.48;10;-16.00;7.00;-1132.00
1716551405812238693;1;0;0;0;0;-6;73;75;25;0;83;136.72;11;-4.00;2.00;-1046.00
1716551405916320085;0;0;0;0;0;-7;73;75;34;0;83;136.77;11;-12.00;6.00;-1007.00
1716551406021115303;0;0;0;0;0;-7;73;75;43;10;83;136.86;11;11.00;-7.00;-968.00
1716551406121390104;0;0;0;0;0;-6;73;75;50;10;83;137.02;11;-8.00;11.00;-933.00
1716551406220857858;0;0;0;0;0;-5;73;75;58;20;83;137.04;11;3.00;1.00;-905.00
1716551406325011491;0;0;0;0;0;-4;73;75;65;20;83;137.10;11;-3.00;5.00;-911.00
1716551406425861835;0;0;0;0;0;-3;73;75;72;20;83;137.19;11;0.00;1.00;-907.00
1716551406527192831;0;0;0;0;0;-2;73;75;78;30;83;137.24;11;6.00;-5.00;-899.00
1716551406630404710;0;0;0;0;0;-1;73;75;82;30;83;137.31;11;12.00;-4.00;-919.00
1716551406731199264;0;0;0;0;0;-1;73;75;86;30;83;137.36;11;4.00;-4.00;-927.00
1716551406833926677;0;0;0;0;0;0;73;75;89;40;83;137.41;12;1.00;4.00;-944.00
1716551406935894489;0;0;0;0;0;0;73;75;92;40;83;137.43;12;3.00;0.00;-945.00
1716551407037281751;0;0;0;0;0;0;73;75;94;40;83;137.44;12;4.00;4.00;-953.00
1716551407139887809;0;0;0;0;0;0;73;75;95;40;83;137.43;12;1.00;6.00;-963.00
1716551407241133928;0;0;0;0;0;0;73;75;97;40;83;137.48;12;-5.00;5.00;-959.00
1716551407344907045;0;0;0;0;0;0;73;75;98;40;83;137.46;12;22.00;-10.00;-955.00
1716551407449929475;0;0;0;0;0;0;73;75;98;50;83;137.47;12;5.00;0.00;-965.00
1716551407547563314;0;0;0;0;0;0;73;75;99;50;83;137.68;12;-1.00;4.00;-971.00
1716551407656162023;0;0;0;0;0;1;73;75;99;50;83;137.78;12;-5.00;9.00;-975.00
1716551407753070592;0;0;0;0;0;1;73;75;99;50;83;137.83;12;-6.00;5.00;-976.00
1716551407853146553;0;0;0;0;0;1;73;76;98;50;83;137.92;13;-12.00;-4.00;-976.00
1716551407955244541;0;0;0;0;0;1;73;76;98;50;83;137.76;13;-3.00;-6.00;-967.00
1716551408057716846;0;0;0;0;0;1;73;76;97;50;83;137.65;13;3.00;-2.00;-976.00
1716551408159199714;0;0;0;0;0;1;73;76;96;50;83;137.63;13;2.00;0.00;-985.00
1716551408261211395;0;0;0;0;0;1;73;76;94;50;83;137.51;13;0.00;1.00;-999.00
1716551408362968921;0;0;0;0;0;1;73;76;93;50;83;137.50;13;-5.00;2.00;-1000.00
1716551408465023994;0;0;0;0;0;1;73;76;92;50;83;137.43;13;-2.00;0.00;-994.00
1716551408516999959;0;0;0;0;0;1;73;76;91;40;83;137.44;13;0.00;-1.00;-997.00
1716551408618362903;0;0;0;0;0;1;73;76;89;40;83;137.46;13;2.00;0.00;-994.00
1716551408720096826;0;0;0;0;0;1;73;76;88;40;83;137.40;13;-2.00;1.00;-1008.00
1716551408872915029;0;0;0;0;0;1;73;74;87;40;83;137.40;14;-1.00;8.00;-1006.00
1716551408923926115;0;0;0;0;0;1;73;74;86;40;83;137.35;14;13.00;-6.00;-1004.00
1716551409027287006;0;0;0;0;0;1;73;74;84;40;83;137.40;14;-4.00;2.00;-1010.00
1716551409130236387;0;0;0;0;0;0;73;74;84;40;83;137.36;14;-9.00;7.00;-1002.00
1716551409230383396;0;0;0;0;0;0;73;74;82;40;83;137.36;14;13.00;-3.00;-996.00
1716551409332997322;0;0;0;0;0;0;73;74;81;40;83;137.28;14;0.00;2.00;-1001.00
1716551409435197591;0;0;0;0;0;0;73;74;81;40;83;137.35;14;-7.00;10.00;-999.00
1716551409537027835;0;0;0;0;0;0;73;74;80;40;83;137.35;14;4.00;2.00;-1006.00
1716551409640001058;0;0;0;0;0;0;73;74;79;40;83;137.36;14;3.00;0.00;-1001.00
1716551409742526054;0;0;0;0;0;0;73;74;78;30;83;137.34;15;9.00;0.00;-997.00
1716551409843766927;0;0;0;0;0;0;72;75;77;30;83;137.35;15;3.00;0.00;-1005.00
1716551409946148157;0;0;0;0;0;0;72;75;76;30;83;137.35;15;-4.00;-5.00;-1012.00
1716551410049588441;0;0;0;0;0;0;72;75;76;30;83;137.31;15;5.00;-5.00;-1004.00
1716551410157103061;0;0;0;0;0;0;72;75;75;30;83;137.36;15;2.00;2.00;-1005.00
1716551410254660606;0;0;0;0;0;0;72;75;75;30;83;137.29;15;4.00;-2.00;-1005.00
1716551410353132486;0;0;0;0;0;0;72;75;75;30;83;137.35;15;-5.00;2.00;-999.00
1716551410457186222;0;0;0;0;0;0;72;75;75;30;83;137.29;15;0.00;1.00;-1013.00
1716551410557546377;0;0;0;0;0;0;72;75;74;30;83;137.30;15;2.00;1.00;-1007.00
1716551410659726381;0;0;0;0;0;0;72;75;75;30;83;137.32;15;-5.00;0.00;-1007.00
1716551410761141061;0;0;0;0;0;0;72;75;74;30;83;137.32;16;-2.00;6.00;-1010.00
1716551410863755941;0;0;0;0;0;0;72;75;75;30;83;137.30;16;0.00;1.00;-1004.00
1716551410965027332;0;0;0;0;0;0;72;75;75;30;83;137.31;16;1.00;2.00;-991.00
1716551411067826509;0;0;0;0;0;0;72;75;75;30;83;137.34;16;-3.00;-2.00;-1002.00
1716551411169590234;0;0;0;0;0;0;72;75;75;30;83;137.37;16;0.00;3.00;-1009.00
1716551411271756649;0;0;0;0;0;0;72;75;75;30;83;137.33;16;-1.00;1.00;-1008.00
1716551411378595829;0;0;0;0;0;0;72;75;75;30;83;137.34;16;-10.00;2.00;-1000.00
1716551411474962949;0;0;0;0;0;0;72;75;76;30;83;137.35;16;2.00;-2.00;-1003.00
1716551411577758550;0;0;0;0;0;0;72;75;76;30;83;137.42;16;-10.00;11.00;-1002.00
1716551411684834480;0;0;0;0;0;0;72;75;76;30;83;137.36;16;6.00;1.00;-981.00
1716551411783718824;0;0;0;0;0;0;72;75;77;30;83;137.32;17;9.00;-3.00;-998.00
1716551411882956027;0;0;0;0;0;0;73;75;77;30;83;137.50;17;2.00;1.00;-1000.00
1716551411988092899;0;0;0;0;0;0;73;75;77;30;83;137.41;17;3.00;2.00;-1006.00
1716551412087397575;0;0;0;0;0;0;73;75;78;30;83;137.35;17;12.00;-1.00;-1001.00
1716551412189118862;0;0;0;0;0;0;73;75;78;30;83;137.46;17;2.00;0.00;-999.00
1716551412290981769;0;0;0;0;0;0;73;75;79;30;83;137.43;17;2.00;2.00;-995.00
1716551412392852067;0;0;0;0;0;0;73;75;79;30;83;137.41;17;5.00;-8.00;-992.00
1716551412495383501;0;0;0;0;0;0;73;75;79;30;83;137.46;17;-10.00;-4.00;-981.00
1716551412547878503;0;0;0;0;0;0;73;75;79;30;83;137.38;17;-6.00;0.00;-994.00
1716551412649931430;0;0;0;0;0;0;73;75;80;30;83;137.43;17;-3.00;-6.00;-1005.00
1716551412752734422;0;0;0;0;0;0;73;75;80;40;83;137.44;18;-3.00;0.00;-992.00
1716551412852233409;0;0;0;0;0;0;72;75;80;40;83;137.44;18;-3.00;6.00;-1008.00
1716551412953884124;0;0;0;0;0;0;72;75;80;40;83;137.43;18;-5.00;0.00;-998.00
1716551413056245088;0;0;0;0;0;0;72;75;81;40;83;137.38;18;-11.00;-1.00;-986.00
1716551413159761667;0;0;0;0;0;0;72;75;81;40;83;137.37;18;3.00;-4.00;-989.00
1716551413260074377;0;0;0;0;0;0;72;75;81;40;83;137.35;18;-2.00;-1.00;-997.00
1716551413361637115;0;0;0;0;0;0;72;75;81;40;83;137.32;18;3.00;-3.00;-984.00
1716551413465071678;0;0;0;0;0;0;72;75;81;40;83;137.31;18;0.00;-5.00;-987.00
1716551413566555738;0;0;0;0;0;0;72;75;81;40;83;137.24;18;-2.00;-2.00;-987.00
1716551413668807744;0;0;0;0;0;0;72;75;81;40;83;137.30;18;-12.00;-4.00;-997.00
1716551413775175333;0;0;0;0;0;0;72;75;81;40;83;137.21;19;0.00;-3.00;-997.00
1716551413878002405;0;0;0;0;0;0;71;74;81;40;83;137.12;19;-9.00;0.00;-1001.00
1716551413977226018;0;0;0;0;0;0;71;74;81;40;83;137.11;19;-19.00;-4.00;-1025.00
1716551414077839136;-6;0;0;0;0;0;71;74;79;40;83;137.00;19;0.00;0.00;-989.00
1716551414184550046;-8;0;0;1;0;0;71;74;80;40;83;137.16;19;-8.00;0.00;-1004.00
1716551414288752317;-8;0;0;3;0;0;71;74;80;40;83;137.18;19;-17.00;-2.00;-1015.00
1716551414387711048;-8;0;0;4;0;0;71;74;80;40;83;137.21;19;-35.00;4.00;-1001.00
1716551414487876415;-6;0;0;5;0;0;71;74;79;40;83;137.19;19;-39.00;3.00;-999.00
1716551414588917493;-6;0;0;6;0;0;71;74;79;40;83;137.27;19;-44.00;-2.00;-996.00
1716551414690742492;-5;0;0;6;0;0;71;74;78;40;83;137.26;19;-53.00;4.00;-1005.00
1716551414793343305;-5;0;0;7;0;0;71;74;78;40;83;137.25;20;-48.00;-2.00;-1001.00
1716551414896110296;-3;0;0;7;0;0;72;74;80;40;83;137.25;20;-65.00;0.00;-990.00
1716551414997748851;0;0;0;7;0;0;72;74;80;40;83;137.30;20;-58.00;5.00;-996.00
1716551415099738121;2;0;0;6;0;0;72;74;80;40;83;137.35;20;-50.00;-4.00;-995.00
1716551415202271461;4;0;0;5;0;0;72;74;79;40;83;137.31;20;-58.00;9.00;-1010.00
1716551415305652379;3;0;0;4;0;0;72;74;79;40;83;137.28;20;-40.00;0.00;-1011.00
1716551415405962705;1;0;0;3;0;0;72;74;79;40;83;137.30;20;-41.00;-4.00;-994.00
1716551415507927894;0;0;0;3;0;0;72;74;79;40;83;137.34;20;-37.00;-5.00;-988.00
1716551415609970331;0;0;0;2;0;0;72;74;78;40;83;137.40;20;-31.00;-4.00;-1003.00
1716551415720423460;0;0;0;2;0;0;72;74;78;40;83;137.37;20;-31.00;-9.00;-990.00
1716551415814795017;-1;0;0;2;0;0;72;74;78;30;83;137.35;21;-30.00;-3.00;-1001.00
1716551415919251918;0;0;0;3;0;0;72;74;78;30;83;137.41;21;-31.00;-10.00;-995.00
1716551416018481254;1;0;0;2;0;0;72;74;78;30;83;137.44;21;-26.00;-2.00;-998.00
1716551416121404647;4;0;0;2;0;0;72;74;78;30;83;137.46;21;-32.00;-6.00;-1013.00
1716551416223885536;4;0;0;1;0;0;72;74;78;30;83;137.49;21;-16.00;-7.00;-1013.00
1716551416326446533;2;-2;0;0;0;0;72;74;79;30;82;137.41;21;-11.00;-6.00;-1004.00
1716551416425736665;1;-4;0;0;0;0;72;74;78;30;82;137.46;21;-11.00;-7.00;-1001.00
1716551416482202291;0;-3;0;0;-1;0;72;74;79;30;82;137.44;21;-10.00;0.00;-999.00
1716551416585640192;0;2;0;0;-1;0;72;74;78;30;82;137.38;21;-5.00;9.00;-982.00
1716551416684131622;0;2;0;0;0;0;72;74;78;30;82;137.43;21;1.00;-4.00;-998.00
1716551416786825180;0;1;0;0;0;0;72;74;78;40;82;137.48;22;-8.00;-5.00;-1002.00
1716551416938427686;0;0;0;0;0;0;72;75;79;40;82;137.41;22;-10.00;0.00;-1007.00
1716551416987832307;0;0;0;0;0;0;72;75;78;40;82;137.42;22;-6.00;0.00;-994.00
1716551417089682102;0;0;0;0;0;0;72;75;78;40;82;137.42;22;-16.00;-2.00;-981.00
1716551417192912101;0;0;0;0;0;0;72;75;78;40;82;137.41;22;-8.00;-5.00;-995.00
1716551417295312881;0;0;0;0;0;0;72;75;78;40;82;137.39;22;-4.00;-13.00;-988.00
1716551417401716709;0;0;0;0;0;0;72;75;78;40;82;137.42;22;-20.00;13.00;-1025.00
1716551417497572183;0;0;3;0;0;0;72;75;77;40;82;137.35;22;-5.00;-10.00;-993.00
1716551417601728439;0;0;8;0;0;0;72;75;77;30;82;137.37;22;3.00;-12.00;-1005.00
1716551417702073574;0;0;14;0;0;0;72;75;77;30;82;137.34;22;5.00;-12.00;-1000.00
1716551417803900718;0;0;20;0;0;0;72;75;77;30;82;137.41;23;-3.00;-11.00;-994.00
1716551417905639410;0;0;26;0;0;0;72;75;76;30;82;137.38;23;0.00;-3.00;-1004.00
1716551418008712530;0;0;32;0;0;0;72;75;76;30;82;137.42;23;-5.00;3.00;-1008.00
1716551418109736204;0;0;38;0;0;0;72;75;76;30;82;137.37;23;-15.00;4.00;-1007.00
1716551418212011098;0;0;44;0;0;0;72;75;76;30;82;137.40;23;-19.00;10.00;-1014.00
1716551418315095663;0;0;50;0;0;0;72;75;76;30;82;137.39;23;-3.00;2.00;-1005.00
1716551418417988538;0;0;56;0;0;0;72;75;76;30;82;137.41;23;0.00;1.00;-1003.00
1716551418517809867;0;0;62;0;0;0;72;75;76;30;82;137.40;23;-3.00;5.00;-1000.00
1716551418624782323;0;0;69;0;0;0;72;75;76;30;82;137.42;23;3.00;3.00;-994.00
1716551418723660945;0;0;75;0;0;0;72;75;76;30;82;137.45;23;-1.00;5.00;-1001.00
1716551418830573558;0;0;81;0;0;0;72;75;76;30;82;137.42;24;6.00;1.00;-1009.00
1716551418927885293;0;0;87;0;0;0;72;74;76;30;82;137.41;24;-2.00;12.00;-1004.00
1716551419029026269;0;0;93;0;0;0;72;74;76;30;82;137.39;24;0.00;3.00;-1003.00
1716551419130642652;0;0;99;0;0;0;72;74;76;30;82;137.41;24;-5.00;6.00;-1002.00
1716551419232814550;0;0;105;0;0;0;72;74;77;30;82;137.39;24;-2.00;9.00;-998.00
1716551419334470033;0;0;111;0;0;0;72;74;77;30;81;137.31;24;3.00;0.00;-993.00
1716551419438022136;0;0;117;0;0;0;72;74;77;30;81;137.26;24;-7.00;10.00;-996.00
1716551419541059732;0;0;123;0;0;0;72;74;77;30;81;137.34;24;4.00;5.00;-1008.00
1716551419640559434;0;0;129;0;0;0;72;74;77;30;81;137.26;24;-3.00;23.00;-1014.00
1716551419744199275;0;0;134;0;0;0;72;74;77;30;81;137.27;24;-5.00;7.00;-994.00
1716551419844923734;0;0;139;0;0;0;72;74;77;30;81;137.32;25;-2.00;7.00;-994.00
1716551419952939748;0;0;142;0;0;0;72;75;77;30;81;137.38;25;6.00;-7.00;-978.00
1716551420052154779;0;0;145;0;0;0;72;75;78;30;81;137.33;25;-14.00;12.00;-1009.00
1716551420151600360;0;0;147;0;0;0;72;75;78;30;81;137.34;25;3.00;-5.00;-1004.00
1716551420254128456;0;0;149;0;0;0;72;75;78;30;81;137.30;25;-2.00;0.00;-999.00
1716551420357937097;0;0;150;0;0;0;72;75;78;30;81;137.41;25;10.00;-2.00;-991.00
1716551420457602024;0;0;151;0;0;0;72;75;78;30;81;137.37;25;-3.00;4.00;-993.00
1716551420559635162;0;0;151;0;0;0;72;75;79;30;81;137.38;25;2.00;11.00;-1017.00
1716551420667835474;0;0;151;0;0;0;72;75;79;30;81;137.41;25;-6.00;4.00;-1012.00
1716551420763533830;-3;-1;151;0;0;0;72;75;77;30;81;137.43;25;10.00;1.00;-996.00
1716551420865545034;-7;-1;152;-1;0;0;72;75;78;30;81;137.37;26;-5.00;2.00;-1001.00
1716551420967435359;-8;0;151;-2;1;0;73;75;78;30;81;137.32;26;-24.00;2.00;-1010.00
1716551421069457769;-7;0;151;-4;2;0;73;75;78;30;81;137.26;26;-37.00;-2.00;-999.00
1716551421171617031;-6;0;151;-5;3;0;73;75;77;30;81;137.31;26;-36.00;1.00;-1008.00
1716551421273703336;-6;0;151;-6;3;0;73;75;78;30;81;137.28;26;-49.00;-3.00;-1001.00
1716551421325180530;-5;0;151;-6;3;0;73;75;77;30;81;137.35;26;-44.00;-12.00;-996.00
1716551421427124023;-5;0;151;-7;3;0;73;75;77;30;81;137.33;26;-58.00;7.00;-1001.00
1716551421528791666;-4;0;151;-7;3;0;73;75;77;30;81;137.30;26;-60.00;7.00;-990.00
1716551421630810737;-1;0;151;-7;3;0;73;75;79;30;81;137.28;26;-60.00;6.00;-995.00
1716551421734194517;1;0;151;-7;3;0;73;75;80;30;81;137.33;27;-71.00;0.00;-993.00
1716551421835142850;3;0;151;-6;3;0;73;75;80;30;81;137.22;27;-59.00;4.00;-991.00
1716551421936408042;4;0;151;-5;2;0;71;75;79;30;81;137.39;27;-56.00;-5.00;-1013.00
1716551422039386034;3;0;151;-4;2;0;71;75;80;30;81;137.31;27;-54.00;0.00;-1016.00
1716551422140570878;1;0;151;-3;1;0;71;75;80;30;81;137.34;27;-44.00;-5.00;-1018.00
1716551422243003845;0;0;152;-2;1;0;71;75;80;40;81;137.34;27;-38.00;-9.00;-988.00
1716551422347517728;0;1;152;-2;1;0;71;75;80;40;80;137.27;27;-49.00;3.00;-1004.00
1716551422446603059;0;0;152;-2;0;0;71;75;80;40;80;137.31;27;-47.00;-3.00;-1008.00
1716551422549603700;-1;1;152;-2;0;0;71;75;79;40;80;137.24;27;-30.00;-3.00;-998.00
1716551422650361537;0;2;152;-2;0;0;71;75;80;40;80;137.30;27;-41.00;2.00;-998.00
1716551422753258705;0;1;152;-2;0;0;71;75;79;40;80;137.28;28;-31.00;-13.00;-985.00
1716551422857725143;1;0;152;-2;0;0;71;75;80;40;80;137.28;28;-40.00;-8.00;-982.00
1716551422960155725;3;-2;152;-1;0;0;72;74;80;40;80;137.29;28;-61.00;-8.00;-1000.00
1716551423061623573;1;0;152;0;0;0;72;74;80;40;80;137.31;28;-21.00;-9.00;-998.00
1716551423161868810;0;0;152;0;0;0;72;74;80;40;80;137.41;28;-25.00;-13.00;-995.00
1716551423265233039;0;0;152;0;0;0;72;74;79;40;80;137.39;28;-9.00;-7.00;-1003.00
1716551423366617679;0;0;152;0;0;0;72;74;79;40;80;137.37;28;-6.00;-2.00;-1002.00
1716551423471208095;0;0;152;0;0;0;72;74;79;40;80;137.42;28;6.00;-14.00;-1000.00
1716551423569780111;0;0;152;0;0;0;72;74;79;40;80;137.33;28;5.00;-10.00;-990.00
1716551423676882743;0;0;152;0;0;0;72;74;78;40;80;137.36;28;-15.00;0.00;-990.00
1716551423775669813;0;0;152;0;0;0;72;74;78;30;80;137.35;29;-20.00;1.00;-1005.00
1716551423877481460;0;0;152;0;0;0;72;74;78;30;80;137.28;29;-17.00;6.00;-1022.00
1716551423978792428;0;0;149;0;0;0;71;74;77;30;80;137.31;29;-13.00;18.00;-1014.00
1716551424083688735;0;0;144;0;0;0;71;74;77;30;80;137.34;29;-3.00;7.00;-1001.00
1716551424182423830;0;0;138;0;0;0;71;74;77;30;80;137.34;29;-13.00;3.00;-1012.00
1716551424287944555;0;0;132;0;0;0;71;74;77;30;80;137.27;29;9.00;3.00;-1000.00
1716551424336805582;0;0;127;0;0;0;71;74;76;30;80;137.32;29;-18.00;18.00;-1023.00
1716551424437964439;0;0;121;0;0;0;71;74;76;30;80;137.39;29;-9.00;3.00;-1014.00
1716551424541392803;0;0;115;0;0;0;71;74;77;30;80;137.36;29;-7.00;2.00;-1013.00
1716551424642355442;0;0;109;0;0;0;71;74;77;30;80;137.38;29;7.00;2.00;-1001.00
1716551424744489908;0;0;103;0;0;0;71;74;77;30;80;137.39;30;0.00;3.00;-1000.00
1716551424845809459;0;0;96;0;0;0;71;74;77;30;80;137.35;30;2.00;-2.00;-997.00
1716551424998705387;0;0;90;0;0;0;72;75;77;30;80;137.44;30;12.00;3.00;-1000.00
1716551425059798240;0;0;84;0;0;0;72;75;77;30;80;137.34;30;11.00;0.00;-993.00
1716551425151299476;0;0;78;0;0;0;72;75;77;30;80;137.40;30;6.00;2.00;-1002.00
1716551425253307819;0;0;72;0;0;0;72;75;78;30;80;137.40;30;4.00;4.00;-1004.00
1716551425355236768;0;0;65;0;0;0;72;75;78;30;80;137.33;30;6.00;7.00;-999.00
1716551425457316875;0;0;59;0;0;0;72;75;78;30;80;137.43;30;-1.00;5.00;-986.00
1716551425559336185;0;0;53;0;0;0;72;75;78;30;80;137.36;30;8.00;10.00;-998.00
1716551425661953449;0;0;47;0;0;0;72;75;78;30;80;137.38;30;10.00;0.00;-985.00
1716551425763055801;0;0;41;0;0;0;72;75;78;30;80;137.29;31;5.00;4.00;-1008.00
1716551425867171049;0;0;35;0;0;0;72;75;78;30;80;137.36;31;0.00;7.00;-989.00
1716551425969133138;0;0;29;0;0;0;71;74;79;30;80;137.35;31;0.00;19.00;-1011.00
1716551426072263956;0;-1;23;0;0;0;71;74;79;30;80;137.39;31;3.00;8.00;-995.00
1716551426171315193;0;0;17;0;0;0;71;74;79;30;80;137.32;31;1.00;3.00;-989.00
1716551426273378849;0;0;13;0;0;0;71;74;79;30;80;137.36;31;8.00;-4.00;-1005.00
1716551426376765727;0;0;9;0;0;0;71;74;79;30;79;137.36;31;4.00;6.00;-1007.00
1716551426490798234;0;0;7;0;0;0;71;74;79;30;79;137.41;31;3.00;-5.00;-997.00
1716551426582017183;0;0;5;0;0;0;71;74;79;30;79;137.47;31;0.00;2.00;-1002.00
1716551426682555198;0;0;3;0;0;0;71;74;79;30;79;137.46;31;-1.00;6.00;-1005.00
1716551426786096334;0;0;2;0;0;0;71;74;79;30;79;137.41;32;2.00;0.00;-991.00
1716551426886704921;0;0;1;0;0;0;71;74;79;30;79;137.41;32;-3.00;-1.00;-996.00
1716551426990286350;0;0;0;0;0;0;71;74;79;30;79;137.42;32;0.00;-4.00;-990.00
1716551427090106725;-2;0;0;0;0;0;71;74;78;40;79;137.44;32;-6.00;5.00;-1010.00
1716551427192113161;-7;0;0;0;0;0;71;74;77;30;79;137.39;32;9.00;-1.00;-990.00
1716551427296874761;-8;0;0;2;0;0;71;74;78;30;79;137.41;32;-9.00;1.00;-1001.00
1716551427396106958;-8;0;0;3;0;0;71;74;78;30;79;137.45;32;-19.00;-3.00;-1007.00
1716551427498329401;-8;0;0;4;0;0;71;74;78;30;79;137.37;32;-38.00;8.00;-1005.00
1716551427601989269;-7;0;0;5;0;0;71;74;77;30;79;137.35;32;-41.00;2.00;-1010.00
1716551427702580451;-6;0;0;6;0;0;71;74;77;30;79;137.37;32;-44.00;4.00;-1000.00
1716551427804474592;-5;0;0;7;0;0;71;74;76;30;79;137.38;33;-46.00;-3.00;-1003.00
1716551427906221389;-4;0;0;7;0;0;71;74;77;30;79;137.29;33;-55.00;0.00;-995.00
1716551428008419275;-2;0;0;7;0;0;71;74;78;30;79;137.27;33;-52.00;-2.00;-1003.00
1716551428110611438;0;0;0;7;0;0;71;74;79;30;79;137.27;33;-48.00;-1.00;-1007.00
1716551428217250108;2;0;0;6;0;0;71;74;79;30;79;137.26;33;-53.00;4.00;-999.00
1716551428315117359;4;0;0;5;0;0;71;74;78;30;79;137.32;33;-48.00;-5.00;-1006.00
1716551428365311861;3;0;0;4;0;0;71;74;79;30;79;137.37;33;-24.00;-10.00;-1013.00
1716551428467137813;2;0;0;3;0;0;71;74;79;30;79;137.39;33;-12.00;-16.00;-985.00
1716551428571011781;0;0;0;3;0;0;71;74;79;30;79;137.36;33;-27.00;0.00;-1000.00
1716551428681228399;0;0;0;2;0;0;71;74;79;30;79;137.32;33;-16.00;-2.00;-1001.00
1716551428774086713;0;0;0;2;0;0;71;74;78;30;79;137.36;34;-25.00;6.00;-1020.00
1716551428877491235;0;0;0;2;0;0;71;74;78;30;79;137.33;34;-28.00;1.00;-988.00
1716551428981508255;0;0;0;2;0;0;71;75;78;30;79;137.33;34;-19.00;-2.00;-1012.00
1716551429083984851;0;0;0;2;0;0;71;75;78;30;79;137.34;34;-17.00;-1.00;-996.00
1716551429186061620;1;-3;0;2;0;0;71;75;78;30;79;137.38;34;-16.00;-1.00;-1006.00
1716551429288645744;1;-5;0;1;0;0;71;75;78;30;78;137.33;34;-20.00;-1.00;-1026.00
1716551429390754461;3;-4;0;1;0;0;71;75;77;30;78;137.42;34;-25.00;11.00;-1022.00
1716551429489481210;2;-3;0;0;-1;0;71;75;78;30;78;137.40;34;-10.00;10.00;-1007.00
1716551429591907501;0;-2;0;0;-1;0;71;75;79;30;78;137.40;34;-6.00;15.00;-1010.00
1716551429692728042;0;3;0;0;-1;0;71;75;78;30;78;137.37;34;1.00;25.00;-986.00
1716551429796004772;0;3;0;0;0;0;71;75;78;30;78;137.34;35;2.00;7.00;-985.00
1716551429896947622;0;0;0;0;0;0;71;75;79;30;78;137.39;35;0.00;-2.00;-997.00
1716551429999146938;0;0;0;0;0;0;72;74;79;30;78;137.43;35;-1.00;-1.00;-988.00
1716551430101399660;0;0;0;0;0;0;72;74;79;30;78;137.37;35;-6.00;4.00;-1004.00
1716551430203372478;0;0;0;0;0;0;72;74;79;30;78;137.34;35;-13.00;7.00;-1002.00
1716551430304953813;0;0;0;0;0;0;72;74;79;40;78;137.35;35;-9.00;5.00;-995.00
1716551430407250404;0;0;0;0;0;0;72;74;79;40;78;137.36;35;-2.00;1.00;-991.00
1716551430509223461;0;0;0;0;0;0;72;74;79;40;78;137.38;35;-5.00;1.00;-992.00
1716551430615948200;0;0;0;0;0;0;72;74;79;40;78;137.39;35;-14.00;6.00;-995.00
1716551430718898773;0;0;0;0;0;0;72;74;79;40;78;137.34;35;1.00;1.00;-1001.00
1716551430817065715;0;0;0;0;0;0;72;74;79;40;78;137.41;36;-5.00;7.00;-996.00
1716551430918480157;0;0;0;0;0;0;72;74;78;30;78;137.37;36;-3.00;7.00;-996.00
1716551431030778169;0;0;-3;0;0;0;71;74;78;30;78;137.36;36;-2.00;8.00;-994.00
1716551431124442100;0;0;-8;0;0;0;71;74;78;30;78;137.33;36;-1.00;8.00;-990.00
1716551431229203224;0;0;-14;0;0;0;71;74;78;30;78;137.36;36;-13.00;9.00;-995.00
1716551431329770326;0;0;-20;0;0;0;71;74;78;30;78;137.26;36;6.00;-3.00;-1001.00
1716551431428972005;0;0;-26;0;0;0;71;74;78;30;78;137.29;36;-4.00;4.00;-1003.00
1716551431533092021;0;0;-32;0;0;0;71;74;78;30;78;137.39;36;-4.00;2.00;-1004.00
1716551431639275074;0;0;-38;0;0;0;71;74;78;30;78;137.31;36;0.00;2.00;-995.00
1716551431736797094;0;0;-43;0;0;0;71;74;78;30;78;137.32;36;-1.00;0.00;-997.00
1716551431786179780;0;0;-49;0;0;0;71;74;78;30;78;137.38;37;7.00;-4.00;-998.00
1716551431890252590;0;0;-55;0;0;0;71;74;78;30;78;137.27;37;8.00;-2.00;-1005.00
1716551432040130853;0;0;-61;0;0;0;71;74;78;30;78;137.33;37;0.00;-4.00;-993.00
1716551432091397047;0;0;-67;0;0;0;71;74;77;30;78;137.38;37;1.00;-2.00;-998.00
1716551432194602489;0;0;-73;0;0;0;71;74;77;30;78;137.32;37;-5.00;3.00;-992.00
1716551432296943664;0;0;-79;0;0;0;71;74;77;30;78;137.34;37;-1.00;2.00;-990.00
1716551432397630453;0;0;-85;0;0;0;71;74;78;30;78;137.34;37;-4.00;3.00;-999.00
1716551432501421213;0;0;-92;0;0;0;71;74;77;30;78;137.32;37;1.00;2.00;-1004.00
1716551432600835800;0;0;-98;0;0;0;71;74;77;30;78;137.33;37;0.00;-5.00;-996.00
1716551432704839706;0;0;-104;0;0;0;71;74;77;30;78;137.32;37;-14.00;8.00;-1004.00
1716551432805289983;0;0;-110;0;0;0;71;74;77;30;78;137.38;38;-8.00;9.00;-997.00
1716551432907278299;0;0;-116;0;0;0;71;74;77;30;78;137.38;38;10.00;-1.00;-1010.00
1716551433009074926;0;0;-122;0;0;0;71;74;77;30;78;137.43;38;-7.00;6.00;-1005.00
1716551433111305713;0;0;-128;0;0;0;71;74;77;30;78;137.39;38;-2.00;2.00;-1001.00
1716551433215471506;0;0;-134;0;0;0;71;74;77;30;78;137.37;38;10.00;0.00;-999.00
1716551433315584421;0;0;-139;0;0;0;71;74;77;30;78;137.34;38;-8.00;13.00;-1008.00
1716551433418015241;0;0;-142;0;0;0;71;74;77;30;78;137.32;38;-17.00;1.00;-993.00
1716551433524451494;0;0;-145;0;0;0;71;74;77;30;78;137.32;38;-10.00;-3.00;-994.00
1716551433623253107;0;0;-147;0;0;0;71;74;77;30;78;137.29;38;-4.00;6.00;-1008.00
1716551433723919868;0;0;-149;0;0;0;71;74;77;30;78;137.33;38;-9.00;11.00;-1015.00
1716551433826486110;0;0;-150;0;0;0;71;74;77;30;78;137.36;39;-10.00;-3.00;-991.00
1716551433928293943;0;0;-150;0;0;0;71;74;77;30;78;137.33;39;-4.00;4.00;-1006.00
1716551434030184745;0;0;-151;0;0;0;72;74;77;30;78;137.35;39;3.00;-5.00;-993.00
1716551434131981134;0;0;-151;0;0;0;72;74;77;30;78;137.34;39;4.00;1.00;-1006.00
1716551434234153509;-1;0;-151;0;0;0;72;74;75;30;78;137.27;39;-3.00;0.00;-1015.00
1716551434344142436;-6;0;-151;0;0;0;72;74;76;30;77;137.31;39;4.00;6.00;-1004.00
1716551434438069581;-8;0;-151;-1;-1;0;72;74;76;30;77;137.27;39;-22.00;4.00;-1010.00
1716551434542456865;-8;0;-151;-2;-1;0;72;74;76;30;77;137.19;39;-30.00;3.00;-1007.00
1716551434641938686;-8;0;-151;-4;-2;0;72;74;75;30;77;137.27;39;-22.00;-8.00;-1012.00
1716551434743935346;-7;0;-151;-5;-2;0;72;74;75;30;77;137.26;39;-43.00;-8.00;-1002.00
1716551434853073120;-7;0;-151;-5;-3;0;72;74;75;30;77;137.24;40;-54.00;-1.00;-996.00
1716551434948800325;-6;0;-151;-6;-3;0;72;74;75;30;77;137.28;40;-52.00;-12.00;-994.00
1716551435051762580;-6;0;-151;-6;-3;0;72;75;76;30;77;137.22;40;-54.00;-3.00;-999.00
1716551435152845859;-5;0;-151;-7;-3;0;72;75;76;30;77;137.24;40;-56.00;-1.00;-992.00
1716551435263347148;-4;0;-151;-7;-3;0;72;75;78;30;77;137.25;40;-53.00;-4.00;-1008.00
1716551435355961084;0;0;-151;-7;-3;0;72;75;79;30;77;137.22;40;-59.00;-3.00;-999.00
1716551435458139896;1;0;-151;-6;-3;0;72;75;79;30;77;137.20;40;-50.00;-1.00;-999.00
1716551435559772253;3;0;-151;-6;-3;0;72;75;79;30;77;137.23;40;-42.00;-9.00;-1005.00
1716551435612439870;4;0;-151;-5;-2;0;72;75;80;30;77;137.21;40;-32.00;0.00;-1010.00
1716551435714688777;3;0;-151;-4;-2;0;72;75;80;30;77;137.31;40;-30.00;-7.00;-991.00
1716551435818768978;1;0;-151;-3;-1;0;72;75;81;30;77;137.33;41;-30.00;-7.00;-999.00
1716551435920061349;0;0;-151;-2;-1;0;72;75;81;40;77;137.31;41;-11.00;-4.00;-992.00
1716551436025868177;0;0;-151;-2;-1;0;72;75;81;40;77;137.28;41;-22.00;-6.00;-981.00
1716551436137646913;0;0;-151;-2;-1;0;72;75;81;40;77;137.39;41;-32.00;5.00;-989.00
1716551436222901821;0;0;-151;-2;-1;0;72;75;81;40;77;137.35;41;-48.00;6.00;-982.00
1716551436324919462;0;-2;-151;-2;-1;0;72;75;81;40;77;137.21;41;-18.00;-3.00;-1019.00
1716551436426505804;0;-1;-151;-2;0;0;72;75;81;40;77;137.34;41;-20.00;0.00;-1004.00
1716551436528923988;4;1;-151;-1;0;0;72;75;81;40;77;137.41;41;-27.00;16.00;-1007.00
1716551436630742073;2;0;-151;0;0;0;72;75;81;40;77;137.42;41;-13.00;-2.00;-1000.00
1716551436733317852;1;0;-151;0;0;0;72;75;81;40;77;137.41;41;-9.00;4.00;-1008.00
1716551436835126161;0;0;-151;0;0;0;72;75;81;40;77;137.40;42;-15.00;7.00;-997.00
1716551436937112808;0;0;-151;0;0;0;72;75;81;40;77;137.33;42;-5.00;-5.00;-988.00
1716551437038988351;0;0;-151;0;0;0;72;73;81;40;77;137.41;42;-22.00;8.00;-993.00
1716551437142860174;0;0;-151;0;0;0;72;73;81;40;77;137.35;42;-17.00;7.00;-1009.00
1716551437245239973;0;0;-151;0;0;0;72;73;80;40;77;137.22;42;-18.00;8.00;-999.00
1716551437348064661;0;0;-151;0;0;0;72;73;80;40;77;137.25;42;-31.00;11.00;-958.00
1716551437446738481;0;0;-151;0;0;0;72;73;79;40;77;137.26;42;-13.00;3.00;-930.00
1716551437551686763;0;0;-151;0;0;1;72;73;78;30;77;137.33;42;-6.00;13.00;-939.00
1716551437660045862;0;0;-151;0;0;2;72;73;76;30;77;137.36;42;-16.00;7.00;-916.00
1716551437758475065;0;0;-151;0;0;3;72;73;73;30;77;137.58;43;6.00;-2.00;-932.00
1716551437857270479;0;0;-151;0;0;4;72;73;69;30;77;137.55;43;3.00;-4.00;-911.00
1716551437958070278;0;0;-151;0;0;4;72;73;65;20;77;137.34;43;-7.00;6.00;-955.00
1716551438059920787;0;0;-151;0;0;4;72;74;60;20;77;137.34;43;-7.00;0.00;-982.00
1716551438162435531;0;0;-151;0;0;5;72;74;56;10;77;137.28;43;-11.00;-3.00;-987.00
1716551438265447139;0;0;-151;0;0;4;72;74;51;10;77;137.09;43;0.00;-2.00;-1019.00
1716551438366666555;0;0;-151;0;0;4;72;74;46;0;77;136.98;43;9.00;-1.00;-1009.00
1716551438468411445;0;0;-151;0;0;4;72;74;42;0;77;136.87;43;-2.00;-8.00;-988.00
1716551438569736242;0;0;-151;0;0;4;72;74;36;0;77;136.85;43;-12.00;-4.00;-1009.00
1716551438671966314;0;0;-151;0;0;4;72;74;32;0;77;136.76;43;3.00;-9.00;-1021.00
1716551438773844003;0;0;-151;0;0;4;72;74;27;-10;77;136.67;44;-1.00;1.00;-1009.00
1716551438824911355;0;0;-151;0;0;4;72;74;23;-10;77;136.61;44;-3.00;11.00;-1034.00
1716551438926981687;0;0;-151;0;0;4;72;74;18;-20;77;136.49;44;12.00;-27.00;-977.00
1716551439028694629;0;0;-151;0;0;4;71;75;14;-20;77;136.28;44;11.00;-10.00;-997.00
1716551439133457899;0;0;-151;0;0;4;71;75;10;-20;77;135.88;44;18.00;-12.00;-1010.00
1716551439234390735;0;0;-151;0;0;3;71;75;10;-30;77;135.04;44;26.00;-8.00;-1051.00
1716551439334711074;1;0;-151;0;0;3;71;75;10;-30;77;133.38;44;2.00;4.00;-1048.00
1716551439437062978;0;0;-152;0;0;0;71;75;10;-30;77;133.32;44;-57.00;-71.00;-1889.00
1716551439538693189;0;0;-151;0;0;1;71;75;10;-30;77;134.01;44;2.00;-7.00;-734.00
1716551439640882015;0;0;-153;0;0;0;71;75;10;-30;77;133.93;44;20.00;-10.00;-883.00
1716551439744627475;0;0;-153;0;0;0;71;75;10;-30;77;134.79;45;19.00;-3.00;-1045.00
1716551439850571155;0;0;-153;0;0;0;71;75;10;-30;77;135.52;45;2.00;-11.00;-1000.00
1716551439948610305;0;0;-153;0;0;0;71;75;10;-30;77;135.85;45;3.00;-4.00;-995.00
1716551440049140691;0;0;-153;0;1;0;71;73;10;-30;77;136.03;45;1.00;-6.00;-990.00
1716551440150575876;0;0;-153;0;1;0;71;73;10;-30;77;135.93;45;11.00;-13.00;-1011.00
1716551440252720355;0;0;-153;0;1;0;71;73;10;-30;77;135.99;45;3.00;-5.00;-994.00
1716551440354972362;0;0;-153;0;1;0;71;73;10;-30;77;136.00;45;1.00;2.00;-995.00
1716551440457565546;0;0;-153;0;1;0;71;73;10;0;77;136.20;45;5.00;-11.00;-1002.00
1716551440559939384;0;0;-153;0;1;0;71;73;10;0;77;136.32;45;2.00;1.00;-1000.00
1716551440665040493;0;0;-153;0;1;0;71;73;10;0;77;136.39;45;3.00;0.00;-999.00
1716551440763958692;0;0;-153;0;0;0;71;73;10;0;77;136.43;45;0.00;-1.00;-1002.00
1716551440867893934;0;0;-153;0;0;0;71;73;10;0;77;136.49;45;0.00;-7.00;-1005.00
1716551440967985391;0;0;-153;0;0;0;71;73;10;0;77;136.50;45;3.00;-3.00;-1001.00
1716551441070245981;0;0;-153;0;0;0;71;74;10;0;77;136.46;45;7.00;-2.00;-996.00
1716551441171670198;0;0;-153;0;0;0;71;74;10;0;77;136.44;45;2.00;-1.00;-998.00
1716551441273692846;0;0;-153;0;0;0;71;74;10;0;77;136.45;45;2.00;-5.00;-1001.00
1716551441386503934;0;0;-153;0;0;0;71;74;10;0;77;136.48;45;2.00;-2.00;-999.00
1716551441480974197;0;0;-153;0;0;0;71;74;10;0;77;136.43;45;1.00;-2.00;-1000.00
1716551441583339452;0;0;-153;0;0;0;71;74;10;0;77;136.44;45;1.00;-3.00;-999.00
1716551441681638956;0;0;-153;0;0;0;71;74;10;0;77;136.47;45;2.00;-3.00;-998.00
1716551441783802986;0;0;-153;0;0;0;71;74;10;0;77;136.41;45;0.00;-2.00;-1001.00
1716551441887089014;0;0;-153;0;0;0;71;74;10;0;77;136.42;45;1.00;-3.00;-1001.00
1716551441987617254;0;0;-153;0;0;0;71;74;10;0;77;136.39;45;0.00;-4.00;-1000.00
1716551442089544534;0;0;-153;0;0;0;72;73;10;0;77;136.49;45;2.00;-4.00;-1001.00
1716551442191971063;0;0;-153;0;0;0;72;73;10;0;77;136.44;45;2.00;-5.00;-1002.00
1716551442293402194;0;0;-153;0;0;0;72;73;10;0;77;136.42;45;1.00;-2.00;-998.00
1716551442395627498;0;0;-153;0;0;0;72;73;10;0;77;136.39;45;2.00;-4.00;-1001.00
1716551442448618888;0;0;-153;0;0;0;72;73;10;0;77;136.42;45;2.00;-3.00;-1002.00
1716551442548699855;0;0;-153;0;0;0;72;73;10;0;77;136.44;45;2.00;-3.00;-1001.00
1716551442651766300;0;0;-153;0;0;0;72;73;10;0;77;136.43;45;2.00;-3.00;-1000.00
1716551442752381086;0;0;-153;0;0;0;72;73;10;0;77;136.47;45;2.00;-4.00;-1000.00
1716551442854457139;0;0;-153;0;0;0;72;73;10;0;77;136.38;45;3.00;-4.00;-1003.00
1716551442957294940;0;0;-153;0;0;0;72;73;10;0;77;136.48;45;1.00;-3.00;-1000.00
1716551443059444904;0;0;-153;0;0;0;71;74;10;0;77;136.43;45;2.00;-3.00;-1002.00
1716551443161930799;0;0;-153;0;0;0;71;74;10;0;77;136.47;45;2.00;-2.00;-1002.00
1716551443263624668;0;0;-153;0;0;0;71;74;10;0;77;136.44;45;2.00;-5.00;-1002.00
1716551443366235971;0;0;-153;0;0;0;71;74;10;0;77;136.43;45;2.00;-3.00;-1003.00
1716551443467764377;0;0;-153;0;0;0;71;74;10;0;77;136.52;45;2.00;-3.00;-1003.00
1716551443570472717;0;0;-153;0;0;0;71;74;10;0;77;136.42;45;2.00;-4.00;-1001.00
1716551443671876907;0;0;-153;0;0;0;71;74;10;0;77;136.45;45;2.00;-3.00;-1000.00
1716551443775439023;0;0;-153;0;0;0;71;74;10;0;77;136.41;45;2.00;-1.00;-1004.00
1716551443880112171;0;0;-153;0;0;0;71;74;10;0;77;136.40;45;2.00;-2.00;-1002.00
1716551443979074954;0;0;-153;0;0;0;71;74;10;0;77;136.44;45;2.00;-3.00;-1001.00
1716551444097651481;0;0;-153;0;0;0;72;75;10;0;77;136.48;45;0.00;-6.00;-1003.00
1716551444181463241;0;0;-153;0;0;0;72;75;10;0;77;136.45;45;2.00;-4.00;-1002.00
1716551444283519268;0;0;-153;0;0;0;72;75;10;0;77;136.40;45;0.00;-3.00;-1003.00
1716551444386348009;0;0;-153;0;0;0;72;75;10;0;77;136.45;45;1.00;-2.00;-1002.00
1716551444487578630;0;0;-153;0;0;0;72;75;10;0;77;136.39;45;2.00;-4.00;-1000.00
1716551444589411020;0;0;-153;0;0;0;72;75;10;0;77;136.38;45;1.00;-3.00;-1002.00
1716551444691845417;0;0;-153;0;0;0;72;75;10;0;77;136.39;45;2.00;-3.00;-1004.00
1716551444793340921;0;0;-153;0;0;0;72;75;10;0;77;136.35;45;1.00;-4.00;-1003.00
1716551444895250320;0;0;-153;0;0;0;72;75;10;0;77;136.30;45;0.00;-6.00;-1002.00
1716551445000165939;0;0;-153;0;0;0;72;75;10;0;77;136.21;45;1.00;-3.00;-1003.00
1716551445099915981;0;0;-153;0;0;0;72;75;10;0;77;136.19;45;2.00;-4.00;-1002.00
1716551445201734304;0;0;-153;0;0;0;72;75;10;0;77;136.13;45;1.00;-3.00;-1005.00
1716551445304060220;0;0;-153;0;0;0;72;75;10;0;77;136.13;45;2.00;-3.00;-1001.00
1716551445407131433;0;0;-153;0;0;0;72;75;10;0;77;136.11;45;1.00;-4.00;-1004.00
1716551445509698629;0;0;-153;0;0;0;72;75;10;0;77;136.22;45;2.00;-5.00;-1002.00
1716551445610211610;0;0;-153;0;0;0;72;75;10;0;77;136.29;45;1.00;-3.00;-1001.00
1716551445662083387;0;0;-153;0;0;0;72;75;10;0;77;136.28;45;1.00;-3.00;-1003.00
1716551445765801906;0;0;-153;0;0;0;72;75;10;0;77;136.35;45;2.00;-3.00;-1005.00
1716551445868445873;0;0;-153;0;0;0;72;75;10;0;77;136.32;45;1.00;-4.00;-1004.00
1716551445966323375;0;0;-153;0;0;0;72;75;10;0;77;136.35;45;2.00;-3.00;-1002.00
1716551446068493127;0;0;-153;0;0;0;72;75;10;0;77;136.34;45;2.00;-3.00;-1003.00
1716551446170437335;0;0;-153;0;0;0;72;75;10;0;77;136.48;45;2.00;-4.00;-1002.00
1716551446274329662;0;0;-153;0;0;0;72;75;10;0;77;136.42;45;2.00;-3.00;-1004.00
1716551446375660181;0;0;-153;0;0;0;72;75;10;0;77;136.46;45;0.00;-3.00;-1001.00
1716551446482829570;0;0;-153;0;0;0;72;75;10;0;77;136.45;45;2.00;-2.00;-1003.00
1716551446583923816;0;0;-153;0;0;0;72;75;10;0;77;136.45;45;1.00;-5.00;-1002.00
1716551446681383848;0;0;-153;0;0;0;72;75;10;0;77;136.44;45;1.00;-4.00;-1002.00
1716551446783266305;0;0;-153;0;0;0;72;75;10;0;77;136.47;45;1.00;-3.00;-1002.00
1716551446885424137;0;0;-153;0;0;0;72;75;10;0;77;136.41;45;1.00;-3.00;-1000.00
1716551446987401962;0;0;-153;0;0;0;72;75;10;0;77;136.41;45;2.00;-3.00;-1003.00
1716551447089285135;0;0;-153;0;0;0;72;75;10;0;77;136.49;45;3.00;-3.00;-1002.00
1716551447191433429;0;0;-153;0;0;0;72;75;10;0;77;136.44;45;2.00;-3.00;-1001.00
1716551447294053792;0;0;-153;0;0;0;72;75;10;0;77;136.48;45;1.00;-2.00;-1000.00
1716551447395426988;0;0;-153;0;0;0;72;75;10;0;77;136.45;45;3.00;-1.00;-1000.00
1716551447497498035;0;0;-153;0;0;0;72;75;10;0;77;136.44;45;2.00;-4.00;-1002.00
1716551447599683523;0;0;-153;0;0;0;72;75;10;0;77;136.43;45;1.00;-2.00;-1002.00
1716551447702102899;0;0;-153;0;0;0;72;75;10;0;77;136.44;45;2.00;-3.00;-1001.00
1716551447804701328;0;0;-153;0;0;0;72;75;10;0;77;136.45;45;0.00;-3.00;-1001.00
1716551447909284591;0;0;-153;0;0;0;72;75;10;0;77;136.39;45;1.00;-3.00;-1000.00
1716551448008868694;0;0;-153;0;0;0;72;75;10;0;77;136.41;45;2.00;-2.00;-1001.00
1716551448111464738;0;0;-153;0;0;0;73;75;10;0;77;136.40;45;2.00;-5.00;-1003.00
1716551448215011358;0;0;-153;0;0;0;73;75;10;0;77;136.46;45;2.00;-2.00;-1001.00
1716551448313487291;0;0;-153;0;0;0;73;75;10;0;77;136.35;45;2.00;-3.00;-999.00
1716551448420390605;0;0;-153;0;0;0;73;75;10;0;77;136.42;45;2.00;-3.00;-1000.00
1716551448517846345;0;0;-153;0;0;0;73;75;10;0;77;136.43;45;0.00;-3.00;-998.00
1716551448619055032;0;0;-153;0;0;0;73;75;10;0;77;136.43;45;2.00;-4.00;-1000.00
1716551448721421003;0;0;-153;0;0;0;73;75;10;0;77;136.44;45;1.00;-3.00;-1002.00
1716551448772234678;0;0;-153;0;0;0;73;75;10;0;77;136.45;45;3.00;-4.00;-999.00
1716551448877104997;0;0;-153;0;0;0;73;75;10;0;77;136.44;45;1.00;-4.00;-1001.00
1716551448977543354;0;0;-153;0;0;0;73;75;10;0;77;136.41;45;2.00;-4.00;-1000.00
1716551449078639030;0;0;-153;0;0;0;74;75;10;0;77;136.44;45;1.00;-3.00;-1000.00
1716551449182505846;0;0;-153;0;0;0;74;75;10;0;77;136.44;45;2.00;-3.00;-999.00
1716551449282127618;0;0;-153;0;0;0;74;75;10;0;77;136.42;45;2.00;-1.00;-1000.00
1716551449385170698;0;0;-153;0;0;0;74;75;10;0;77;136.45;45;2.00;-4.00;-1000.00
1716551449486106157;0;0;-153;0;0;0;74;75;10;0;77;136.43;45;1.00;-3.00;-1000.00
1716551449590183973;0;0;-153;0;0;0;74;75;10;0;77;136.46;45;3.00;-4.00;-998.00
1716551449690072774;0;0;-153;0;0;0;74;75;10;0;77;136.46;45;2.00;-3.00;-997.00
1716551449792217016;0;0;-153;0;0;0;74;75;10;0;77;136.46;45;2.00;-2.00;-998.00
1716551449894188880;0;0;-153;0;0;0;74;75;10;0;77;136.49;45;1.00;-3.00;-999.00
1716551449996356725;0;0;-153;0;0;0;74;75;10;0;77;136.40;45;1.00;-3.00;-999.00
1716551450099899053;0;0;-153;0;0;0;73;75;10;0;77;136.41;45;2.00;-3.00;-998.00
1716551450201542377;0;0;-153;0;0;0;73;75;10;0;77;136.43;45;3.00;-3.00;-1001.00
1716551450302180528;0;0;-153;0;0;0;73;75;10;0;77;136.42;45;1.00;-4.00;-1000.00
1716551450404630184;0;0;-153;0;0;0;73;75;10;0;77;136.42;45;2.00;-3.00;-1002.00
1716551450506251811;0;0;-153;0;0;0;73;75;10;0;77;136.42;45;1.00;-3.00;-999.00
1716551450613950729;0;0;-153;0;0;0;73;75;10;0;77;136.45;45;1.00;-5.00;-1001.00
1716551450712543725;0;0;-153;0;0;0;73;75;10;0;77;136.47;45;2.00;-3.00;-1001.00
1716551450812888145;0;0;-153;0;0;0;73;75;10;0;77;136.44;45;2.00;-5.00;-1001.00
1716551450917002439;0;0;-153;0;0;0;73;75;10;0;77;136.48;45;3.00;-2.00;-1001.00
1716551451016401052;0;0;-153;0;0;0;73;75;10;0;77;136.43;45;3.00;-4.00;-1000.00
1716551451119380474;0;0;-153;0;0;0;73;75;10;0;77;136.43;45;1.00;-3.00;-997.00
1716551451220196962;0;0;-153;0;0;0;73;75;10;0;77;136.43;45;0.00;-3.00;-998.00
1716551451324218988;0;0;-153;0;0;0;73;75;10;0;77;136.39;45;0.00;-3.00;-999.00
1716551451427917242;0;0;-153;0;0;0;73;75;10;0;77;136.44;45;2.00;-3.00;-999.00
1716551451527585744;0;0;-153;0;0;0;73;75;10;0;77;136.41;45;0.00;-3.00;-1001.00
1716551451628190517;0;0;-153;0;0;0;73;75;10;0;77;136.43;45;1.00;-3.00;-1001.00
1716551451730624198;0;0;-153;0;0;0;73;75;10;0;77;136.45;45;2.00;-3.00;-998.00
1716551451832414150;0;0;-153;0;0;0;73;75;10;0;77;136.42;45;2.00;-4.00;-998.00
1716551451939735889;0;0;-153;0;0;0;73;75;10;0;77;136.40;45;2.00;-4.00;-999.00
1716551452036637544;0;0;-153;0;0;0;73;75;10;0;77;136.43;45;2.00;-3.00;-1002.00
1716551452139002084;0;0;-153;0;0;0;73;76;10;0;77;136.39;45;0.00;-3.00;-1001.00
1716551452243827104;0;0;-153;0;0;0;73;76;10;0;77;136.39;45;2.00;-2.00;-1000.00
1716551452293021917;0;0;-153;0;0;0;73;76;10;0;77;136.39;45;3.00;-3.00;-999.00
1716551452394081592;0;0;-153;0;0;0;73;76;10;0;77;136.44;45;2.00;-4.00;-998.00
1716551452495859622;0;0;-153;0;0;0;73;76;10;0;77;136.42;45;3.00;-3.00;-1000.00
1716551452598248004;0;0;-153;0;0;0;73;76;10;0;77;136.38;45;2.00;-4.00;-999.00
1716551452700397968;0;0;-153;0;0;0;73;76;10;0;77;136.41;45;1.00;-4.00;-1000.00
1716551452801985502;0;0;-153;0;0;0;73;76;10;0;77;136.45;45;1.00;-3.00;-1002.00
1716551452904373645;0;0;-153;0;0;0;73;76;10;0;77;136.44;45;2.00;-2.00;-1001.00
1716551453008183956;0;0;-153;0;0;0;73;76;10;0;77;136.44;45;1.00;-1.00;-1000.00
1716551453110591650;0;0;-153;0;0;0;73;76;10;0;77;136.41;45;2.00;-4.00;-1001.00
1716551453212035417;0;0;-153;0;0;0;73;76;10;0;77;136.38;45;2.00;-3.00;-998.00
1716551453314887285;0;0;-153;0;0;0;73;76;10;0;77;136.43;45;1.00;-2.00;-999.00
1716551453414134025;0;0;-153;0;0;0;73;76;10;0;77;136.40;45;1.00;-3.00;-1001.00
1716551453516025304;0;0;-153;0;0;0;73;76;10;0;77;136.43;45;1.00;-1.00;-998.00
1716551453619353532;0;0;-153;0;0;0;73;76;10;0;77;136.42;45;3.00;-3.00;-999.00
1716551453720517158;0;0;-153;0;0;0;73;76;10;0;77;136.42;45;1.00;-2.00;-1001.00
1716551453822949409;0;0;-153;0;0;0;73;76;10;0;77;136.40;45;3.00;-1.00;-1000.00
1716551453924329280;0;0;-153;0;0;0;73;76;10;0;77;136.42;45;1.00;-3.00;-998.00
1716551454026853561;0;0;-153;0;0;0;73;76;10;0;77;136.44;45;2.00;-4.00;-999.00
1716551454127861976;0;0;-153;0;0;0;74;76;10;0;77;136.47;45;1.00;-1.00;-999.00
1716551454229977130;0;0;-153;0;0;0;74;76;10;0;77;136.43;45;2.00;-3.00;-998.00
1716551454332842350;0;0;-153;0;0;0;74;76;10;0;77;136.48;45;1.00;-3.00;-998.00
1716551454434169769;0;0;-153;0;0;0;74;76;10;0;77;136.40;45;1.00;-3.00;-999.00
1716551454536057949;0;0;-153;0;0;0;74;76;10;0;77;136.42;45;1.00;-1.00;-1000.00
1716551454639841794;0;0;-153;0;0;0;74;76;10;0;77;136.40;45;2.00;-2.00;-1000.00
1716551454742035150;0;0;-153;0;0;0;74;76;10;0;77;136.40;45;2.00;-2.00;-999.00
1716551454848086595;0;0;-153;0;0;0;74;76;10;0;77;136.39;45;3.00;-4.00;-1001.00
1716551454946925401;0;0;-153;0;0;0;74;76;10;0;77;136.43;45;2.00;-4.00;-1000.00
1716551455048424005;0;0;-153;0;0;0;74;76;10;0;77;136.42;45;1.00;-4.00;-1000.00
1716551455150757789;0;0;-153;0;0;0;74;77;10;0;77;136.43;45;2.00;-4.00;-1000.00
1716551455253028869;0;0;-153;0;0;0;74;77;10;0;77;136.40;45;2.00;-4.00;-999.00
1716551455352954149;0;0;-153;0;0;0;74;77;10;0;77;136.42;45;1.00;0.00;-999.00
1716551455455106496;0;0;-153;0;0;0;74;77;10;0;77;136.46;45;0.00;-2.00;-1001.00
1716551455557085275;0;0;-153;0;0;0;74;77;10;0;77;136.42;45;2.00;-4.00;-1000.00
1716551455613815546;0;0;-153;0;0;0;74;77;10;0;77;136.45;45;2.00;-4.00;-1002.00
1716551455714306831;0;0;-153;0;0;0;74;77;10;0;77;136.42;45;0.00;-1.00;-1001.00
1716551455813338994;0;0;-153;0;0;0;74;77;10;0;77;136.42;45;3.00;-3.00;-1001.00
1716551455915776252;0;0;-153;0;0;0;74;77;10;0;77;136.44;45;2.00;-4.00;-999.00
1716551456016901016;0;0;-153;0;0;0;74;77;10;0;77;136.46;45;1.00;-4.00;-1001.00
1716551456118954420;0;0;-153;0;0;0;74;76;10;0;77;136.39;45;1.00;-2.00;-1001.00
1716551456221676111;0;0;-153;0;0;0;74;76;10;0;77;136.46;45;3.00;-4.00;-998.00
1716551456322817087;0;0;-153;0;0;0;74;76;10;0;77;136.46;45;3.00;-3.00;-1001.00
1716551456425086736;0;0;-153;0;0;0;74;76;10;0;77;136.46;45;3.00;-3.00;-1000.00
1716551456527371406;0;0;-153;0;0;0;74;76;10;0;77;136.45;45;3.00;-2.00;-1000.00
1716551456629045009;0;0;-153;0;0;0;74;76;10;0;77;136.41;45;2.00;-4.00;-999.00
1716551456730867385;0;0;-153;0;0;0;74;76;10;0;77;136.42;45;2.00;-4.00;-1001.00
1716551456834313154;0;0;-153;0;0;0;74;76;10;0;77;136.45;45;1.00;-3.00;-1000.00
1716551456935635566;0;0;-153;0;0;0;74;76;10;0;77;136.43;45;1.00;-2.00;-997.00
1716551457038458585;0;0;-153;0;0;0;74;76;10;0;77;136.42;45;0.00;-3.00;-998.00
1716551457140045881;0;0;-153;0;0;0;75;77;10;0;77;136.40;45;2.00;-4.00;-999.00
1716551457241470813;0;0;-153;0;0;0;75;77;10;0;77;136.38;45;3.00;-3.00;-1001.00
1716551457348431587;0;0;-153;0;0;0;75;77;10;0;77;136.35;45;1.00;-2.00;-1001.00
1716551457445770740;0;0;-153;0;0;0;75;77;10;0;77;136.43;45;2.00;-2.00;-996.00
1716551457548062324;0;0;-153;0;0;0;75;77;10;0;77;136.35;45;0.00;-3.00;-1000.00
1716551457648925542;0;0;-153;0;0;0;75;77;10;0;77;136.39;45;2.00;-4.00;-999.00
1716551457750880718;0;0;-153;0;0;0;75;77;10;0;77;136.42;45;1.00;-3.00;-999.00
1716551457854485511;0;0;-153;0;0;0;75;77;10;0;77;136.39;45;1.00;-3.00;-998.00
1716551457954968214;0;0;-153;0;0;0;75;77;10;0;77;136.38;45;2.00;-3.00;-1000.00
1716551458057848930;0;0;-153;0;0;0;75;77;10;0;77;136.38;45;1.00;-1.00;-1000.00
1716551458159951210;0;0;-153;0;0;0;74;77;10;0;77;136.43;45;2.00;-3.00;-995.00
1716551458261774063;0;0;-153;0;0;0;74;77;10;0;77;136.42;45;1.00;-3.00;-999.00
1716551458363743305;0;0;-153;0;0;0;74;77;10;0;77;136.45;45;2.00;-3.00;-999.00
1716551458465906381;0;0;-153;0;0;0;74;77;10;0;77;136.36;45;1.00;-4.00;-1001.00
1716551458568731784;0;0;-153;0;0;0;74;77;10;0;77;136.37;45;1.00;-3.00;-999.00
1716551458672465324;0;0;-153;0;0;0;74;77;10;0;77;136.38;45;2.00;-2.00;-1000.00
1716551458723548173;0;0;-153;0;0;0;74;77;10;0;77;136.40;45;1.00;-2.00;-998.00
1716551458822741746;0;0;-153;0;0;0;74;77;10;0;77;136.39;45;1.00;-2.00;-1002.00
1716551458924776792;0;0;-153;0;0;0;74;77;10;0;77;136.39;45;1.00;-2.00;-999.00
1716551459027140855;0;0;-153;0;0;0;74;77;10;0;77;136.42;45;2.00;-4.00;-1003.00
1716551459129008054;0;0;-153;0;0;0;75;77;10;0;77;136.44;45;2.00;-2.00;-997.00
1716551459231043815;0;0;-153;0;0;0;75;77;10;0;77;136.36;45;1.00;-3.00;-1001.00
1716551459332742929;0;0;-153;0;0;0;75;77;10;0;77;136.39;45;1.00;-3.00;-999.00
1716551459435024976;0;0;-153;0;0;0;75;77;10;0;77;136.43;45;1.00;-3.00;-1001.00
1716551459536980152;0;0;-153;0;0;0;75;77;10;0;77;136.44;45;0.00;-3.00;-997.00
1716551459640976667;0;0;-153;0;0;0;75;77;10;0;77;136.40;45;2.00;-3.00;-999.00
1716551459742567062;0;0;-153;0;0;0;75;77;10;0;77;136.36;45;1.00;-4.00;-997.00
1716551459845845222;0;0;-153;0;0;0;75;77;10;0;77;136.39;45;2.00;-2.00;-1000.00
1716551459945492267;0;0;-153;0;0;0;75;77;10;0;77;136.36;45;2.00;-2.00;-1001.00
1716551460047827005;0;0;-153;0;0;0;75;77;10;0;77;136.43;45;0.00;-1.00;-1000.00
1716551460149113416;0;0;-153;0;0;0;75;77;10;0;77;136.40;45;2.00;-4.00;-999.00
1716551460250896692;0;0;-153;0;0;0;75;77;10;0;77;136.47;45;0.00;-3.00;-998.00
1716551460352593660;0;0;-153;0;0;0;75;77;10;0;77;136.38;45;2.00;-3.00;-1000.00
1716551460454821586;0;0;-153;0;0;0;75;77;10;0;77;136.37;45;0.00;-3.00;-999.00
1716551460556832075;0;0;-153;0;0;0;75;77;10;0;77;136.42;45;2.00;-4.00;-1001.00
1716551460658848762;0;0;-153;0;0;0;75;77;10;0;77;136.36;45;1.00;-4.00;-999.00
1716551460760824203;0;0;-153;0;0;0;75;77;10;0;77;136.42;45;2.00;-4.00;-1000.00
1716551460862724542;0;0;-153;0;0;0;75;77;10;0;77;136.42;45;2.00;-3.00;-1001.00
1716551460964796066;0;0;-153;0;0;0;75;77;10;0;77;136.31;45;1.00;-2.00;-998.00
1716551461067939043;0;0;-153;0;0;0;75;77;10;0;77;136.35;45;1.00;-3.00;-998.00
1716551461169757843;0;0;-153;0;0;0;74;76;10;0;77;136.38;45;1.00;-2.00;-999.00
1716551461272034406;0;0;-153;0;0;0;74;76;10;0;77;136.33;45;1.00;-2.00;-999.00
1716551461376588344;0;0;-153;0;0;0;74;76;10;0;77;136.36;45;0.00;-3.00;-999.00
1716551461478201866;0;0;-153;0;0;0;74;76;10;0;77;136.32;45;2.00;0.00;-998.00
1716551461578056812;0;0;-153;0;0;0;74;76;10;0;77;136.34;45;2.00;-3.00;-999.00
1716551461628924369;0;0;-153;0;0;0;74;76;10;0;77;136.34;45;0.00;-2.00;-1001.00
1716551461730887174;0;0;-153;0;0;0;74;76;10;0;77;136.33;45;3.00;-3.00;-998.00
1716551461833797216;0;0;-153;0;0;0;74;76;10;0;77;136.31;45;1.00;-4.00;-1001.00
1716551461934712886;0;0;-153;0;0;0;74;76;10;0;77;136.36;45;1.00;-2.00;-1000.00
1716551462036810636;0;0;-153;0;0;0;74;76;10;0;77;136.37;45;1.00;-4.00;-1000.00
1716551462141171455;0;0;-153;0;0;0;75;77;10;0;77;136.32;45;0.00;-3.00;-999.00
1716551462242204904;0;0;-153;0;0;0;75;77;10;0;77;136.37;45;1.00;-4.00;-1000.00
1716551462346532344;0;0;-153;0;0;0;75;77;10;0;77;136.39;45;1.00;-3.00;-1000.00
1716551462444752931;0;0;-153;0;0;0;75;77;10;0;77;136.36;45;3.00;-1.00;-1001.00
1716551462547895908;0;0;-153;0;0;0;75;77;10;0;77;136.36;45;0.00;-2.00;-999.00
1716551462648762226;0;0;-153;0;0;0;75;77;10;0;77;136.35;45;3.00;-4.00;-999.00
1716551462750833988;0;0;-153;0;0;0;75;77;10;0;77;136.40;45;3.00;-4.00;-999.00
1716551462854384660;0;0;-153;0;0;0;75;77;10;0;77;136.36;45;0.00;-4.00;-1001.00
1716551462955117464;0;0;-153;0;0;0;75;77;10;0;77;136.34;45;1.00;-3.00;-998.00
1716551463056713819;0;0;-153;0;0;0;75;77;10;0;77;136.38;45;2.00;-5.00;-1001.00
1716551463158698320;0;0;-153;0;0;0;75;77;10;0;77;136.33;45;2.00;-5.00;-999.00
1716551463260419368;0;0;-153;0;0;0;75;77;10;0;77;136.32;45;2.00;-3.00;-1002.00
1716551463362745761;0;0;-153;0;0;0;75;77;10;0;77;136.30;45;2.00;-2.00;-1000.00
1716551463466827630;0;0;-153;0;0;0;75;77;10;0;77;136.30;45;3.00;-4.00;-1001.00
1716551463567092180;0;0;-153;0;0;0;75;77;10;0;77;136.26;45;2.00;-2.00;-1002.00
1716551463668580293;0;0;-153;0;0;0;75;77;10;0;77;136.31;45;1.00;-4.00;-1000.00
1716551463777077198;0;0;-153;0;0;0;75;77;10;0;77;136.31;45;2.00;-3.00;-1000.00
1716551463874432563;0;0;-153;0;0;0;75;77;10;0;77;136.29;45;1.00;-4.00;-1001.00
1716551463977260351;0;0;-153;0;0;0;75;77;10;0;77;136.31;45;1.00;-3.00;-1000.00
1716551464079113960;0;0;-153;0;0;0;75;77;10;0;77;136.24;45;1.00;-2.00;-999.00
1716551464178741693;0;0;-153;0;0;0;74;77;10;0;77;136.25;45;1.00;-2.00;-999.00
1716551464281610250;0;0;-153;0;0;0;74;77;10;0;77;136.27;45;1.00;-2.00;-999.00
1716551464382389545;0;0;-153;0;0;0;74;77;10;0;77;136.30;45;2.00;-1.00;-1000.00
1716551464484921455;0;0;-153;0;0;0;74;77;10;0;77;136.29;45;0.00;-2.00;-1000.00
1716551464587231397;0;0;-153;0;0;0;74;77;10;0;77;136.20;45;0.00;-2.00;-998.00
1716551464689306974;0;0;-153;0;0;0;74;77;10;0;77;136.26;45;4.00;-3.00;-1001.00
1716551464791805505;0;0;-153;0;0;0;74;77;10;0;77;136.28;45;1.00;-4.00;-999.00
1716551464893475294;0;0;-153;0;0;0;74;77;10;0;77;136.25;45;2.00;-2.00;-999.00
1716551464995620250;0;0;-153;0;0;0;74;77;10;0;77;136.16;45;0.00;-3.00;-998.00
1716551465048360109;0;0;-153;0;0;0;74;77;10;0;77;136.19;45;1.00;-4.00;-1001.00
1716551465201283931;0;0;-153;0;0;0;75;77;10;0;77;136.17;45;1.00;-3.00;-1003.00
1716551465302494525;0;0;-153;0;0;0;75;77;10;0;77;136.15;45;1.00;-2.00;-1001.00
1716551465353339433;0;0;-153;0;0;0;75;77;10;0;77;136.19;45;3.00;-5.00;-1000.00
1716551465455413579;0;0;-153;0;0;0;75;77;10;0;77;136.20;45;4.00;-3.00;-1001.00
1716551465557359933;0;0;-153;0;0;0;75;77;10;0;77;136.18;45;2.00;-3.00;-1001.00
1716551465661094903;0;0;-153;0;0;0;75;77;10;0;77;136.15;45;0.00;-3.00;-1000.00
1716551465761503219;0;0;-153;0;0;0;75;77;10;0;77;136.14;45;2.00;-3.00;-1000.00
1716551465863673925;0;0;-153;0;0;0;75;77;10;0;77;136.19;45;1.00;-2.00;-1002.00
1716551465965608596;0;0;-153;0;0;0;75;77;10;0;77;136.20;45;2.00;-2.00;-1002.00
1716551466067754745;0;0;-153;0;0;0;75;77;10;0;77;136.19;45;1.00;-4.00;-1000.00
1716551466169538736;0;0;-153;0;0;0;74;77;10;0;77;136.20;45;1.00;-2.00;-997.00
1716551466272767066;0;0;-153;0;0;0;74;77;10;0;77;136.16;45;2.00;-3.00;-999.00
1716551466377255439;0;0;-153;0;0;0;74;77;10;0;77;136.17;45;2.00;-3.00;-1000.00
1716551466478912115;0;0;-153;0;0;0;74;77;10;0;77;136.15;45;2.00;-3.00;-1000.00
1716551466581466913;0;0;-153;0;0;0;74;77;10;0;77;136.16;45;1.00;-4.00;-1002.00
1716551466679205417;0;0;-153;0;0;0;74;77;10;0;77;136.20;45;2.00;-3.00;-1000.00
1716551466784601449;0;0;-153;0;0;0;74;77;10;0;77;136.14;45;1.00;-2.00;-1001.00
1716551466883385181;0;0;-153;0;0;0;74;77;10;0;77;136.21;45;1.00;-5.00;-1001.00
1716551466991404294;0;0;-153;0;0;0;74;77;10;0;77;136.18;45;1.00;-2.00;-999.00
1716551467087421178;0;0;-153;0;0;0;74;77;10;0;77;136.13;45;1.00;-2.00;-998.00
1716551467189354181;0;0;-153;0;0;0;75;77;10;0;77;136.10;45;0.00;-4.00;-1001.00
1716551467291534185;0;0;-153;0;0;0;75;77;10;0;77;136.12;45;2.00;-4.00;-998.00
1716551467393144845;0;0;-153;0;0;0;75;77;10;0;77;136.11;45;2.00;-3.00;-1002.00
1716551467495469808;0;0;-153;0;0;0;75;77;10;0;77;136.13;45;1.00;-3.00;-1000.00
1716551467598640918;0;0;-153;0;0;0;75;77;10;0;77;136.19;45;0.00;-3.00;-1000.00
1716551467703093767;0;0;-153;0;0;0;75;77;10;0;77;136.11;45;2.00;-3.00;-998.00
1716551467802875280;0;0;-153;0;0;0;75;77;10;0;77;136.13;45;0.00;-2.00;-998.00
1716551467905385255;0;0;-153;0;0;0;75;77;10;0;77;136.16;45;2.00;-4.00;-1000.00
1716551468012607574;0;0;-153;0;0;0;75;77;10;0;77;136.17;45;0.00;-3.00;-1000.00
1716551468113318443;0;0;-153;0;0;0;75;77;10;0;77;136.17;45;1.00;-3.00;-999.00
1716551468218207597;0;0;-153;0;0;0;75;78;10;0;77;136.18;45;0.00;-2.00;-998.00
1716551468315887212;0;0;-153;0;0;0;75;78;10;0;77;136.17;45;0.00;-2.00;-999.00
1716551468416387557;0;0;-153;0;0;0;75;78;10;0;77;136.16;45;2.00;-4.00;-1002.00
1716551468518472433;0;0;-153;0;0;0;75;78;10;0;77;136.13;45;2.00;-2.00;-1001.00
1716551468569965124;0;0;-153;0;0;0;75;78;10;0;77;136.16;45;1.00;-3.00;-1001.00
1716551468671419143;0;0;-153;0;0;0;75;78;10;0;77;136.12;45;1.00;-2.00;-997.00
1716551468774297952;0;0;-153;0;0;0;75;78;10;0;77;136.20;45;2.00;-3.00;-995.00
1716551468878983974;0;0;-153;0;0;0;75;78;10;0;77;136.18;45;2.00;-1.00;-1000.00
1716551468979082345;0;0;-153;0;0;0;75;78;10;0;77;136.24;45;1.00;-4.00;-1000.00
1716551469083022356;0;0;-153;0;0;0;75;78;10;0;77;136.21;45;1.00;-2.00;-1001.00
1716551469182491540;0;0;-153;0;0;0;76;78;10;0;77;136.17;45;1.00;-4.00;-999.00
1716551469285463094;0;0;-153;0;0;0;76;78;10;0;77;136.20;45;3.00;-2.00;-1000.00
1716551469389512300;0;0;-153;0;0;0;76;78;10;0;77;136.22;45;0.00;-4.00;-1003.00
1716551469488415718;0;0;-153;0;0;0;76;78;10;0;77;136.26;45;1.00;-2.00;-1000.00
1716551469592081069;0;0;-153;0;0;0;76;78;10;0;77;136.22;45;3.00;-2.00;-1001.00
1716551469693063020;0;0;-153;0;0;0;76;78;10;0;77;136.19;45;1.00;-5.00;-996.00
1716551469795082807;0;0;-153;0;0;0;76;78;10;0;77;136.21;45;1.00;-3.00;-1000.00
1716551469897312402;0;0;-153;0;0;0;76;78;10;0;77;136.21;45;2.00;-2.00;-1001.00
1716551469999428033;0;0;-153;0;0;0;76;78;10;0;77;136.22;45;2.00;-1.00;-999.00
1716551470101482868;0;0;-153;0;0;0;76;78;10;0;77;136.21;45;1.00;-2.00;-1002.00
1716551470203314781;0;0;-153;0;0;0;76;78;10;0;77;136.22;45;1.00;-3.00;-999.00
1716551470307457208;0;0;-153;0;0;0;76;78;10;0;77;136.22;45;1.00;-3.00;-1001.00
1716551470411367177;0;0;-153;0;0;0;76;78;10;0;77;136.21;45;2.00;-4.00;-1003.00
1716551470512118101;0;0;-153;0;0;0;76;78;10;0;77;136.22;45;2.00;-3.00;-999.00
1716551470613914012;0;0;-153;0;0;0;76;78;10;0;77;136.24;45;2.00;-3.00;-999.00
1716551470716185331;0;0;-153;0;0;0;76;78;10;0;77;136.24;45;2.00;-3.00;-999.00
1716551470815485239;0;0;-153;0;0;0;76;78;10;0;77;136.25;45;0.00;-3.00;-997.00
1716551470917289018;0;0;-153;0;0;0;76;78;10;0;77;136.23;45;1.00;-3.00;-1001.00
1716551471019247055;0;0;-153;0;0;0;76;78;10;0;77;136.26;45;3.00;-1.00;-1000.00
1716551471121352910;0;0;-153;0;0;0;76;78;10;0;77;136.25;45;2.00;-4.00;-999.00
1716551471223677396;0;0;-153;0;0;0;76;78;10;0;77;136.25;45;2.00;-4.00;-1001.00
1716551471326777696;0;0;-153;0;0;0;76;78;10;0;77;136.27;45;1.00;-2.00;-1000.00
1716551471427055835;0;0;-153;0;0;0;76;78;10;0;77;136.24;45;2.00;-3.00;-999.00
1716551471529690980;0;0;-153;0;0;0;76;78;10;0;77;136.30;45;1.00;-4.00;-1001.00
1716551471581808567;0;0;-153;0;0;0;76;78;10;0;77;136.31;45;2.00;-1.00;-1000.00
1716551471682231664;0;0;-153;0;0;0;76;78;10;0;77;136.31;45;2.00;-1.00;-999.00
1716551471785698652;0;0;-153;0;0;0;76;78;10;0;77;136.28;45;1.00;-3.00;-1003.00
1716551471886332273;0;0;-153;0;0;0;76;78;10;0;77;136.29;45;1.00;-3.00;-999.00
1716551471988208055;0;0;-153;0;0;0;76;78;10;0;77;136.36;45;1.00;-2.00;-997.00
1716551472090476989;0;0;-153;0;0;0;76;78;10;0;77;136.36;45;2.00;-2.00;-1001.00
1716551472192816495;0;0;-153;0;0;0;76;78;10;0;77;136.36;45;2.00;-3.00;-999.00
1716551472294156074;0;0;-153;0;0;0;76;78;10;0;77;136.34;45;1.00;-4.00;-999.00
1716551472396472215;0;0;-153;0;0;0;76;78;10;0;77;136.34;45;1.00;-1.00;-999.00
1716551472499876499;0;0;-153;0;0;0;76;78;10;0;77;136.34;45;2.00;-3.00;-997.00
1716551472600665330;0;0;-153;0;0;0;76;78;10;0;77;136.32;45;2.00;-1.00;-998.00
1716551472702239513;0;0;-153;0;0;0;76;78;10;0;77;136.37;45;2.00;-2.00;-1000.00
1716551472805675745;0;0;-153;0;0;0;76;78;10;0;77;136.36;45;0.00;-4.00;-1001.00
1716551472909873723;0;0;-153;0;0;0;76;78;10;0;77;136.33;45;1.00;-3.00;-998.00
1716551473016021251;0;0;-153;0;0;0;76;78;10;0;77;136.39;45;2.00;-2.00;-1001.00
1716551473114472150;0;0;-153;0;0;0;76;78;10;0;77;136.36;45;3.00;-2.00;-998.00
1716551473213445425;0;0;-153;0;0;0;76;78;10;0;77;136.43;45;1.00;-2.00;-999.00
1716551473315630197;0;0;-153;0;0;0;76;78;10;0;77;136.38;45;2.00;-2.00;-997.00
1716551473417113304;0;0;-153;0;0;0;76;78;10;0;77;136.36;45;1.00;-3.00;-1000.00
1716551473519708156;0;0;-153;0;0;0;76;78;10;0;77;136.40;45;1.00;-2.00;-1002.00
1716551473621113538;0;0;-153;0;0;0;76;78;10;0;77;136.38;45;0.00;-4.00;-999.00
1716551473725247144;0;0;-153;0;0;0;76;78;10;0;77;136.38;45;1.00;-3.00;-998.00
1716551473826967000;0;0;-153;0;0;0;76;78;10;0;77;136.38;45;1.00;-4.00;-1001.00
1716551473927143573;0;0;-153;0;0;0;76;78;10;0;77;136.38;45;1.00;-3.00;-1000.00
1716551474029446363;0;0;-153;0;0;0;76;78;10;0;77;136.34;45;1.00;-2.00;-999.00
1716551474133149862;0;0;-153;0;0;0;76;78;10;0;77;136.35;45;1.00;-3.00;-999.00
1716551474234381914;0;0;-153;0;0;0;76;79;10;0;77;136.30;45;2.00;-3.00;-999.00
1716551474336421966;0;0;-153;0;0;0;76;79;10;0;77;136.32;45;1.00;-3.00;-999.00
1716551474441608190;0;0;-153;0;0;0;76;79;10;0;77;136.30;45;2.00;-4.00;-999.00
1716551474545314550;0;0;-153;0;0;0;76;79;10;0;77;136.34;45;2.00;-2.00;-998.00
1716551474646419286;0;0;-153;0;0;0;76;79;10;0;77;136.28;45;2.00;-3.00;-1002.00
1716551474747827291;0;0;-153;0;0;0;76;79;10;0;77;136.34;45;2.00;-4.00;-1000.00
1716551474851224422;0;0;-153;0;0;0;76;79;10;0;77;136.33;45;1.00;-4.00;-1000.00
1716551474898182392;0;0;-153;0;0;0;76;79;10;0;77;136.29;45;0.00;-5.00;-1000.00
1716551475002370119;0;0;-153;0;0;0;76;79;10;0;77;136.34;45;2.00;-2.00;-999.00
1716551475101995468;0;0;-153;0;0;0;76;79;10;0;77;136.33;45;1.00;-3.00;-999.00
1716551475206109285;0;0;-153;0;0;0;76;78;10;0;77;136.37;45;1.00;-2.00;-996.00
1716551475309076547;0;0;-153;0;0;0;76;78;10;0;77;136.35;45;2.00;-2.00;-1000.00
1716551475411440849;0;0;-153;0;0;0;76;78;10;0;77;136.33;45;0.00;-2.00;-999.00
1716551475512362241;0;0;-153;0;0;0;76;78;10;0;77;136.35;45;1.00;-3.00;-1000.00
1716551475614175319;0;0;-153;0;0;0;76;78;10;0;77;136.33;45;1.00;-2.00;-998.00
1716551475715407133;0;0;-153;0;0;0;76;78;10;0;77;136.31;45;1.00;-2.00;-1000.00
1716551475817433834;0;0;-153;0;0;0;76;78;10;0;77;136.32;45;2.00;-4.00;-1001.00
1716551475920316219;0;0;-153;0;0;0;76;78;10;0;77;136.30;45;0.00;-3.00;-1000.00
1716551476021166563;0;0;-153;0;0;0;76;78;10;0;77;136.32;45;1.00;-3.00;-1001.00
1716551476123067855;0;0;-153;0;0;0;76;78;10;0;77;136.34;45;2.00;-4.00;-999.00
1716551476224901914;0;0;-153;0;0;0;77;79;10;0;77;136.30;45;1.00;-2.00;-1001.00
1716551476328912019;0;0;-153;0;0;0;77;79;10;0;77;136.33;45;1.00;-3.00;-997.00
1716551476429024934;0;0;-153;0;0;0;77;79;10;0;77;136.26;45;3.00;-3.00;-998.00
1716551476531039237;0;0;-153;0;0;0;77;79;10;0;77;136.28;45;2.00;-2.00;-998.00
1716551476634521961;0;0;-153;0;0;0;77;79;10;0;77;136.29;45;1.00;-5.00;-998.00
1716551476735180854;0;0;-153;0;0;0;77;79;10;0;77;136.30;45;1.00;-4.00;-998.00
1716551476836964130;0;0;-153;0;0;0;77;79;10;0;77;136.31;45;2.00;-2.00;-1002.00
1716551476940321207;0;0;-153;0;0;0;77;79;10;0;77;136.33;45;1.00;-3.00;-1000.00
1716551477043165445;0;0;-153;0;0;0;77;79;10;0;77;136.28;45;0.00;-2.00;-1000.00
1716551477144565343;0;0;-153;0;0;0;77;79;10;0;77;136.31;45;2.00;-2.00;-1000.00
1716551477247604370;0;0;-153;0;0;0;77;79;10;0;77;136.37;45;2.00;-4.00;-1000.00
1716551477348337888;0;0;-153;0;0;0;77;79;10;0;77;136.29;45;1.00;-4.00;-1001.00
1716551477448804378;0;0;-153;0;0;0;77;79;10;0;77;136.34;45;1.00;-3.00;-1000.00
1716551477550954580;0;0;-153;0;0;0;77;79;10;0;77;136.29;45;0.00;-2.00;-998.00
1716551477656908035;0;0;-153;0;0;0;77;79;10;0;77;136.36;45;0.00;-2.00;-999.00
1716551477754809141;0;0;-153;0;0;0;77;79;10;0;77;136.33;45;0.00;-3.00;-1000.00
1716551477858345031;0;0;-153;0;0;0;77;79;10;0;77;136.38;45;0.00;-4.00;-1001.00
1716551477959071397;0;0;-153;0;0;0;77;79;10;0;77;136.33;45;0.00;-2.00;-999.00
1716551478010079145;0;0;-153;0;0;0;77;79;10;0;77;136.30;45;2.00;-3.00;-1000.00
1716551478113368749;0;0;-153;0;0;0;77;79;10;0;77;136.39;45;1.00;-2.00;-999.00
1716551478265295028;0;0;-153;0;0;0;77;80;10;0;77;136.30;45;1.00;-4.00;-999.00
1716551478366924762;0;0;-153;0;0;0;77;80;10;0;77;136.30;45;2.00;-4.00;-1000.00
1716551478418238878;0;0;-153;0;0;0;77;80;10;0;77;136.38;45;2.00;-3.00;-1000.00
1716551478520087003;0;0;-153;0;0;0;77;80;10;0;77;136.40;45;1.00;-3.00;-1000.00
1716551478625483036;0;0;-153;0;0;0;77;80;10;0;77;136.29;45;0.00;-3.00;-1001.00
1716551478724984884;0;0;-153;0;0;0;77;80;10;0;77;136.39;45;3.00;-5.00;-998.00
1716551478828477382;0;0;-153;0;0;0;77;80;10;0;77;136.35;45;1.00;-3.00;-1001.00
1716551478928055763;0;0;-153;0;0;0;77;80;10;0;77;136.37;45;2.00;-4.00;-1000.00
1716551479030048370;0;0;-153;0;0;0;77;80;10;0;77;136.36;45;2.00;-2.00;-997.00
1716551479132809638;0;0;-153;0;0;0;77;80;10;0;77;136.33;45;1.00;-2.00;-1000.00
1716551479234428644;0;0;-153;0;0;0;76;79;10;0;77;136.36;45;1.00;-3.00;-1000.00
1716551479336069822;0;0;-153;0;0;0;76;79;10;0;77;136.35;45;2.00;-3.00;-1000.00
1716551479442281723;0;0;-153;0;0;0;76;79;10;0;77;136.36;45;1.00;-2.00;-1000.00
1716551479546254158;0;0;-153;0;0;0;76;79;10;0;77;136.36;45;0.00;-3.00;-1001.00
1716551479645884752;0;0;-153;0;0;0;76;79;10;0;77;136.38;45;2.00;-4.00;-997.00
1716551479746694087;0;0;-153;0;0;0;76;79;10;0;77;136.34;45;3.00;-3.00;-998.00
1716551479846650838;0;0;-153;0;0;0;76;79;10;0;77;136.37;45;1.00;-4.00;-999.00
1716551479947965860;0;0;-153;0;0;0;76;79;10;0;77;136.40;45;1.00;-4.00;-999.00
1716551480051559209;0;0;-153;0;0;0;76;79;10;0;77;136.36;45;3.00;-3.00;-1000.00
1716551480152745008;0;0;-153;0;0;0;76;79;10;0;77;136.36;45;1.00;-3.00;-999.00
1716551480254753589;0;0;-153;0;0;0;76;79;10;0;77;136.37;45;2.00;-2.00;-998.00
1716551480356891393;0;0;-153;0;0;0;76;79;10;0;77;136.31;45;1.00;-3.00;-1000.00
1716551480458782196;0;0;-153;0;0;0;76;79;10;0;77;136.31;45;1.00;-3.00;-1000.00
1716551480561041831;0;0;-153;0;0;0;76;79;10;0;77;136.34;45;1.00;-3.00;-1001.00
1716551480665696859;0;0;-153;0;0;0;76;79;10;0;77;136.33;45;2.00;-2.00;-998.00
1716551480766057014;0;0;-153;0;0;0;76;79;10;0;77;136.40;45;0.00;-2.00;-999.00
1716551480866921663;0;0;-153;0;0;0;76;79;10;0;77;136.34;45;0.00;-2.00;-1001.00
1716551480969027042;0;0;-153;0;0;0;76;79;10;0;77;136.34;45;0.00;-2.00;-999.00
1716551481071906328;0;0;-153;0;0;0;76;79;10;0;77;136.36;45;1.00;-3.00;-1001.00
1716551481176489353;0;0;-153;0;0;0;76;79;10;0;77;136.34;45;1.00;-4.00;-1000.00
