timestampns;pitch;roll;yaw;vgx;vgy;vgz;templ;temph;tof;h;bat;baro;time;agx;agy;agz;
1716382683747194528;0;0;0;0;0;0;64;67;10;0;91;195.65;0;1.00;-4.00;-998.00
1716382683853035688;0;0;0;0;0;0;64;67;10;0;91;195.65;0;0.00;-6.00;-1000.00
1716382683950904369;0;0;0;0;0;0;64;67;10;0;91;195.59;0;0.00;-4.00;-999.00
1716382684054270267;0;0;0;0;0;0;64;67;10;0;91;195.61;0;0.00;-6.00;-1001.00
1716382684154330015;0;0;0;0;0;0;64;67;10;0;91;195.64;0;0.00;-7.00;-999.00
1716382684257898330;0;0;0;0;0;0;64;67;10;0;91;195.62;0;0.00;-4.00;-998.00
1716382684358642101;0;0;0;0;0;0;64;67;10;0;91;195.63;0;0.00;-4.00;-998.00
1716382684460369586;0;0;0;0;0;0;64;67;10;0;91;195.63;0;0.00;-7.00;-998.00
1716382684511318683;0;0;0;0;0;0;65;67;10;0;91;195.67;0;1.00;-5.00;-997.00
1716382684613971948;0;0;0;0;0;0;65;67;10;0;90;195.68;0;0.00;-5.00;-999.00
1716382684715698719;0;0;0;0;0;0;65;67;10;0;90;195.70;0;0.00;-6.00;-996.00
1716382684817390680;0;0;0;0;0;0;65;67;10;0;90;195.68;0;0.00;-5.00;-999.00
1716382684920189380;0;0;0;0;0;0;65;67;10;0;90;195.68;0;1.00;-5.00;-1001.00
1716382685021491050;0;0;0;0;0;0;65;67;10;0;90;195.65;0;0.00;-6.00;-1000.00
1716382685127505064;0;0;0;0;0;0;65;67;10;0;90;195.71;0;0.00;-6.00;-998.00
1716382685225469589;0;0;0;0;0;0;65;67;10;0;90;195.77;0;0.00;-6.00;-1000.00
1716382685327695369;0;0;0;0;0;0;65;67;10;0;90;195.67;0;0.00;-5.00;-999.00
1716382685431515216;0;0;0;0;0;0;65;67;10;0;90;195.69;0;1.00;-8.00;-997.00
1716382685537576913;0;0;0;0;0;0;65;67;10;0;90;195.68;0;0.00;-5.00;-998.00
1716382685641158819;0;0;0;0;0;0;65;67;10;0;90;195.67;0;0.00;-6.00;-999.00
1716382685741001367;0;0;0;0;0;0;65;67;10;0;90;195.64;0;0.00;-5.00;-1001.00
1716382685839461803;0;0;0;0;0;0;65;67;10;0;90;195.68;0;1.00;-6.00;-999.00
1716382685941943883;0;0;0;0;0;0;65;67;10;0;90;195.70;0;0.00;-4.00;-998.00
1716382686045926570;0;0;0;0;0;0;65;67;10;0;90;195.69;0;-1.00;-5.00;-1000.00
1716382686145855903;0;0;0;0;0;0;65;67;10;0;90;195.73;0;0.00;-7.00;-998.00
1716382686250716209;0;0;0;0;0;0;65;67;10;0;90;195.71;0;1.00;-5.00;-999.00
1716382686348218202;0;0;0;0;0;0;65;67;10;0;90;195.71;0;-1.00;-6.00;-999.00
1716382686449543714;0;0;0;0;0;0;65;67;10;0;90;195.68;0;0.00;-6.00;-998.00
1716382686554031133;0;0;0;0;0;0;65;67;10;0;90;195.67;0;0.00;-5.00;-997.00
1716382686654984235;0;0;0;0;0;0;65;67;10;0;90;195.70;0;1.00;-5.00;-997.00
1716382686755876779;0;0;0;0;0;0;65;67;10;0;90;195.71;0;1.00;-6.00;-998.00
1716382686857635021;0;0;0;0;0;0;65;67;10;0;90;195.69;0;0.00;-4.00;-999.00
1716382686962896823;0;0;0;0;0;0;65;67;10;0;90;195.72;0;0.00;-6.00;-996.00
1716382687017731428;0;0;0;0;0;0;65;67;10;0;90;195.65;0;0.00;-6.00;-1002.00
1716382687113536834;0;0;0;0;0;0;65;67;10;0;90;195.71;0;0.00;-5.00;-998.00
1716382687214990139;0;0;0;0;0;0;65;67;10;0;90;195.70;0;1.00;-4.00;-1000.00
1716382687326180458;0;0;0;0;0;0;65;67;10;0;90;195.68;0;0.00;-5.00;-1001.00
1716382687419946193;0;0;0;0;0;0;65;67;10;0;90;195.70;0;0.00;-6.00;-1000.00
1716382687521343946;0;0;0;0;0;0;65;67;10;0;90;195.69;0;1.00;-4.00;-997.00
1716382687625469923;0;0;0;0;0;0;65;67;10;0;90;195.68;0;0.00;-5.00;-998.00
1716382687725337266;0;0;0;0;0;0;65;67;10;0;90;195.72;0;1.00;-6.00;-999.00
1716382687828325986;0;0;0;0;0;0;65;67;10;0;90;195.70;0;0.00;-6.00;-1002.00
1716382687930662393;0;0;0;0;0;0;65;67;10;0;90;195.70;0;0.00;-5.00;-998.00
1716382688030550241;0;0;0;0;0;0;65;67;10;0;90;195.70;0;0.00;-5.00;-999.00
1716382688140105009;0;0;0;0;0;0;65;67;10;0;90;195.67;0;0.00;-6.00;-996.00
1716382688237416982;0;0;0;0;0;0;65;67;10;0;90;195.65;0;0.00;-6.00;-1001.00
1716382688340528488;0;0;0;0;0;0;65;67;10;0;90;195.71;0;1.00;-6.00;-998.00
1716382688450639009;0;0;0;0;0;0;65;67;10;0;90;195.69;0;-1.00;-6.00;-997.00
1716382688556451082;0;0;0;0;0;0;65;67;10;0;90;195.71;0;1.00;-4.00;-997.00
1716382688654319763;0;0;0;0;0;0;65;67;10;0;90;195.65;0;1.00;-4.00;-1001.00
1716382688754333972;0;0;0;0;0;0;65;67;10;0;90;195.67;0;0.00;-5.00;-1000.00
1716382688872182369;0;0;0;0;0;0;65;67;10;0;90;195.68;0;0.00;-5.00;-999.00
1716382688980775117;0;0;0;0;0;0;65;67;10;0;90;195.68;0;1.00;-6.00;-999.00
1716382689027070045;0;0;0;0;0;0;65;67;10;0;90;195.67;0;1.00;-6.00;-1000.00
1716382689120064020;0;0;0;0;0;0;65;67;10;0;90;195.66;0;1.00;-6.00;-997.00
1716382689217624664;0;0;0;0;0;0;65;67;10;0;90;195.65;0;0.00;-5.00;-1000.00
1716382689324433088;0;0;0;0;0;0;65;67;10;0;90;195.66;0;0.00;-4.00;-997.00
1716382689422479152;0;0;0;0;0;0;65;67;10;0;90;195.68;0;0.00;-5.00;-1000.00
1716382689523635625;0;0;0;0;0;0;65;67;10;0;90;195.62;0;0.00;-5.00;-1000.00
1716382689626413106;0;0;0;0;0;0;65;67;10;0;90;195.67;0;0.00;-5.00;-998.00
1716382689727924823;0;0;0;0;0;0;65;67;10;0;90;195.65;0;1.00;-6.00;-998.00
1716382689829639673;0;0;0;0;0;0;65;67;10;0;90;195.64;0;0.00;-5.00;-1000.00
1716382689933474540;0;0;0;0;0;0;65;67;10;0;90;195.68;0;1.00;-3.00;-1001.00
1716382690039383411;0;0;0;0;0;0;65;67;10;0;90;195.66;0;0.00;-4.00;-998.00
1716382690140714168;0;0;0;0;0;0;65;67;10;0;90;195.64;0;0.00;-5.00;-1002.00
1716382690243523836;0;0;0;0;0;0;65;67;10;0;90;195.65;0;0.00;-6.00;-998.00
1716382690340559720;0;0;0;0;0;0;65;67;10;0;90;195.66;0;0.00;-6.00;-998.00
1716382690443284511;0;0;0;0;0;0;65;67;10;0;90;195.61;0;0.00;-6.00;-999.00
1716382690544533252;0;0;0;0;0;0;65;67;10;0;90;195.64;0;0.00;-6.00;-1000.00
1716382690650273561;0;0;0;0;0;0;65;67;10;0;90;195.66;0;0.00;-5.00;-1000.00
1716382690749511003;0;0;0;0;0;0;65;67;10;0;90;195.63;0;1.00;-4.00;-999.00
1716382690850857257;0;0;0;0;0;0;65;67;10;0;90;195.68;0;0.00;-4.00;-1003.00
1716382690954533338;0;0;0;0;0;0;65;67;10;0;90;195.57;0;0.00;-6.00;-1001.00
1716382691054424285;0;0;0;0;0;0;65;67;10;0;90;195.67;0;0.00;-5.00;-1001.00
1716382691159314155;0;0;0;0;0;0;65;67;10;0;90;195.59;0;0.00;-5.00;-998.00
1716382691259181976;0;0;0;0;0;0;65;67;10;0;90;195.59;0;0.00;-5.00;-1001.00
1716382691360434293;0;0;0;0;0;0;65;67;10;0;90;195.57;0;0.00;-5.00;-999.00
1716382691411632061;0;0;0;0;0;0;65;67;10;0;90;195.51;0;1.00;-4.00;-998.00
1716382691516151189;0;0;0;0;0;0;66;67;10;0;90;195.57;0;0.00;-5.00;-1000.00
1716382691616017580;0;0;0;0;0;0;66;67;10;0;90;195.57;0;0.00;-4.00;-997.00
1716382691717250823;0;0;0;0;0;0;66;67;10;0;90;195.50;0;1.00;-5.00;-997.00
1716382691819533348;0;0;0;0;0;0;66;67;10;0;90;195.48;0;1.00;-5.00;-1000.00
1716382691922113180;0;0;0;0;0;0;66;67;10;0;90;195.48;0;1.00;-5.00;-998.00
1716382692028081178;0;0;0;0;0;0;66;67;10;0;90;195.50;0;1.00;-5.00;-1001.00
1716382692126780748;0;0;0;0;0;0;66;67;10;0;90;195.51;0;0.00;-5.00;-999.00
1716382692234794378;0;0;0;0;0;0;66;67;10;0;90;195.42;0;1.00;-5.00;-999.00
1716382692329286575;0;0;0;0;0;0;66;67;10;0;90;195.45;0;1.00;-5.00;-1000.00
1716382692433912277;0;0;0;0;0;0;66;67;10;0;90;195.50;0;0.00;-4.00;-1001.00
1716382692540832042;0;0;0;0;0;0;66;68;10;0;90;195.47;0;0.00;-5.00;-1001.00
1716382692643986701;0;0;0;0;0;0;66;68;10;0;90;195.44;0;0.00;-4.00;-999.00
1716382692743024110;0;0;0;0;0;0;66;68;10;0;90;195.43;0;1.00;-4.00;-999.00
1716382692849579095;0;0;0;0;0;0;66;68;10;0;90;195.45;0;0.00;-6.00;-997.00
1716382692942619800;0;0;0;0;0;0;66;68;10;0;90;195.43;0;1.00;-5.00;-997.00
1716382693047160387;0;0;0;0;0;0;66;68;10;0;90;195.40;0;0.00;-6.00;-1000.00
1716382693152000427;0;0;0;0;0;0;66;68;10;0;90;195.45;0;1.00;-4.00;-999.00
1716382693248384714;0;0;0;0;0;0;66;68;10;0;90;195.37;0;0.00;-5.00;-1000.00
1716382693361014842;0;0;0;0;0;0;66;68;10;0;90;195.39;0;1.00;-4.00;-1001.00
1716382693454117298;0;0;0;0;0;0;66;68;10;0;90;195.44;0;1.00;-5.00;-1002.00
1716382693556954860;0;0;0;0;0;0;66;68;10;0;90;195.43;0;1.00;-4.00;-1000.00
1716382693660518169;0;0;0;0;0;0;66;68;10;0;90;195.42;0;0.00;-5.00;-1000.00
1716382693758446931;0;0;0;0;0;0;66;68;10;0;90;195.44;0;0.00;-4.00;-998.00
1716382693862442493;0;0;0;0;0;0;66;68;10;0;90;195.49;0;0.00;-6.00;-997.00
1716382693915162086;0;0;0;0;0;0;66;68;10;0;90;195.44;0;0.00;-5.00;-1000.00
1716382694015517950;0;0;0;0;0;0;66;68;10;0;90;195.44;0;0.00;-4.00;-1001.00
1716382694117524147;0;0;0;0;0;0;66;68;10;0;90;195.43;0;1.00;-5.00;-1000.00
1716382694220464706;0;0;0;0;0;0;66;68;10;0;90;195.43;0;1.00;-6.00;-1001.00
1716382694325526475;0;0;0;0;0;0;66;68;10;0;90;195.46;0;0.00;-5.00;-999.00
1716382694421414852;0;0;0;0;0;0;66;68;10;0;90;195.45;0;1.00;-3.00;-1000.00
1716382694524114847;0;0;0;0;0;0;66;68;10;0;90;195.47;0;1.00;-4.00;-1000.00
1716382694625441312;0;0;0;0;0;0;66;68;10;0;90;195.42;0;0.00;-4.00;-1000.00
1716382694727860689;0;0;0;0;0;0;66;68;10;0;90;195.40;0;0.00;-3.00;-1001.00
1716382694831419944;0;0;0;0;0;0;66;68;10;0;90;195.46;0;0.00;-5.00;-1002.00
1716382694946337938;0;0;0;0;0;0;66;68;10;0;90;195.53;0;0.00;-5.00;-998.00
1716382695045633554;0;0;0;0;0;0;66;68;10;0;90;195.50;0;0.00;-5.00;-999.00
1716382695144899368;0;0;0;0;0;0;66;68;10;0;90;195.44;0;0.00;-4.00;-999.00
1716382695245818853;0;0;0;0;0;0;66;68;10;0;90;195.42;0;0.00;-4.00;-1001.00
1716382695340102195;0;0;0;0;0;0;66;68;10;0;90;195.43;0;0.00;-4.00;-1001.00
1716382695446789264;0;0;0;0;0;0;66;68;10;0;90;195.48;0;0.00;-7.00;-1001.00
1716382695543311357;0;0;0;0;0;0;67;68;10;0;90;195.51;0;0.00;-6.00;-1001.00
1716382695646139383;0;0;0;0;0;0;67;68;10;0;90;195.41;0;-1.00;-3.00;-999.00
1716382695747736215;0;0;0;0;0;0;67;68;10;0;90;195.42;0;0.00;-5.00;-999.00
1716382695851007223;0;0;0;0;0;0;67;68;10;0;90;195.50;0;0.00;-4.00;-998.00
1716382695951876640;0;0;0;0;0;0;67;68;10;0;90;195.47;0;0.00;-4.00;-1000.00
1716382696054449319;0;0;0;0;0;0;67;68;10;0;90;195.43;0;0.00;-6.00;-998.00
1716382696155571460;0;0;0;0;0;0;67;68;10;0;90;195.43;0;0.00;-5.00;-999.00
1716382696257395029;0;0;0;0;0;0;67;68;10;0;90;195.42;0;0.00;-4.00;-1001.00
1716382696359482288;0;0;0;0;0;0;67;68;10;0;90;195.41;0;0.00;-5.00;-998.00
1716382696461326599;0;0;0;0;0;0;67;68;10;0;90;195.39;0;0.00;-4.00;-1002.00
1716382696564435005;0;0;0;0;0;0;66;68;10;0;90;195.39;0;1.00;-4.00;-999.00
1716382696669467687;0;0;0;0;0;0;66;68;10;0;90;195.38;0;1.00;-5.00;-997.00
1716382696777413368;0;0;0;0;0;0;66;68;10;0;90;195.41;0;0.00;-5.00;-1001.00
1716382696824084281;0;0;0;0;0;0;66;68;10;0;90;195.42;0;0.00;-5.00;-1000.00
1716382696925738096;0;0;0;0;0;0;66;68;10;0;90;195.41;0;0.00;-5.00;-998.00
1716382697028619050;0;0;0;0;0;0;66;68;10;0;90;195.43;0;0.00;-5.00;-999.00
1716382697129085779;0;0;0;0;0;0;66;68;10;0;90;195.43;0;0.00;-6.00;-997.00
1716382697230192184;0;0;0;0;0;0;66;68;10;0;90;195.41;0;1.00;-4.00;-997.00
1716382697339452266;0;0;0;0;0;0;66;68;10;0;90;195.36;0;0.00;-5.00;-998.00
1716382697437429189;0;0;0;0;0;0;66;68;10;0;90;195.37;0;0.00;-5.00;-997.00
1716382697538887977;0;0;0;0;0;0;67;68;10;0;90;195.40;0;0.00;-5.00;-1000.00
1716382697649989843;0;0;0;0;0;0;67;68;10;0;90;195.37;0;1.00;-6.00;-998.00
1716382697747471332;0;0;0;0;0;0;67;68;10;0;90;195.36;0;0.00;-4.00;-998.00
1716382697862432241;0;0;0;0;0;0;67;68;10;0;90;195.37;0;0.00;-5.00;-1001.00
1716382697953760623;0;0;0;0;0;0;67;68;10;0;90;195.35;0;0.00;-3.00;-1000.00
1716382698047116518;0;0;0;0;0;0;67;68;10;0;90;195.37;0;1.00;-5.00;-999.00
1716382698147863864;0;0;0;0;0;0;67;68;10;0;90;195.39;0;-1.00;-4.00;-1001.00
1716382698249397277;0;0;0;0;0;0;67;68;10;0;90;195.36;0;0.00;-5.00;-999.00
1716382698353482246;0;0;0;0;0;0;67;68;10;0;90;195.35;0;0.00;-6.00;-1000.00
1716382698453504323;0;0;0;0;0;0;67;68;10;0;90;195.35;0;0.00;-4.00;-1000.00
1716382698555401325;0;0;0;0;0;0;67;69;10;0;90;195.42;0;0.00;-5.00;-1000.00
1716382698658243179;0;0;0;0;0;0;67;69;10;0;90;195.34;0;0.00;-5.00;-999.00
1716382698761092662;0;0;0;0;0;0;67;69;10;0;90;195.33;0;0.00;-3.00;-1000.00
1716382698861172914;0;0;0;0;0;0;67;69;10;0;90;195.35;0;1.00;-3.00;-999.00
1716382698963936567;0;0;0;0;0;0;67;69;10;0;90;195.39;0;-1.00;-5.00;-1000.00
1716382699065487861;0;0;0;0;0;0;67;69;10;0;90;195.38;0;0.00;-7.00;-998.00
1716382699170631647;0;0;0;0;0;0;67;69;10;0;90;195.38;0;0.00;-5.00;-1001.00
1716382699272033452;0;0;0;0;0;0;67;69;10;0;90;195.33;0;0.00;-4.00;-1001.00
1716382699373609304;0;0;0;0;0;0;67;69;10;0;90;195.29;0;0.00;-3.00;-999.00
1716382699481997966;0;0;0;0;0;0;67;69;10;0;90;195.36;0;0.00;-7.00;-998.00
1716382699576373815;0;0;0;0;0;0;67;69;10;0;90;195.39;0;0.00;-5.00;-997.00
1716382699687474966;0;0;0;0;0;0;67;69;10;0;90;195.37;0;0.00;-5.00;-1001.00
1716382699779623985;0;0;0;0;0;0;67;69;10;0;90;195.32;0;-1.00;-5.00;-998.00
1716382699881577253;0;0;0;0;0;0;67;69;10;0;90;195.32;0;-1.00;-6.00;-998.00
1716382699984216213;0;0;0;0;0;0;67;69;10;0;90;195.33;0;0.00;-4.00;-999.00
1716382700085587263;0;0;0;0;0;0;67;69;10;0;90;195.31;0;0.00;-7.00;-999.00
1716382700139020681;0;0;0;0;0;0;67;69;10;0;90;195.40;0;0.00;-2.00;-999.00
1716382700245290279;0;0;0;0;0;0;67;69;10;0;90;195.34;0;0.00;-4.00;-997.00
1716382700340387105;0;0;0;0;0;0;67;69;10;0;90;195.37;0;0.00;-5.00;-997.00
1716382700447109460;0;0;0;0;0;0;67;69;10;0;90;195.43;0;0.00;-4.00;-999.00
1716382700544445037;0;0;0;0;0;0;67;70;10;0;90;195.40;0;0.00;-5.00;-1002.00
1716382700646372795;0;0;0;0;0;0;67;70;10;0;90;195.33;0;-1.00;-6.00;-1000.00
1716382700749530553;0;0;0;0;0;0;67;70;10;0;90;195.40;0;0.00;-5.00;-1000.00
1716382700852217197;0;0;0;0;0;0;67;70;10;0;90;195.41;0;0.00;-4.00;-999.00
1716382700955428123;0;0;0;0;0;0;67;70;10;0;90;195.34;0;0.00;-5.00;-1000.00
1716382701056545734;0;0;0;0;0;0;67;70;10;0;90;195.40;0;0.00;-5.00;-998.00
1716382701157831668;0;0;0;0;0;0;67;70;10;0;90;195.32;0;0.00;-5.00;-998.00
1716382701259783267;0;0;0;0;0;0;67;70;10;0;90;195.33;0;0.00;-4.00;-1000.00
1716382701361248970;0;0;0;0;0;0;67;70;10;0;90;195.40;0;-1.00;-5.00;-1001.00
1716382701463881015;0;0;0;0;0;0;67;70;10;0;90;195.34;0;0.00;-6.00;-999.00
1716382701575209617;0;0;0;0;0;0;67;69;10;0;90;195.34;0;0.00;-4.00;-999.00
1716382701673937559;0;0;0;0;0;0;67;69;10;0;90;195.40;0;0.00;-5.00;-1001.00
1716382701770990133;0;0;0;0;0;0;67;69;10;0;90;195.31;0;0.00;-7.00;-999.00
1716382701875022411;0;0;0;0;0;0;67;69;10;0;90;195.40;0;0.00;-4.00;-1000.00
1716382701980914354;0;0;0;0;0;0;67;69;10;0;90;195.35;0;0.00;-3.00;-1000.00
1716382702081782817;0;0;0;0;0;0;67;69;10;0;90;195.32;0;0.00;-4.00;-997.00
1716382702178287982;0;0;0;0;0;0;67;69;10;0;90;195.38;0;0.00;-6.00;-999.00
1716382702281835556;0;0;0;0;0;0;67;69;10;0;90;195.42;0;0.00;-6.00;-999.00
1716382702382659673;0;0;0;0;0;0;67;69;10;0;90;195.40;0;0.00;-6.00;-1000.00
1716382702486578702;0;0;0;0;0;0;67;69;10;0;90;195.39;0;0.00;-5.00;-999.00
1716382702589215993;0;0;0;0;0;0;67;69;10;0;90;195.35;0;0.00;-4.00;-1001.00
1716382702688683748;0;0;0;0;0;0;67;69;10;0;90;195.40;0;1.00;-6.00;-1000.00
1716382702790516376;0;0;0;0;0;0;67;69;10;0;90;195.47;0;0.00;-4.00;-1000.00
1716382702899636030;0;0;0;0;0;0;67;69;10;0;90;195.44;0;0.00;-5.00;-1000.00
1716382702994409799;0;0;0;0;0;0;67;69;10;0;90;195.46;0;0.00;-4.00;-997.00
1716382703096328496;0;0;0;0;0;0;67;69;10;0;90;195.44;0;0.00;-5.00;-1001.00
1716382703205595970;0;0;0;0;0;0;67;69;10;0;90;195.47;0;1.00;-4.00;-1001.00
1716382703250785827;0;0;0;0;0;0;67;69;10;0;90;195.43;0;-2.00;-4.00;-1000.00
1716382703352274894;0;0;0;0;0;0;67;69;10;0;90;195.48;0;-1.00;-3.00;-999.00
1716382703457850694;0;0;0;0;0;0;67;69;10;0;90;195.43;0;0.00;-4.00;-1000.00
1716382703556337118;0;0;0;0;0;0;68;70;10;0;90;195.39;0;0.00;-7.00;-998.00
1716382703659804105;0;0;0;0;0;0;68;70;10;0;90;195.41;0;0.00;-5.00;-999.00
1716382703765010118;0;0;0;0;0;0;68;70;10;0;90;195.46;0;-1.00;-5.00;-998.00
1716382703868649482;0;0;0;0;0;0;68;70;10;0;90;195.47;0;0.00;-4.00;-1001.00
1716382703967282772;0;0;0;0;0;0;68;70;10;0;90;195.43;0;0.00;-5.00;-1000.00
1716382704071764945;0;0;0;0;0;0;68;70;10;0;90;195.44;0;0.00;-5.00;-999.00
1716382704188874006;0;0;0;0;0;0;68;70;10;0;90;195.46;0;0.00;-5.00;-999.00
1716382704271965980;0;0;0;0;0;0;68;70;10;0;90;195.48;0;0.00;-6.00;-1002.00
1716382704375375986;0;0;0;0;0;0;68;70;10;0;90;195.43;0;-1.00;-4.00;-999.00
1716382704478452205;0;0;0;0;0;0;68;70;10;0;90;195.40;0;-1.00;-4.00;-997.00
1716382704581003427;0;0;0;0;0;0;68;70;10;0;90;195.42;0;0.00;-5.00;-1001.00
1716382704683136940;0;0;0;0;0;0;68;70;10;0;90;195.33;0;0.00;-4.00;-998.00
1716382704783786535;0;0;0;0;0;0;68;70;10;0;90;195.41;0;0.00;-4.00;-1002.00
1716382704889288902;0;0;0;0;0;0;68;70;10;0;90;195.41;0;0.00;-5.00;-1000.00
1716382704991168260;0;0;0;0;0;0;68;70;10;0;90;195.40;0;0.00;-5.00;-996.00
1716382705092637300;0;0;0;0;0;0;68;70;10;0;90;195.44;0;-1.00;-5.00;-1000.00
1716382705202570438;0;0;0;0;0;0;68;70;10;0;90;195.39;0;0.00;-4.00;-997.00
1716382705296903133;0;0;0;0;0;0;68;70;10;0;90;195.43;0;0.00;-5.00;-999.00
1716382705396565675;0;0;0;0;0;0;68;70;10;0;90;195.42;0;0.00;-5.00;-998.00
1716382705504478931;0;0;0;0;0;0;68;70;10;0;90;195.35;0;-1.00;-5.00;-1001.00
1716382705604232788;0;0;0;0;0;0;68;70;10;0;90;195.38;0;0.00;-4.00;-996.00
1716382705705385923;0;0;0;0;0;0;68;70;10;0;90;195.40;0;0.00;-5.00;-999.00
1716382705813711166;0;0;0;0;0;0;68;70;10;0;90;195.39;0;-1.00;-4.00;-998.00
1716382705906074762;0;0;0;0;0;0;68;70;10;0;90;195.37;0;-1.00;-5.00;-997.00
1716382706022641658;0;0;0;0;0;0;68;70;10;0;90;195.37;0;-1.00;-5.00;-1000.00
1716382706119881629;0;0;0;0;0;0;68;70;10;0;90;195.33;0;0.00;-5.00;-998.00
1716382706212358236;0;0;0;0;0;0;68;70;10;0;90;195.39;0;0.00;-3.00;-999.00
1716382706316531658;0;0;0;0;0;0;68;70;10;0;90;195.38;0;0.00;-4.00;-1001.00
1716382706416545391;0;0;0;0;0;0;68;70;10;0;90;195.44;0;0.00;-4.00;-1000.00
1716382706521340131;0;0;0;0;0;0;68;70;10;0;90;195.46;0;0.00;-6.00;-998.00
1716382706620841503;0;0;0;0;0;0;68;71;10;0;90;195.40;0;0.00;-6.00;-997.00
1716382706676953315;0;0;0;0;0;0;68;71;10;0;90;195.48;0;-1.00;-3.00;-1001.00
1716382706775786399;0;0;0;0;0;0;68;71;10;0;90;195.45;0;0.00;-5.00;-999.00
1716382706878397703;0;0;0;0;0;0;68;71;10;0;90;195.48;0;0.00;-4.00;-999.00
1716382706978908061;0;0;0;0;0;0;68;71;10;0;90;195.43;0;1.00;-5.00;-1000.00
1716382707082289457;0;0;0;0;0;0;68;71;10;0;90;195.49;0;0.00;-5.00;-997.00
1716382707182157516;0;0;0;0;0;0;68;71;10;0;90;195.43;0;-2.00;-4.00;-1001.00
1716382707288619756;0;0;0;0;0;0;68;71;10;0;90;195.47;0;0.00;-5.00;-998.00
1716382707388685226;0;0;0;0;0;0;68;71;10;0;90;195.47;0;0.00;-4.00;-999.00
1716382707488173723;0;0;0;0;0;0;68;71;10;0;90;195.48;0;0.00;-5.00;-998.00
1716382707593459606;0;0;0;0;0;0;69;70;10;0;90;195.44;0;0.00;-4.00;-1000.00
1716382707694892406;0;0;0;0;0;0;69;70;10;0;90;195.44;0;0.00;-5.00;-996.00
1716382707795090675;0;0;0;0;0;0;69;70;10;0;90;195.48;0;-1.00;-5.00;-1000.00
1716382707897712707;0;0;0;0;0;0;69;70;10;0;90;195.50;0;0.00;-4.00;-999.00
1716382708003739356;0;0;0;0;0;0;69;70;10;0;90;195.54;0;0.00;-5.00;-999.00
1716382708113806962;0;0;0;0;0;0;69;70;10;0;90;195.47;0;0.00;-5.00;-999.00
1716382708205789327;0;0;0;0;0;0;69;70;10;0;90;195.58;0;-1.00;-4.00;-999.00
1716382708306789636;0;0;0;0;0;0;69;70;10;0;90;195.48;0;0.00;-4.00;-1000.00
1716382708422218084;0;0;0;0;0;0;69;70;10;0;90;195.49;0;1.00;-5.00;-1001.00
1716382708511210680;0;0;0;0;0;0;69;70;10;0;90;195.49;0;0.00;-5.00;-994.00
1716382708610723495;0;0;0;0;0;0;68;71;10;0;90;195.48;0;0.00;-4.00;-998.00
1716382708714382171;0;0;0;0;0;0;68;71;10;0;90;195.51;0;0.00;-5.00;-997.00
1716382708817027807;0;0;0;0;0;0;68;71;10;0;90;195.48;0;0.00;-3.00;-1001.00
1716382708916839838;0;0;0;0;0;0;68;71;10;0;90;195.47;0;0.00;-5.00;-1000.00
1716382709023296594;0;0;0;0;0;0;68;71;10;0;90;195.47;0;1.00;-5.00;-998.00
1716382709120075225;0;0;0;0;0;0;68;71;10;0;90;195.54;0;0.00;-4.00;-998.00
1716382709224723339;0;0;0;0;0;0;68;71;10;0;90;195.50;0;0.00;-5.00;-999.00
1716382709324251651;0;0;0;0;0;0;68;71;10;0;90;195.53;0;-1.00;-4.00;-1002.00
1716382709429265499;0;0;0;0;0;0;68;71;10;0;90;195.53;0;0.00;-4.00;-998.00
1716382709533334255;0;0;0;0;0;0;68;71;10;0;90;195.51;0;0.00;-3.00;-997.00
1716382709634029150;0;0;0;0;0;0;69;71;10;0;90;195.50;0;0.00;-4.00;-999.00
1716382709739436864;0;0;0;0;0;0;69;71;10;0;90;195.45;0;0.00;-5.00;-1000.00
1716382709839985370;0;0;0;0;0;0;69;71;10;0;90;195.51;0;0.00;-4.00;-999.00
1716382709889576673;0;0;0;0;0;0;69;71;10;0;90;195.47;0;0.00;-3.00;-997.00
1716382709987477779;0;0;0;0;0;0;69;71;10;0;90;195.53;0;0.00;-5.00;-1001.00
1716382710096207618;0;0;0;0;0;0;69;71;10;0;90;195.50;0;0.00;-5.00;-997.00
1716382710191510677;0;0;0;0;0;0;69;71;10;0;90;195.46;0;0.00;-4.00;-1002.00
1716382710293088197;0;0;0;0;0;0;69;71;10;0;90;195.42;0;0.00;-3.00;-1000.00
1716382710396374940;0;0;0;0;0;0;69;71;10;0;90;195.43;0;0.00;-4.00;-1000.00
1716382710500776767;0;0;0;0;0;0;69;71;10;0;90;195.46;0;-1.00;-4.00;-998.00
1716382710612555742;0;0;0;0;0;0;69;71;10;0;90;195.43;0;0.00;-4.00;-997.00
1716382710705384492;0;0;0;0;0;0;69;71;10;0;90;195.45;0;1.00;-5.00;-998.00
1716382710810082912;0;0;0;0;0;0;69;71;10;0;90;195.45;0;0.00;-4.00;-1000.00
1716382710910344123;0;0;0;0;0;0;69;71;10;0;90;195.46;0;0.00;-5.00;-1000.00
1716382711008414506;0;0;0;0;0;0;69;71;10;0;90;195.48;0;-1.00;-5.00;-998.00
1716382711115481615;0;0;0;0;0;0;69;71;10;0;90;195.47;0;0.00;-3.00;-999.00
1716382711214293718;0;0;0;0;0;0;69;71;10;0;90;195.43;0;0.00;-5.00;-1000.00
1716382711316757678;0;0;0;0;0;0;69;71;10;0;90;195.44;0;0.00;-4.00;-1000.00
1716382711416790962;0;0;0;0;0;0;69;71;10;0;90;195.45;0;0.00;-3.00;-999.00
1716382711519048452;0;0;0;0;0;0;69;71;10;0;90;195.46;0;-1.00;-4.00;-1000.00
1716382711620401144;0;0;0;0;0;0;69;71;10;0;90;195.47;0;0.00;-6.00;-999.00
1716382711723495483;0;0;0;0;0;0;69;71;10;0;90;195.47;0;0.00;-4.00;-1000.00
1716382711824519395;0;0;0;0;0;0;69;71;10;0;90;195.46;0;0.00;-5.00;-997.00
1716382711926546335;0;0;0;0;0;0;69;71;10;0;90;195.40;0;0.00;-5.00;-998.00
1716382712035513639;0;0;0;0;0;0;69;71;10;0;90;195.41;0;0.00;-4.00;-1001.00
1716382712137904167;0;0;0;0;0;0;69;71;10;0;90;195.40;0;0.00;-4.00;-998.00
1716382712234700202;0;0;0;0;0;0;69;71;10;0;90;195.43;0;0.00;-6.00;-998.00
1716382712340940713;0;0;0;0;0;0;69;71;10;0;90;195.42;0;0.00;-4.00;-1000.00
1716382712439920663;0;0;0;0;0;0;69;71;10;0;90;195.42;0;-1.00;-4.00;-1000.00
1716382712544703245;0;0;0;0;0;0;69;71;10;0;90;195.43;0;-1.00;-6.00;-1000.00
1716382712641504049;0;0;0;0;0;0;70;72;10;0;90;195.40;0;0.00;-4.00;-1001.00
1716382712746334314;0;0;0;0;0;0;70;72;10;0;90;195.42;0;-1.00;-4.00;-999.00
1716382712846531391;0;0;0;0;0;0;70;72;10;0;90;195.40;0;0.00;-3.00;-998.00
1716382712946378231;0;0;0;0;0;0;70;72;10;0;90;195.41;0;0.00;-4.00;-1000.00
1716382713048461675;0;0;0;0;0;0;70;72;10;0;90;195.38;0;0.00;-4.00;-1001.00
1716382713105867624;0;0;0;0;0;0;70;72;10;0;90;195.43;0;0.00;-4.00;-1000.00
1716382713207825899;0;0;0;0;0;0;70;72;10;0;90;195.40;0;0.00;-6.00;-999.00
1716382713309963703;0;0;0;0;0;0;70;72;10;0;90;195.40;0;0.00;-5.00;-998.00
1716382713406083583;0;0;0;0;0;0;70;72;10;0;90;195.40;0;0.00;-4.00;-999.00
1716382713508356571;0;0;0;0;0;0;70;72;10;0;90;195.38;0;0.00;-5.00;-995.00
1716382713616029262;0;0;0;0;0;0;70;71;10;0;90;195.42;0;0.00;-2.00;-998.00
1716382713711885213;0;0;0;0;0;0;70;71;10;0;90;195.36;0;0.00;-5.00;-999.00
1716382713815782308;0;0;0;0;0;0;70;71;10;0;90;195.37;0;0.00;-4.00;-999.00
1716382713919052362;0;0;0;0;0;0;70;71;10;0;90;195.34;0;0.00;-3.00;-998.00
1716382714019190549;0;0;0;0;0;0;70;71;10;0;90;195.42;0;-1.00;-5.00;-998.00
1716382714121241092;0;0;0;0;0;0;70;71;10;0;90;195.45;0;0.00;-4.00;-999.00
1716382714224069595;0;0;0;0;0;0;70;71;10;0;90;195.39;0;-1.00;-6.00;-1002.00
1716382714325214385;0;0;0;0;0;0;70;71;10;0;90;195.40;0;0.00;-5.00;-999.00
1716382714427700519;0;0;0;0;0;0;70;71;10;0;90;195.39;0;0.00;-4.00;-999.00
1716382714532097578;0;0;0;0;0;0;70;71;10;0;90;195.42;0;0.00;-6.00;-1000.00
1716382714635464906;0;0;0;0;0;0;69;72;10;0;90;195.42;0;-1.00;-3.00;-999.00
1716382714753738164;0;0;0;0;0;0;69;72;10;0;90;195.40;0;-1.00;-5.00;-998.00
1716382714840414524;0;0;0;0;0;0;69;72;10;0;90;195.38;0;-1.00;-5.00;-998.00
1716382714941524505;0;0;0;0;0;0;69;72;10;0;90;195.39;0;0.00;-6.00;-998.00
1716382715048459053;0;0;0;0;0;0;69;72;10;0;90;195.37;0;0.00;-5.00;-1001.00
1716382715141865253;0;0;0;0;0;0;69;72;10;0;90;195.36;0;0.00;-5.00;-999.00
1716382715244535446;0;0;0;0;0;0;69;72;10;0;90;195.39;0;0.00;-5.00;-1000.00
1716382715349948644;0;0;0;0;0;0;69;72;10;0;90;195.43;0;0.00;-4.00;-999.00
1716382715450312137;0;0;0;0;0;0;69;72;10;0;90;195.36;0;-1.00;-4.00;-1001.00
1716382715559156179;0;0;0;0;0;0;69;72;10;0;90;195.40;0;0.00;-3.00;-1001.00
1716382715653276205;0;0;0;0;0;0;69;73;10;0;90;195.37;0;-1.00;-5.00;-998.00
1716382715754636049;0;0;0;0;0;0;69;73;10;0;90;195.39;0;0.00;-4.00;-1000.00
1716382715857069730;0;0;0;0;0;0;69;73;10;0;90;195.40;0;0.00;-5.00;-999.00
1716382715958246469;0;0;0;0;0;0;69;73;10;0;90;195.40;0;0.00;-6.00;-998.00
1716382716061021327;0;0;0;0;0;0;69;73;10;0;90;195.44;0;0.00;-5.00;-1000.00
1716382716162700653;0;0;0;0;0;0;69;73;10;0;90;195.37;0;0.00;-5.00;-997.00
1716382716270452737;0;0;0;0;0;0;69;73;10;0;90;195.39;0;0.00;-4.00;-999.00
1716382716318287611;0;0;0;0;0;0;69;73;10;0;90;195.41;0;-1.00;-5.00;-998.00
1716382716417845249;0;0;0;0;0;0;69;73;10;0;90;195.35;0;0.00;-5.00;-1000.00
1716382716520462989;0;0;0;0;0;0;69;73;10;0;90;195.36;0;0.00;-4.00;-999.00
1716382716624262332;0;0;0;0;0;0;70;71;10;0;90;195.38;0;0.00;-6.00;-1001.00
1716382716724002361;0;0;0;0;0;0;70;71;10;0;90;195.39;0;0.00;-5.00;-997.00
1716382716829083681;0;0;0;0;0;0;70;71;10;0;90;195.40;0;0.00;-4.00;-1000.00
1716382716932127237;0;0;0;0;0;0;70;71;10;0;90;195.42;0;0.00;-5.00;-1001.00
1716382717041097164;0;0;0;0;0;0;70;71;10;0;90;195.40;0;0.00;-4.00;-1000.00
1716382717138563871;0;0;0;0;0;0;70;71;10;0;90;195.43;0;0.00;-5.00;-998.00
1716382717239808559;0;0;0;0;0;0;70;71;10;0;90;195.42;0;-1.00;-5.00;-999.00
1716382717340025663;0;0;0;0;0;0;70;71;10;0;90;195.40;0;0.00;-5.00;-998.00
1716382717442410469;0;0;0;0;0;0;70;71;10;0;90;195.38;0;0.00;-4.00;-1002.00
1716382717541734933;0;0;0;0;0;0;70;71;10;0;90;195.41;0;0.00;-5.00;-1000.00
1716382717649302005;0;0;0;0;0;0;71;71;10;0;90;195.43;0;0.00;-4.00;-1000.00
1716382717746853351;0;0;0;0;0;0;71;71;10;0;90;195.46;0;0.00;-5.00;-1000.00
1716382717849885940;0;0;0;0;0;0;71;71;10;0;90;195.43;0;0.00;-7.00;-1000.00
1716382717956411123;0;0;0;0;0;0;71;71;10;0;90;195.45;0;0.00;-5.00;-1000.00
1716382718053147792;0;0;0;0;0;0;71;71;10;0;90;195.50;0;0.00;-6.00;-999.00
1716382718155216693;0;0;0;0;0;0;71;71;10;0;90;195.40;0;0.00;-3.00;-999.00
1716382718258525133;0;0;0;0;0;0;71;71;10;0;90;195.40;0;0.00;-5.00;-1000.00
1716382718359194040;0;0;0;0;0;0;71;71;10;0;90;195.44;0;0.00;-5.00;-998.00
1716382718461442232;0;0;0;0;0;0;71;71;10;0;90;195.47;0;0.00;-5.00;-1001.00
1716382718565892457;0;0;0;0;0;0;71;71;10;0;90;195.45;0;0.00;-5.00;-999.00
1716382718671068668;0;0;0;0;0;0;70;72;10;0;90;195.41;0;0.00;-5.00;-999.00
1716382718774258136;0;0;0;0;0;0;70;72;10;0;90;195.45;0;0.00;-3.00;-1001.00
1716382718873260498;0;0;0;0;0;0;70;72;10;0;90;195.43;0;0.00;-4.00;-1001.00
1716382718973621129;0;0;0;0;0;0;70;72;10;0;90;195.47;0;0.00;-4.00;-1001.00
1716382719074441432;0;0;0;0;0;0;70;72;10;0;90;195.44;0;0.00;-4.00;-1000.00
1716382719178377628;0;0;0;0;0;0;70;72;10;0;90;195.46;0;-1.00;-5.00;-1001.00
1716382719278208732;0;0;0;0;0;0;70;72;10;0;90;195.46;0;0.00;-5.00;-1002.00
1716382719383171081;0;0;0;0;0;0;70;72;10;0;90;195.45;0;0.00;-4.00;-1001.00
1716382719435155868;0;0;0;0;0;0;70;72;10;0;90;195.47;0;0.00;-6.00;-1001.00
1716382719539264917;0;0;0;0;0;0;70;72;10;0;90;195.50;0;0.00;-4.00;-998.00
1716382719641644239;0;0;0;0;0;0;71;72;10;0;90;195.38;0;0.00;-4.00;-999.00
1716382719739220619;0;0;0;0;0;0;71;72;10;0;90;195.43;0;0.00;-3.00;-998.00
1716382719840032339;0;0;0;0;0;0;71;72;10;0;90;195.43;0;1.00;-4.00;-1001.00
1716382719947065830;0;0;0;0;0;0;71;72;10;0;90;195.48;0;1.00;-4.00;-1001.00
1716382720044032573;0;0;0;0;0;0;71;72;10;0;90;195.45;0;0.00;-4.00;-1000.00
1716382720147630929;0;0;0;0;0;0;71;72;10;0;90;195.50;0;0.00;-6.00;-1001.00
1716382720248930215;0;0;0;0;0;0;71;72;10;0;90;195.49;0;0.00;-4.00;-1001.00
1716382720351113557;0;0;0;0;0;0;71;72;10;0;90;195.54;0;-1.00;-5.00;-1001.00
1716382720452530384;0;0;0;0;0;0;71;72;10;0;90;195.54;0;0.00;-4.00;-1000.00
1716382720554612874;0;0;0;0;0;0;71;72;10;0;90;195.50;0;0.00;-3.00;-1001.00
1716382720657412767;0;0;0;0;0;0;70;72;10;0;90;195.51;0;0.00;-6.00;-999.00
1716382720758588314;0;0;0;0;0;0;70;72;10;0;90;195.49;0;2.00;-4.00;-999.00
1716382720861745119;0;0;0;0;0;0;70;72;10;0;90;195.47;0;0.00;-4.00;-999.00
1716382720961805582;0;0;0;0;0;0;70;72;10;0;90;195.49;0;0.00;-5.00;-1000.00
1716382721065981149;0;0;0;0;0;0;70;72;10;0;90;195.52;0;0.00;-3.00;-1001.00
1716382721174458026;0;0;0;0;0;0;70;72;10;0;90;195.48;0;0.00;-4.00;-998.00
1716382721275037288;0;0;0;0;0;0;70;72;10;0;90;195.53;0;0.00;-4.00;-1001.00
1716382721371459007;0;0;0;0;0;0;70;72;10;0;90;195.52;0;0.00;-4.00;-1000.00
1716382721476963758;0;0;0;0;0;0;70;72;10;0;90;195.53;0;0.00;-3.00;-1002.00
1716382721577779531;0;0;0;0;0;0;70;72;10;0;90;195.51;0;0.00;-4.00;-999.00
1716382721680770158;0;0;0;0;0;0;71;72;10;0;90;195.45;0;0.00;-4.00;-999.00
1716382721778912782;0;0;0;0;0;0;71;72;10;0;90;195.46;0;0.00;-6.00;-1000.00
1716382721881158351;0;0;0;0;0;0;71;72;10;0;90;195.47;0;0.00;-7.00;-998.00
1716382721991542339;0;0;0;0;0;0;71;72;10;0;90;195.52;0;0.00;-4.00;-999.00
1716382722085302591;0;0;0;0;0;0;71;72;10;0;90;195.52;0;0.00;-5.00;-1003.00
1716382722187292575;0;0;0;0;0;0;71;72;10;0;90;195.50;0;0.00;-5.00;-999.00
1716382722289227724;0;0;0;0;0;0;71;72;10;0;90;195.48;0;0.00;-5.00;-1001.00
1716382722393552541;0;0;0;0;0;0;71;72;10;0;90;195.54;0;0.00;-4.00;-1004.00
1716382722494695663;0;0;0;0;0;0;71;72;10;0;90;195.51;0;0.00;-4.00;-1001.00
1716382722601309537;0;0;0;0;0;0;71;72;10;0;90;195.56;0;0.00;-3.00;-999.00
1716382722699493885;0;0;0;0;0;0;70;73;10;0;90;195.54;0;-1.00;-4.00;-1001.00
1716382722804116725;0;0;0;0;0;0;70;73;10;0;90;195.57;0;1.00;-5.00;-1000.00
1716382722855821847;0;0;0;0;0;0;70;73;10;0;90;195.56;0;0.00;-4.00;-1001.00
1716382722953014373;0;0;0;0;0;0;70;73;10;0;90;195.55;0;0.00;-3.00;-999.00
1716382723055091381;0;0;0;0;0;0;70;73;10;0;90;195.57;0;0.00;-5.00;-1001.00
1716382723161283016;0;0;0;0;0;0;70;73;10;0;90;195.58;0;0.00;-3.00;-1002.00
1716382723260611295;0;0;0;0;0;0;70;73;10;0;90;195.62;0;0.00;-4.00;-1000.00
1716382723370748043;0;0;0;0;0;0;70;73;10;0;90;195.60;0;0.00;-4.00;-999.00
1716382723465614557;0;0;0;0;0;0;70;73;10;0;90;195.57;0;0.00;-5.00;-1002.00
1716382723571378707;0;0;0;0;0;0;70;73;10;0;90;195.60;0;0.00;-3.00;-1001.00
1716382723675029039;0;0;0;0;0;0;71;73;10;0;90;195.61;0;0.00;-6.00;-998.00
1716382723771628141;0;0;0;0;0;0;71;73;10;0;90;195.56;0;0.00;-4.00;-1001.00
1716382723871978282;0;0;0;0;0;0;71;73;10;0;90;195.54;0;0.00;-3.00;-1002.00
1716382723978228807;0;0;0;0;0;0;71;73;10;0;90;195.62;0;1.00;-4.00;-1001.00
1716382724078528404;0;0;0;0;0;0;71;73;10;0;90;195.62;0;0.00;-4.00;-1000.00
1716382724186482429;0;0;0;0;0;0;71;73;10;0;90;195.56;0;0.00;-5.00;-1003.00
1716382724279084205;0;0;0;0;0;0;71;73;10;0;90;195.61;0;0.00;-3.00;-1000.00
1716382724381019592;0;0;0;0;0;0;71;73;10;0;90;195.54;0;0.00;-4.00;-1000.00
1716382724485009670;0;0;0;0;0;0;71;73;10;0;90;195.56;0;-2.00;-4.00;-999.00
1716382724585266590;0;0;0;0;0;0;71;73;10;0;90;195.55;0;0.00;-4.00;-1000.00
1716382724688332080;0;0;0;0;0;0;71;73;10;0;90;195.51;0;0.00;-4.00;-1000.00
1716382724791784286;0;0;0;0;0;0;71;73;10;0;90;195.49;0;-1.00;-5.00;-1000.00
1716382724892498493;0;0;0;0;0;0;71;73;10;0;90;195.51;0;0.00;-5.00;-997.00
1716382724994925975;0;0;0;0;0;0;71;73;10;0;90;195.52;0;0.00;-4.00;-1000.00
1716382725096890926;0;0;0;0;0;0;71;73;10;0;90;195.51;0;0.00;-4.00;-999.00
1716382725201323270;0;0;0;0;0;0;71;73;10;0;90;195.54;0;1.00;-4.00;-999.00
1716382725312643527;0;0;0;0;0;0;71;73;10;0;90;195.57;0;1.00;-4.00;-997.00
1716382725405692338;0;0;0;0;0;0;71;73;10;0;90;195.48;0;0.00;-5.00;-999.00
1716382725509547948;0;0;0;0;0;0;71;73;10;0;90;195.53;0;0.00;-3.00;-999.00
1716382725616130828;0;0;0;0;0;0;71;73;10;0;90;195.53;0;0.00;-6.00;-999.00
1716382725707809448;0;0;0;0;0;0;71;73;10;0;90;195.54;0;0.00;-4.00;-998.00
1716382725814697980;0;0;0;0;0;0;71;73;10;0;90;195.53;0;0.00;-3.00;-998.00
1716382725912485122;0;0;0;0;0;0;71;73;10;0;90;195.54;0;2.00;-3.00;-998.00
1716382726013796806;0;0;0;0;0;0;71;73;10;0;90;195.53;0;-1.00;-4.00;-1000.00
1716382726117027759;0;0;0;0;0;0;71;73;10;0;90;195.54;0;1.00;-6.00;-999.00
1716382726218733072;0;0;0;0;0;0;71;73;10;0;90;195.57;0;0.00;-4.00;-1000.00
1716382726276868581;0;0;0;0;0;0;71;73;10;0;90;195.56;0;0.00;-3.00;-1002.00
1716382726374076366;0;0;0;0;0;0;71;73;10;0;90;195.58;0;0.00;-4.00;-999.00
1716382726476979732;0;0;0;0;0;0;71;73;10;0;90;195.61;0;0.00;-4.00;-1001.00
1716382726578436613;0;0;0;0;0;0;71;73;10;0;90;195.65;0;0.00;-4.00;-1001.00
1716382726684562921;0;0;0;0;0;0;71;73;10;0;90;195.65;0;0.00;-5.00;-998.00
1716382726778737306;0;0;0;0;0;0;71;73;10;0;90;195.75;0;0.00;-5.00;-998.00
1716382726891361236;0;0;0;0;0;0;71;73;10;0;90;195.67;0;0.00;-6.00;-1002.00
1716382726984275817;0;0;0;0;0;0;71;73;10;0;90;195.65;0;0.00;-4.00;-1000.00
1716382727085581064;0;0;0;0;0;0;71;73;10;0;90;195.65;0;0.00;-4.00;-1001.00
1716382727187148332;0;0;0;0;0;0;71;73;10;0;90;195.61;0;-1.00;-4.00;-1003.00
1716382727289484024;0;0;0;0;0;0;71;73;10;0;90;195.67;0;-1.00;-6.00;-998.00
1716382727393339157;0;0;0;0;0;0;71;73;10;0;90;195.64;0;0.00;-6.00;-1001.00
1716382727492924690;0;0;0;0;0;0;71;73;10;0;90;195.60;0;0.00;-4.00;-1002.00
1716382727597886323;0;0;0;0;0;0;71;73;10;0;90;195.66;0;0.00;-6.00;-1002.00
1716382727699483394;0;0;0;0;0;0;71;73;10;0;90;195.64;0;0.00;-3.00;-998.00
1716382727802842855;0;0;0;0;0;0;71;73;10;0;90;195.63;0;1.00;-4.00;-1000.00
1716382727902557134;0;0;0;0;0;0;71;73;10;0;90;195.71;0;1.00;-4.00;-1000.00
1716382728009327411;0;0;0;0;0;0;71;73;10;0;90;195.64;0;0.00;-5.00;-1001.00
1716382728106029272;0;0;0;0;0;0;71;73;10;0;90;195.62;0;1.00;-4.00;-1001.00
1716382728207949161;0;0;0;0;0;0;71;73;10;0;90;195.63;0;0.00;-6.00;-998.00
1716382728314617872;0;0;0;0;0;0;71;73;10;0;90;195.68;0;0.00;-3.00;-999.00
1716382728412697315;0;0;0;0;0;0;71;73;10;0;90;195.63;0;-1.00;-5.00;-1001.00
1716382728514282464;0;0;0;0;0;0;71;73;10;0;90;195.62;0;1.00;-5.00;-1002.00
1716382728615751266;0;0;0;0;0;0;71;73;10;0;90;195.61;0;0.00;-4.00;-1003.00
1716382728718521595;0;0;0;0;0;0;71;73;10;0;89;195.61;0;0.00;-5.00;-1001.00
1716382728820029973;0;0;0;0;0;0;71;73;10;0;89;195.65;0;0.00;-4.00;-1000.00
1716382728921966314;0;0;0;0;0;0;71;73;10;0;89;195.65;0;1.00;-4.00;-1001.00
1716382729030720949;0;0;0;0;0;0;71;73;10;0;89;195.54;0;0.00;-5.00;-1000.00
1716382729126148700;0;0;0;0;0;0;71;73;10;0;89;195.55;0;0.00;-4.00;-1000.00
1716382729231491565;0;0;0;0;0;0;71;73;10;0;89;195.57;0;0.00;-7.00;-1001.00
1716382729332141160;0;0;0;0;0;0;71;73;10;0;89;195.61;0;0.00;-5.00;-999.00
1716382729439617872;0;0;0;0;0;0;71;73;10;0;89;195.56;0;0.00;-4.00;-998.00
1716382729483901500;0;0;0;0;0;0;71;73;10;0;89;195.61;0;0.00;-4.00;-1001.00
1716382729584916830;0;0;0;0;0;0;71;73;10;0;89;195.53;0;0.00;-4.00;-999.00
1716382729693383216;0;0;0;0;0;0;71;74;10;0;89;195.58;0;0.00;-5.00;-999.00
1716382729791607618;0;0;0;0;0;0;71;74;10;0;89;195.65;0;0.00;-3.00;-1000.00
1716382729896700620;0;0;0;0;0;0;71;74;10;0;89;195.54;0;0.00;-4.00;-997.00
1716382729993200063;0;0;0;0;0;0;71;74;10;0;89;195.56;0;0.00;-5.00;-999.00
1716382730094867467;0;0;0;0;0;0;71;74;10;0;89;195.52;0;0.00;-5.00;-1000.00
1716382730202371120;0;0;0;0;0;0;71;74;10;0;89;195.53;0;0.00;-4.00;-1000.00
1716382730302831888;0;0;0;0;0;0;71;74;10;0;89;195.51;0;0.00;-3.00;-997.00
1716382730404552698;0;0;0;0;0;0;71;74;10;0;89;195.51;0;0.00;-4.00;-999.00
1716382730515129327;0;0;0;0;0;0;71;74;10;0;89;195.55;0;0.00;-3.00;-1002.00
1716382730608665704;0;0;0;0;0;0;71;74;10;0;89;195.58;0;-1.00;-5.00;-998.00
1716382730732525348;0;0;0;0;0;0;72;74;10;0;89;195.61;0;-1.00;-6.00;-1001.00
1716382730821227073;0;0;0;0;0;0;72;74;10;0;89;195.59;0;0.00;-4.00;-1001.00
1716382730933401823;0;0;0;0;0;0;72;74;10;0;89;195.64;0;0.00;-3.00;-1001.00
1716382731028213500;0;0;0;0;0;0;72;74;10;0;89;195.67;0;0.00;-5.00;-1000.00
1716382731117212533;0;0;0;0;0;0;72;74;10;0;89;195.62;0;0.00;-5.00;-1000.00
1716382731222256898;0;0;0;0;0;0;72;74;10;0;89;195.59;0;1.00;-5.00;-999.00
1716382731321707010;0;0;0;0;0;0;72;74;10;0;89;195.63;0;0.00;-4.00;-1002.00
1716382731423298358;0;0;0;0;0;0;72;74;10;0;89;195.57;0;1.00;-4.00;-1001.00
1716382731524941921;0;0;0;0;0;0;72;74;10;0;89;195.61;0;-1.00;-5.00;-1001.00
1716382731628788232;0;0;0;0;0;0;72;74;10;0;89;195.61;0;0.00;-4.00;-1003.00
1716382731728662252;0;0;0;0;0;0;72;73;10;0;89;195.55;0;0.00;-3.00;-999.00
1716382731835210561;0;0;0;0;0;0;72;73;10;0;89;195.60;0;0.00;-4.00;-1000.00
1716382731938845634;0;0;0;0;0;0;72;73;10;0;89;195.62;0;0.00;-5.00;-1000.00
1716382732044220209;0;0;0;0;0;0;72;73;10;0;89;195.62;0;0.00;-4.00;-999.00
1716382732147686243;0;0;0;0;0;0;72;73;10;0;89;195.68;0;0.00;-4.00;-998.00
1716382732243276357;0;0;0;0;0;0;72;73;10;0;89;195.72;0;0.00;-5.00;-1000.00
1716382732345948696;0;0;0;0;0;0;72;73;10;0;89;195.89;0;0.00;-4.00;-999.00
1716382732444679975;0;0;0;0;0;0;72;73;10;0;89;195.99;0;0.00;-5.00;-999.00
1716382732550145864;0;0;0;0;0;0;72;73;10;0;89;196.17;0;0.00;-4.00;-1003.00
1716382732597250223;0;0;0;0;0;0;72;73;10;0;89;196.21;0;0.00;-5.00;-1004.00
1716382732751885890;0;0;0;0;0;0;72;74;10;0;89;196.20;0;0.00;-3.00;-1000.00
1716382732865318059;0;0;0;0;0;0;72;74;10;0;89;196.13;0;0.00;-4.00;-997.00
1716382732910150766;0;0;0;0;0;0;72;74;10;0;89;196.09;0;1.00;-6.00;-1001.00
1716382733020678758;0;0;0;0;0;0;72;74;10;0;89;196.05;0;0.00;-5.00;-1002.00
1716382733113726615;0;0;0;0;0;0;72;74;10;0;89;196.03;0;0.00;-5.00;-1001.00
1716382733216166257;0;0;0;0;0;0;72;74;10;0;89;195.96;0;-1.00;-3.00;-1000.00
1716382733317862749;0;0;0;0;0;0;72;74;10;0;89;195.90;0;0.00;-5.00;-1001.00
1716382733419744968;0;0;0;0;0;0;72;74;10;0;89;195.83;0;0.00;-4.00;-1000.00
1716382733523730754;0;0;0;0;0;0;72;74;10;0;89;195.87;0;-1.00;-4.00;-999.00
1716382733625531911;0;0;0;0;0;0;72;74;10;0;89;195.80;0;0.00;-5.00;-1000.00
1716382733726171255;0;0;0;0;0;0;72;74;10;0;89;195.74;0;0.00;-5.00;-1001.00
1716382733828401327;0;0;0;0;0;0;72;74;10;0;89;195.72;0;0.00;-6.00;-1001.00
1716382733934453487;0;0;0;0;0;0;72;74;10;0;89;195.71;0;0.00;-4.00;-1000.00
1716382734035001993;0;0;0;0;0;0;72;74;10;0;89;195.71;0;0.00;-4.00;-1001.00
1716382734143182992;0;0;0;0;0;0;72;74;10;0;89;195.66;0;1.00;-4.00;-997.00
1716382734241073369;0;0;0;0;0;0;72;74;10;0;89;195.67;0;0.00;-6.00;-999.00
1716382734342501401;0;0;0;0;0;0;72;74;10;0;89;195.57;0;0.00;-4.00;-998.00
1716382734439881801;0;0;0;0;0;0;72;74;10;0;89;195.60;0;0.00;-5.00;-1001.00
1716382734547214269;0;0;0;0;0;0;72;74;10;0;89;195.55;0;0.00;-5.00;-1000.00
1716382734646152496;0;0;0;0;0;0;72;74;10;0;89;195.58;0;-1.00;-2.00;-1000.00
1716382734745769500;0;0;0;0;0;0;71;75;10;0;89;195.58;0;0.00;-5.00;-999.00
1716382734851525783;0;0;0;0;0;0;71;75;10;0;89;195.59;0;0.00;-4.00;-1000.00
1716382734952558279;0;0;0;0;0;0;71;75;10;0;89;195.58;0;0.00;-4.00;-999.00
1716382735051720857;0;0;0;0;0;0;71;75;10;0;89;195.65;0;0.00;-5.00;-999.00
1716382735154288291;0;0;0;0;0;0;71;75;10;0;89;195.58;0;0.00;-5.00;-1000.00
1716382735256222963;0;0;0;0;0;0;71;75;10;0;89;195.62;0;0.00;-4.00;-999.00
1716382735357835292;0;0;0;0;0;0;71;75;10;0;89;195.68;0;0.00;-4.00;-1001.00
1716382735460562705;0;0;0;0;0;0;71;75;10;0;89;195.73;0;0.00;-6.00;-999.00
1716382735562825441;0;0;0;0;0;0;71;75;10;0;89;195.77;0;0.00;-4.00;-1000.00
1716382735617386817;0;0;0;0;0;0;71;75;10;0;89;195.75;0;0.00;-3.00;-1002.00
1716382735770174026;0;0;0;0;0;0;71;75;10;0;89;195.75;0;0.00;-4.00;-1002.00
1716382735828201770;0;0;0;0;0;0;71;75;10;0;89;195.83;0;1.00;-4.00;-999.00
1716382735921793460;0;0;0;0;0;0;71;75;10;0;89;195.78;0;0.00;-3.00;-1002.00
1716382736027376651;0;0;0;0;0;0;71;75;10;0;89;195.67;0;0.00;-3.00;-1001.00
1716382736128274679;0;0;0;0;0;0;71;75;10;0;89;195.71;0;0.00;-4.00;-1001.00
1716382736226926565;0;0;0;0;0;0;71;75;10;0;89;195.60;0;0.00;-5.00;-1001.00
1716382736327686548;0;0;0;0;0;0;71;75;10;0;89;195.57;0;0.00;-6.00;-998.00
1716382736429789543;0;0;0;0;0;0;71;75;10;0;89;195.58;0;0.00;-5.00;-999.00
1716382736536425828;0;0;0;0;0;0;71;75;10;0;89;195.69;0;0.00;-5.00;-998.00
1716382736644312858;0;0;0;0;0;0;71;75;10;0;89;195.88;0;0.00;-5.00;-1000.00
1716382736740978002;0;0;0;0;0;0;72;75;10;0;89;196.01;0;0.00;-4.00;-1000.00
1716382736841856241;0;0;0;0;0;0;72;75;10;0;89;196.07;0;0.00;-4.00;-1000.00
1716382736944756031;0;0;0;0;0;0;72;75;10;0;89;196.07;0;0.00;-5.00;-1000.00
1716382737052726507;0;0;0;0;0;0;72;75;10;0;89;196.07;0;0.00;-5.00;-1001.00
1716382737144510507;0;0;0;0;0;0;72;75;10;0;89;195.99;0;1.00;-4.00;-999.00
1716382737246815681;0;0;0;0;0;0;72;75;10;0;89;195.94;0;0.00;-5.00;-1000.00
1716382737353382110;0;0;0;0;0;0;72;75;10;0;89;195.90;0;0.00;-6.00;-1001.00
1716382737450382709;0;0;0;0;0;0;72;75;10;0;89;195.81;0;-1.00;-3.00;-998.00
1716382737551613807;0;0;0;0;0;0;72;75;10;0;89;195.82;0;0.00;-3.00;-1000.00
1716382737654171705;0;0;0;0;0;0;72;75;10;0;89;195.77;0;1.00;-4.00;-1001.00
1716382737756160974;0;0;0;0;0;0;73;75;10;0;89;195.81;0;0.00;-5.00;-997.00
1716382737859009981;0;0;0;0;0;0;73;75;10;0;89;195.82;0;0.00;-6.00;-999.00
1716382737960639238;0;0;0;0;0;0;73;75;10;0;89;195.84;0;0.00;-4.00;-997.00
1716382738062120437;0;0;0;0;0;0;73;75;10;0;89;195.87;0;0.00;-5.00;-997.00
1716382738166582345;0;0;0;0;0;0;73;75;10;0;89;195.85;0;0.00;-3.00;-1000.00
1716382738269106864;0;0;0;0;0;0;73;75;10;0;89;195.84;0;0.00;-5.00;-998.00
1716382738373661518;0;0;0;0;0;0;73;75;10;0;89;195.85;0;-1.00;-5.00;-1000.00
1716382738473886251;0;0;0;0;0;0;73;75;10;0;89;195.88;0;0.00;-3.00;-998.00
1716382738573205947;0;0;0;0;0;0;73;75;10;0;89;195.94;0;0.00;-4.00;-1000.00
1716382738683318614;0;0;0;0;0;0;73;75;10;0;89;195.89;0;0.00;-3.00;-1000.00
1716382738776696920;0;0;0;0;0;0;73;75;10;0;89;195.90;0;0.00;-3.00;-1000.00
1716382738878577947;0;0;0;0;0;0;73;75;10;0;89;195.89;0;0.00;-3.00;-999.00
1716382738982024908;0;0;0;0;0;0;73;75;10;0;89;195.87;0;0.00;-4.00;-999.00
1716382739084114074;0;0;0;0;0;0;73;75;10;0;89;195.87;0;0.00;-3.00;-997.00
1716382739132725238;0;0;0;0;0;0;73;75;10;0;89;195.87;0;-3.00;-11.00;-1003.00
1716382739239680767;0;0;0;0;0;0;73;75;10;0;89;195.87;0;0.00;-13.00;-994.00
1716382739343311786;0;0;0;0;0;0;73;75;10;0;89;195.87;0;26.00;-17.00;-1024.00
1716382739442310094;0;0;0;0;0;0;73;75;10;0;89;195.87;0;4.00;-9.00;-1166.00
1716382739543299913;-2;0;0;0;0;-1;73;75;10;0;89;195.87;0;4.00;-16.00;-1374.00
1716382739648660182;0;0;0;0;0;-4;73;75;10;0;89;195.87;0;-30.00;-6.00;-1249.00
1716382739747439622;1;0;0;0;0;-7;74;75;18;10;89;196.19;0;-9.00;-2.00;-1097.00
1716382739848761081;1;0;0;0;0;-8;74;75;26;10;89;196.30;0;-3.00;0.00;-1024.00
1716382739955794334;0;0;0;0;0;-8;74;75;35;20;89;196.33;0;6.00;-5.00;-976.00
1716382740052198648;0;0;0;0;0;-8;74;75;43;30;89;196.40;1;1.00;-1.00;-924.00
1716382740159601688;0;0;0;0;0;-7;74;75;49;40;89;196.50;1;-3.00;2.00;-901.00
1716382740257981538;0;0;0;0;0;-6;74;75;55;40;89;196.54;1;16.00;-6.00;-902.00
1716382740360270500;0;0;0;0;0;-5;74;75;59;50;89;196.57;1;-1.00;7.00;-877.00
1716382740460532903;0;0;0;0;0;-4;74;75;63;50;89;196.55;1;4.00;-4.00;-895.00
1716382740561923742;0;0;0;0;0;-3;74;75;66;60;89;196.56;1;6.00;-1.00;-907.00
1716382740665459632;0;0;0;0;0;-2;74;75;68;60;89;196.60;1;2.00;0.00;-935.00
1716382740766583442;0;0;0;0;0;-1;73;75;69;60;89;196.65;1;-6.00;6.00;-958.00
1716382740870160579;0;0;0;0;0;0;73;75;70;60;89;196.63;1;8.00;-10.00;-981.00
1716382740974104404;0;0;0;0;0;0;73;75;71;70;89;196.66;2;0.00;6.00;-1001.00
1716382741077167510;0;0;0;0;0;0;73;75;73;70;89;196.61;2;-6.00;-4.00;-1005.00
1716382741177797555;0;0;0;0;0;0;73;75;74;70;89;196.60;2;1.00;-2.00;-998.00
1716382741290896654;0;0;0;0;0;0;73;75;74;70;89;196.51;2;2.00;-2.00;-1006.00
1716382741386617183;0;0;0;0;0;0;73;75;75;70;89;196.54;2;-6.00;-2.00;-996.00
1716382741479590892;0;0;0;0;0;0;73;75;76;70;89;196.54;2;5.00;-1.00;-1007.00
1716382741582200765;0;0;0;0;0;0;73;75;77;70;89;196.54;2;-4.00;-2.00;-999.00
1716382741684245586;0;0;0;0;0;0;73;75;78;70;89;196.64;2;-6.00;3.00;-989.00
1716382741786003828;0;0;0;0;0;0;73;75;79;70;89;196.61;2;3.00;-4.00;-998.00
1716382741891140699;0;0;0;0;0;0;73;75;80;70;89;196.64;2;1.00;-2.00;-984.00
1716382741990960121;0;0;0;0;0;0;73;75;81;70;89;196.60;3;10.00;5.00;-994.00
1716382742091651678;0;0;0;0;0;0;73;75;83;70;89;196.64;3;-2.00;1.00;-999.00
1716382742193618059;0;0;0;0;0;0;73;75;84;80;89;196.56;3;-3.00;-2.00;-985.00
1716382742296145200;0;0;0;0;0;0;73;75;85;80;89;196.62;3;6.00;2.00;-985.00
1716382742397883653;-1;0;0;0;0;0;73;75;85;80;89;196.59;3;-5.00;7.00;-1001.00
1716382742501163721;-1;0;0;0;0;0;73;75;86;80;89;196.59;3;-19.00;11.00;-996.00
1716382742551783084;-1;0;0;0;0;0;73;75;86;80;89;196.51;3;-1.00;-4.00;-991.00
1716382742659308910;-1;0;0;0;0;0;73;75;86;80;89;196.48;3;-3.00;-1.00;-995.00
1716382742756739139;0;0;-1;0;0;0;72;76;86;80;89;196.37;3;-13.00;0.00;-985.00
1716382742859053134;0;0;-1;0;0;0;72;76;86;80;89;196.30;3;-14.00;5.00;-979.00
1716382742959996223;0;0;-1;0;0;0;72;76;86;80;89;196.20;4;3.00;0.00;-998.00
1716382743062631845;0;0;-1;0;0;0;72;76;86;80;89;196.27;4;-8.00;0.00;-988.00
1716382743164924144;0;0;-1;0;0;0;72;76;86;80;89;196.20;4;0.00;3.00;-987.00
1716382743266126632;0;0;-1;0;0;0;72;76;86;80;89;196.31;4;14.00;-15.00;-999.00
1716382743367461204;0;0;-1;0;0;0;72;76;85;80;89;196.30;4;-1.00;-2.00;-984.00
1716382743469566106;0;0;-1;0;0;0;72;76;85;80;89;196.17;4;2.00;-24.00;-1030.00
1716382743584855318;0;0;0;0;0;0;72;76;85;80;89;196.32;4;0.00;0.00;-992.00
1716382743674842357;0;0;0;0;0;0;72;76;85;80;89;196.31;4;4.00;-11.00;-975.00
1716382743778433322;0;0;0;0;0;0;72;75;85;80;89;196.27;4;-12.00;-8.00;-1016.00
1716382743989139795;0;0;0;0;0;0;72;75;85;80;89;196.23;5;16.00;-4.00;-1005.00
1716382744086313962;0;0;0;0;0;0;72;75;86;80;89;196.19;5;8.00;-9.00;-1003.00
1716382744186658620;0;0;0;0;0;0;72;75;86;80;89;196.32;5;9.00;-23.00;-1001.00
1716382744288070440;0;1;0;0;0;0;72;75;86;80;89;196.27;5;-3.00;-10.00;-999.00
1716382744391016244;0;1;0;0;0;0;72;75;86;80;89;196.27;5;-15.00;2.00;-977.00
1716382744492726325;0;0;0;0;0;0;72;75;86;80;89;196.25;5;0.00;-8.00;-973.00
1716382744595765352;0;0;0;0;0;0;72;75;87;80;89;196.28;5;5.00;-1.00;-987.00
1716382744696019172;0;0;0;0;0;0;72;75;87;80;89;196.43;5;-12.00;0.00;-987.00
1716382744797736406;0;0;0;0;0;0;73;75;86;80;89;196.35;5;10.00;-7.00;-1008.00
1716382744899805068;0;0;0;0;0;0;73;75;86;80;89;196.32;5;0.00;-2.00;-997.00
1716382745004364013;0;0;0;0;0;0;73;75;86;80;89;196.43;6;7.00;-4.00;-994.00
1716382745112445354;0;0;0;0;0;0;73;75;86;80;89;196.40;6;1.00;-9.00;-982.00
1716382745236144542;0;0;0;0;0;0;73;75;85;80;89;196.39;6;-9.00;6.00;-986.00
1716382745312601804;0;0;0;0;0;0;73;75;85;80;89;196.31;6;8.00;-4.00;-993.00
1716382745409572124;0;0;0;0;0;0;73;75;85;80;89;196.33;6;-1.00;-3.00;-993.00
1716382745512809276;0;0;0;0;0;0;73;75;85;80;89;196.29;6;-2.00;-4.00;-1012.00
1716382745614648580;0;0;0;0;0;0;73;75;85;80;89;196.24;6;-7.00;8.00;-1005.00
1716382745716151237;0;0;0;0;0;0;73;75;84;80;89;196.32;6;-4.00;7.00;-980.00
1716382745818691730;0;0;0;0;0;0;72;75;84;80;89;196.39;6;-7.00;0.00;-985.00
1716382745919401645;0;0;0;0;0;0;72;75;84;80;89;196.25;6;4.00;-9.00;-1011.00
1716382746023740530;0;0;0;0;0;0;72;75;83;80;89;196.28;7;-5.00;-6.00;-1020.00
1716382746123686552;0;0;0;0;0;0;72;75;83;80;89;196.30;7;-1.00;-4.00;-998.00
1716382746225638389;0;0;0;0;0;0;72;75;83;80;89;196.24;7;-10.00;0.00;-1000.00
1716382746276396274;0;0;0;0;0;0;72;75;82;80;89;196.29;7;-12.00;5.00;-994.00
1716382746379181146;0;0;0;0;0;0;72;75;82;70;89;196.27;7;-6.00;-1.00;-976.00
1716382746480726003;0;0;0;0;0;0;72;75;82;70;89;196.41;7;1.00;-4.00;-1009.00
1716382746584688186;0;0;0;0;0;0;72;75;82;70;89;196.37;7;-4.00;17.00;-1011.00
1716382746686667442;0;0;0;0;0;0;72;75;82;70;88;196.31;7;15.00;3.00;-999.00
1716382746786459684;0;0;0;0;0;0;72;75;81;70;88;196.27;7;0.00;4.00;-999.00
1716382746890992641;0;0;0;0;0;0;72;75;81;70;88;196.24;7;11.00;10.00;-1027.00
1716382746991647243;0;-1;0;0;0;0;72;75;81;70;88;196.26;8;2.00;22.00;-1003.00
1716382747093627452;0;-1;0;0;0;0;72;75;82;70;88;196.38;8;19.00;5.00;-1015.00
1716382747203347921;0;-1;0;0;0;0;72;75;82;70;88;196.41;8;7.00;28.00;-1009.00
1716382747299725770;0;-1;0;0;0;0;72;75;82;70;88;196.40;8;16.00;21.00;-1012.00
1716382747399784088;0;-1;0;0;0;0;72;75;82;70;88;196.26;8;7.00;11.00;-1023.00
1716382747502576589;0;-2;0;0;0;0;72;75;82;70;88;196.40;8;6.00;7.00;-1015.00
1716382747609239339;0;-1;0;0;0;0;72;75;82;70;88;196.42;8;6.00;15.00;-993.00
1716382747714077472;0;0;0;0;0;0;72;75;82;70;88;196.39;8;22.00;20.00;-984.00
1716382747809680223;0;0;0;0;0;0;72;75;82;70;88;196.37;8;2.00;9.00;-1003.00
1716382747909367799;0;-1;0;0;0;0;72;75;83;70;88;196.31;8;4.00;21.00;-1010.00
1716382748013124704;0;-1;0;0;0;0;72;75;83;70;88;196.33;9;6.00;-2.00;-1001.00
1716382748113603115;1;0;0;0;0;0;72;75;83;70;88;196.32;9;21.00;-9.00;-982.00
1716382748215600967;0;0;0;0;0;0;72;75;83;70;88;196.29;9;6.00;18.00;-1031.00
1716382748318277120;0;0;0;0;0;0;72;75;84;80;88;196.27;9;14.00;15.00;-1009.00
1716382748419579505;0;0;0;0;0;0;72;75;84;80;88;196.38;9;-2.00;7.00;-998.00
1716382748522670745;0;0;0;0;0;0;72;75;84;80;88;196.33;9;0.00;15.00;-994.00
1716382748623876333;0;0;0;0;0;0;72;75;85;80;87;196.27;9;4.00;-2.00;-979.00
1716382748725506067;0;0;0;0;0;0;72;75;85;80;87;196.35;9;-10.00;16.00;-980.00
1716382748828463315;0;0;0;0;0;0;73;74;86;80;87;196.28;9;3.00;5.00;-997.00
1716382748930015325;0;0;0;0;0;0;73;74;86;80;87;196.31;9;5.00;4.00;-985.00
1716382749031742811;0;0;0;0;0;0;73;74;86;80;87;196.36;10;12.00;0.00;-966.00
1716382749152526855;0;0;0;0;0;0;73;74;86;80;87;196.30;10;-31.00;10.00;-1007.00
1716382749238709688;0;0;0;0;0;0;73;74;86;80;87;196.23;10;9.00;13.00;-1015.00
1716382749341709136;0;0;0;0;0;0;73;74;86;80;87;196.21;10;0.00;18.00;-986.00
1716382749448827028;0;0;0;0;0;0;73;74;85;80;87;196.21;10;1.00;0.00;-982.00
1716382749545055627;0;0;0;0;0;0;73;74;85;80;87;196.15;10;15.00;7.00;-1022.00
1716382749648849725;0;0;0;0;0;0;73;74;85;80;87;196.19;10;6.00;13.00;-1007.00
1716382749694682121;0;0;0;0;0;0;73;74;85;80;87;196.21;10;16.00;6.00;-989.00
1716382749848248720;0;0;0;0;0;0;72;75;85;80;87;196.16;10;16.00;-2.00;-997.00
1716382749957977771;0;0;0;0;0;0;72;75;85;80;87;196.22;10;15.00;-3.00;-1014.00
1716382750051743984;0;0;0;0;0;0;72;75;85;80;87;196.21;11;9.00;13.00;-1028.00
1716382750160061597;1;0;0;0;0;0;72;75;85;80;87;196.25;11;15.00;12.00;-997.00
1716382750257535219;1;0;0;0;0;0;72;75;86;80;87;196.19;11;7.00;22.00;-996.00
1716382750316563129;1;0;0;0;0;0;72;75;86;80;87;196.25;11;4.00;16.00;-986.00
1716382750410254240;1;-1;0;0;0;0;72;75;86;80;87;196.21;11;24.00;0.00;-999.00
1716382750517794609;1;0;0;0;0;0;72;75;86;80;87;196.19;11;10.00;17.00;-992.00
1716382750621737003;0;0;0;0;0;0;72;75;86;80;86;196.30;11;13.00;14.00;-992.00
1716382750720232725;0;0;0;0;0;0;72;75;86;80;86;196.25;11;12.00;1.00;-967.00
1716382750817857742;0;0;0;0;0;0;72;75;87;80;86;196.24;11;2.00;29.00;-989.00
1716382750920128345;1;0;0;0;0;0;72;75;86;80;86;196.27;11;17.00;5.00;-1005.00
1716382751021711349;1;-1;0;0;0;0;72;75;86;80;86;196.22;12;21.00;0.00;-1011.00
1716382751124258518;1;-1;0;0;0;0;72;75;86;80;86;196.38;12;20.00;9.00;-990.00
1716382751231195688;1;-1;0;0;0;0;72;75;86;80;86;196.29;12;12.00;20.00;-1019.00
1716382751327424764;1;-1;0;0;0;0;72;75;86;80;86;196.38;12;13.00;13.00;-993.00
1716382751429942607;1;0;0;0;0;0;72;75;86;80;86;196.24;12;14.00;15.00;-1006.00
1716382751534119844;1;0;0;0;0;0;72;75;86;80;86;196.30;12;0.00;14.00;-1007.00
1716382751634367465;1;0;0;0;0;0;72;75;86;80;86;196.22;12;-1.00;7.00;-995.00
1716382751740146636;1;0;0;0;0;0;72;75;87;80;86;196.25;12;-4.00;14.00;-998.00
1716382751840272903;0;0;0;0;0;0;71;74;87;80;86;196.22;12;4.00;17.00;-999.00
1716382751946119070;0;0;0;0;0;0;71;74;87;80;86;196.24;12;24.00;3.00;-982.00
1716382752049860715;0;0;0;0;0;0;71;74;87;80;86;196.30;13;8.00;5.00;-990.00
1716382752144902706;0;0;0;0;0;0;71;74;87;80;86;196.25;13;14.00;4.00;-989.00
1716382752249984502;0;0;0;0;0;0;71;74;87;80;86;196.23;13;11.00;9.00;-987.00
1716382752348409175;0;0;0;0;0;0;71;74;86;80;86;196.39;13;21.00;0.00;-988.00
1716382752452055692;0;0;0;0;0;0;71;74;86;80;86;196.33;13;19.00;7.00;-1002.00
1716382752555288553;0;0;0;0;0;0;71;74;86;80;86;196.42;13;25.00;15.00;-995.00
1716382752656761884;1;0;0;0;0;0;71;74;85;80;86;196.34;13;34.00;9.00;-1009.00
1716382752756938219;1;0;0;0;0;0;71;74;85;80;86;196.38;13;19.00;5.00;-1027.00
1716382752858751058;1;0;0;0;0;0;71;74;84;80;86;196.46;13;21.00;0.00;-997.00
1716382752969174385;0;0;0;0;0;0;71;74;82;80;86;196.39;13;11.00;5.00;-1016.00
1716382753064887046;-5;0;0;0;0;0;71;74;81;80;86;196.36;14;13.00;0.00;-1003.00
1716382753171557664;-7;0;0;1;0;0;71;74;81;80;86;196.35;14;-8.00;6.00;-1006.00
1716382753267256736;-7;0;0;3;0;0;71;74;80;80;86;196.31;14;-13.00;-7.00;-1011.00
1716382753370980024;-5;0;0;4;0;0;71;74;80;80;86;196.26;14;-5.00;7.00;-1020.00
1716382753475671768;-4;0;0;5;0;0;71;74;81;80;86;196.32;14;-10.00;4.00;-998.00
1716382753579006433;-3;0;0;6;0;0;71;74;81;80;86;196.35;14;-37.00;12.00;-1002.00
1716382753687590122;-4;0;0;6;0;0;71;74;80;80;85;196.35;14;-13.00;-7.00;-977.00
1716382753727064609;-4;0;0;6;0;0;71;74;82;80;85;196.26;14;-41.00;2.00;-994.00
1716382753879931211;-1;0;0;7;0;0;72;74;83;80;85;196.29;14;-51.00;-3.00;-987.00
1716382753933485031;1;0;0;6;0;0;72;74;82;80;85;196.29;14;-54.00;-2.00;-988.00
1716382754034335136;3;0;0;5;0;0;72;74;82;80;85;196.31;15;-51.00;6.00;-996.00
1716382754138825416;4;0;0;4;0;0;72;74;82;80;85;196.34;15;-38.00;6.00;-1013.00
1716382754240562915;2;0;0;3;0;0;72;74;82;80;85;196.38;15;-21.00;1.00;-1012.00
1716382754351158618;1;0;0;3;0;0;72;74;82;80;85;196.38;15;-24.00;0.00;-998.00
1716382754455501079;0;0;0;2;0;0;72;74;81;80;85;196.35;15;-15.00;0.00;-998.00
1716382754552162885;0;0;0;2;0;0;72;74;81;80;85;196.34;15;-9.00;-1.00;-994.00
1716382754656606435;0;0;0;3;0;0;72;74;81;80;85;196.44;15;-11.00;-7.00;-986.00
1716382754758805990;0;0;0;3;0;0;72;74;81;80;85;196.42;15;-19.00;-11.00;-986.00
1716382754858671665;0;0;0;3;0;0;72;74;80;80;85;196.43;15;-25.00;-3.00;-971.00
1716382754955617189;0;0;0;2;0;0;72;74;80;80;85;196.39;15;-9.00;-2.00;-1007.00
1716382755057057142;0;0;0;2;0;0;72;74;79;80;85;196.40;16;-16.00;0.00;-996.00
1716382755158579111;0;0;0;2;0;0;72;74;79;70;85;196.39;16;-7.00;-4.00;-983.00
1716382755261140823;4;0;0;2;0;0;72;74;78;70;85;196.51;16;-20.00;-9.00;-1029.00
1716382755366873741;5;0;0;1;0;0;72;74;78;70;85;196.45;16;3.00;-5.00;-1036.00
1716382755464982509;2;0;0;0;0;0;72;74;78;70;85;196.44;16;11.00;-10.00;-1000.00
1716382755573329687;1;0;0;0;0;0;72;74;78;70;85;196.46;16;-25.00;5.00;-1020.00
1716382755673109054;1;0;-5;0;0;0;72;74;78;70;84;196.45;16;-3.00;3.00;-1022.00
1716382755771808624;1;0;-11;0;0;0;72;74;78;70;84;196.46;16;-2.00;-1.00;-1014.00
1716382755877643108;1;0;-23;0;0;0;72;74;78;70;84;196.41;16;10.00;-7.00;-984.00
1716382755984952688;1;0;-29;0;0;0;72;74;78;70;84;196.38;17;6.00;-1.00;-1016.00
1716382756085027217;0;0;-36;0;0;0;72;74;78;70;84;196.45;17;5.00;0.00;-1003.00
1716382756183327436;0;-1;-42;0;0;0;72;74;78;70;84;196.45;17;-1.00;6.00;-1000.00
1716382756283199548;0;-1;-48;0;0;0;72;74;78;70;84;196.43;17;21.00;1.00;-1002.00
1716382756385849237;1;-1;-55;0;0;0;72;74;78;70;84;196.43;17;0.00;0.00;-1024.00
1716382756486222267;0;-1;-61;0;0;0;72;74;79;70;84;196.44;17;0.00;12.00;-1002.00
1716382756588604211;0;-1;-67;0;0;0;72;74;80;70;84;196.42;17;8.00;12.00;-1007.00
1716382756694880247;0;-1;-73;0;0;0;72;74;80;70;84;196.39;17;10.00;13.00;-1002.00
1716382756793035984;0;-1;-79;0;0;0;72;74;81;70;84;196.50;17;4.00;16.00;-995.00
1716382756897042751;0;-1;-86;0;0;0;71;74;81;70;84;196.48;17;3.00;13.00;-1003.00
1716382756996334314;0;-1;-92;0;0;0;71;74;81;70;84;196.46;18;-2.00;14.00;-1004.00
1716382757098426580;0;-1;-98;0;0;0;71;74;82;70;84;196.45;18;4.00;9.00;-997.00
1716382757200226306;0;0;-104;0;0;0;71;74;82;70;84;196.42;18;-3.00;6.00;-1001.00
1716382757302422523;0;0;-110;0;0;0;71;74;83;70;84;196.39;18;-3.00;10.00;-1003.00
1716382757404303550;0;0;-116;0;0;0;71;74;83;70;84;196.47;18;-9.00;7.00;-998.00
1716382757455326318;0;0;-122;0;0;0;71;74;83;80;84;196.38;18;-15.00;9.00;-1002.00
1716382757565825939;0;0;-128;0;0;0;71;74;83;80;84;196.43;18;-3.00;8.00;-981.00
1716382757659495353;0;0;-134;0;0;0;71;74;83;80;83;196.42;18;-4.00;2.00;-991.00
1716382757762957096;0;0;-138;0;0;0;71;74;83;80;83;196.45;18;-2.00;6.00;-987.00
1716382757914225578;0;0;-141;0;0;0;72;74;83;80;83;196.39;18;-13.00;-1.00;-998.00
1716382758018862009;0;0;-143;0;0;0;72;74;83;80;83;196.37;19;-21.00;-5.00;-995.00
1716382758126460313;0;0;-145;0;0;0;72;74;83;80;83;196.45;19;-22.00;6.00;-1012.00
1716382758169502258;-1;0;-146;0;0;0;72;74;83;80;83;196.39;19;-20.00;1.00;-1002.00
1716382758276190280;-1;0;-147;0;0;0;72;74;83;80;83;196.38;19;-17.00;-5.00;-989.00
1716382758378490686;-1;0;-148;0;0;0;72;74;83;80;83;196.38;19;-10.00;-1.00;-997.00
1716382758504142284;-1;0;-149;0;0;0;72;74;83;80;83;196.41;19;-13.00;-9.00;-981.00
1716382758591446161;-1;0;-149;0;0;0;72;74;82;80;83;196.39;19;-14.00;-7.00;-994.00
1716382758681255102;-1;0;-149;0;0;0;72;74;83;80;83;196.37;19;-25.00;7.00;-1006.00
1716382758784197568;0;0;-149;0;0;0;72;74;83;80;83;196.44;19;-25.00;-3.00;-993.00
1716382758890202045;-4;0;-149;0;0;0;72;75;81;80;83;196.44;19;-28.00;1.00;-1021.00
1716382758993865489;-8;0;-149;0;0;0;72;75;82;80;83;196.41;20;0.00;-1.00;-978.00
1716382759088329315;-8;0;-149;-1;-1;0;72;75;82;70;83;196.41;20;-47.00;3.00;-1010.00
1716382759195426225;-8;0;-149;-2;-1;0;72;75;82;70;83;196.40;20;-46.00;7.00;-1033.00
1716382759292375564;-8;0;-149;-3;-2;0;72;75;83;70;83;196.44;20;-43.00;1.00;-989.00
1716382759397214174;-8;0;-149;-4;-2;0;72;75;82;70;83;196.35;20;-53.00;-4.00;-987.00
1716382759497721910;-8;0;-149;-5;-3;0;72;75;82;70;83;196.44;20;-50.00;-19.00;-1009.00
1716382759597409009;-7;0;-149;-6;-3;0;72;75;81;70;83;196.34;20;-52.00;-19.00;-1015.00
1716382759701224088;-6;1;-149;-7;-3;0;72;75;81;70;83;196.34;20;-59.00;-5.00;-1005.00
1716382759801649093;-6;0;-149;-7;-4;0;72;75;81;70;83;196.31;20;-73.00;-7.00;-1012.00
1716382759903470754;-5;0;-149;-7;-4;0;71;74;82;70;83;196.34;20;-76.00;-5.00;-994.00
1716382760009654045;-2;0;-149;-7;-4;0;71;74;83;80;83;196.34;21;-74.00;-9.00;-994.00
1716382760111685276;0;0;-149;-7;-4;0;71;74;84;80;83;196.35;21;-69.00;-4.00;-990.00
1716382760210792779;2;0;-149;-6;-3;0;71;74;84;80;83;196.48;21;-59.00;-12.00;-1001.00
1716382760323208332;3;0;-149;-5;-3;0;71;74;83;80;83;196.44;21;-58.00;-1.00;-1010.00
1716382760414535284;3;0;-149;-4;-2;0;71;74;83;80;83;196.44;21;-41.00;-13.00;-995.00
1716382760521068811;1;0;-149;-3;-1;0;71;74;83;80;83;196.49;21;-42.00;-1.00;-1000.00
1716382760619075536;0;0;-149;-3;-1;0;71;74;83;80;82;196.55;21;-40.00;-8.00;-992.00
1716382760720482826;0;0;-149;-2;-1;0;71;74;82;80;82;196.47;21;-36.00;-3.00;-991.00
1716382760824114322;-1;0;-149;-2;-1;0;71;74;81;80;82;196.48;21;-37.00;0.00;-990.00
1716382760925346612;-1;0;-149;-2;-1;0;71;74;81;80;82;196.53;21;-39.00;-1.00;-988.00
1716382761026662111;0;-2;-149;-2;-1;0;71;74;81;80;82;196.45;22;-31.00;-15.00;-1033.00
1716382761132611989;3;0;-149;-2;0;0;71;74;81;70;82;196.52;22;-36.00;-1.00;-996.00
1716382761230398893;3;1;-149;-1;0;0;71;74;80;70;82;196.48;22;-41.00;-2.00;-999.00
1716382761332672119;1;0;-149;0;0;0;71;74;80;70;82;196.44;22;-7.00;-9.00;-1015.00
1716382761438219308;0;0;-146;0;0;0;71;74;80;70;82;196.51;22;14.00;-24.00;-1029.00
1716382761542350292;0;0;-140;0;0;0;71;74;80;70;82;196.55;22;-20.00;2.00;-998.00
1716382761588909864;0;0;-134;0;0;0;71;74;79;70;82;196.49;22;-18.00;4.00;-988.00
1716382761690790891;0;0;-127;0;0;0;71;74;79;70;82;196.51;22;-15.00;-2.00;-999.00
1716382761797229528;0;0;-121;0;0;0;71;74;79;70;82;196.44;22;0.00;-4.00;-1004.00
1716382761948184490;0;0;-115;0;0;0;72;75;79;70;82;196.44;22;-14.00;-18.00;-975.00
1716382761998129129;0;0;-108;0;0;0;72;75;79;70;82;196.41;23;-11.00;4.00;-1006.00
1716382762099599361;0;0;-102;0;0;0;72;75;79;70;82;196.54;23;-20.00;0.00;-1014.00
1716382762201327800;0;0;-96;0;0;0;72;75;79;70;82;196.50;23;-11.00;2.00;-1005.00
1716382762304558992;0;0;-90;0;0;0;72;75;79;70;82;196.50;23;-19.00;11.00;-1026.00
1716382762410553693;0;0;-84;0;0;0;72;75;79;70;82;196.53;23;-13.00;-7.00;-986.00
1716382762520234823;0;0;-79;0;0;0;72;75;80;70;82;196.52;23;-17.00;4.00;-1006.00
1716382762612634658;0;0;-73;0;0;0;72;75;80;70;82;196.53;23;-16.00;5.00;-996.00
1716382762724319696;0;0;-67;0;0;0;72;75;80;70;82;196.50;23;-9.00;0.00;-996.00
1716382762817929983;0;0;-61;0;0;0;72;75;81;70;82;196.52;23;4.00;-12.00;-976.00
1716382762928986787;0;0;-56;0;0;0;72;75;81;70;82;196.58;23;-12.00;-6.00;-985.00
1716382763022239446;0;0;-50;0;0;0;72;75;81;70;82;196.51;24;-10.00;4.00;-999.00
1716382763125405550;0;0;-44;0;0;0;72;75;81;70;82;196.52;24;-13.00;7.00;-990.00
1716382763229791641;0;0;-38;0;0;0;72;75;81;70;82;196.54;24;-6.00;-1.00;-1005.00
