timestampns;pitch;roll;yaw;vgx;vgy;vgz;templ;temph;tof;h;bat;baro;time;agx;agy;agz;
1716551330542170047;0;0;0;0;0;0;62;65;10;0;90;136.21;0;-5.00;2.00;-999.00
1716551330644267797;0;0;0;0;0;0;62;65;10;0;90;136.21;0;-7.00;3.00;-998.00
1716551330747889041;0;0;0;0;0;0;62;65;10;0;90;136.24;0;-6.00;5.00;-999.00
1716551330848344564;0;0;0;0;0;0;62;65;10;0;90;136.24;0;0.00;7.00;-1002.00
1716551330950376987;0;0;0;0;0;0;62;65;10;0;90;136.24;0;-6.00;6.00;-996.00
1716551331052461385;0;0;0;0;0;0;62;65;10;0;90;136.24;0;3.00;4.00;-1007.00
1716551331157395362;-1;0;0;0;0;0;62;65;10;0;90;136.24;0;2.00;-17.00;-1013.00
1716551331256501913;-2;0;0;0;0;0;62;65;10;0;90;136.24;0;-11.00;-9.00;-1123.00
1716551331359966278;0;0;0;1;0;-3;62;65;17;0;90;136.24;0;5.00;-5.00;-1301.00
1716551331462990522;2;0;0;1;0;-6;63;66;16;0;90;136.24;0;14.00;-3.00;-1294.00
1716551331567857742;2;0;0;0;0;-7;63;66;16;0;90;136.59;0;8.00;-15.00;-1125.00
1716551331666857242;1;0;0;0;0;-7;63;66;22;10;90;136.69;0;-8.00;11.00;-1062.00
1716551331769501924;1;0;0;0;0;-7;63;66;31;10;90;136.71;1;-6.00;7.00;-979.00
1716551331885110378;0;0;0;0;0;-6;63;66;39;20;90;136.79;1;10.00;-7.00;-944.00
1716551331970635175;0;0;0;0;0;-5;63;66;47;20;90;136.91;1;17.00;-4.00;-931.00
1716551332072513580;0;0;0;0;0;-4;63;66;55;20;90;136.93;1;6.00;-4.00;-910.00
1716551332174783945;0;0;0;0;0;-3;63;66;61;30;90;137.02;1;-5.00;8.00;-939.00
1716551332276509284;0;0;0;0;0;-2;63;66;68;30;90;137.15;1;13.00;0.00;-923.00
1716551332379504442;-1;0;0;0;0;-2;63;66;75;30;90;137.17;1;18.00;-1.00;-945.00
1716551332481261968;0;0;0;0;0;-1;63;65;80;40;90;137.26;1;15.00;-3.00;-918.00
1716551332531903505;0;0;0;0;0;-1;63;65;84;40;90;137.24;1;0.00;0.00;-939.00
1716551332638250350;0;0;0;0;0;0;63;65;88;40;90;137.33;1;3.00;0.00;-938.00
1716551332735493183;0;0;0;0;0;0;63;65;91;40;90;137.30;2;4.00;1.00;-958.00
1716551332837339401;0;0;0;0;0;0;63;65;94;50;90;137.48;2;4.00;9.00;-965.00
1716551332939517736;0;0;0;0;0;0;63;65;96;50;90;137.38;2;22.00;-8.00;-938.00
1716551333041159391;0;0;0;0;0;0;63;65;98;50;90;137.38;2;-3.00;-2.00;-944.00
1716551333146944761;0;0;0;0;0;0;63;65;99;50;90;137.40;2;-10.00;12.00;-968.00
1716551333246739864;0;0;0;0;0;0;63;65;100;50;90;137.45;2;6.00;0.00;-948.00
1716551333350207090;0;0;0;0;0;0;63;65;100;50;90;137.46;2;5.00;1.00;-970.00
1716551333454426288;-1;0;0;0;0;1;63;65;100;50;90;137.44;2;2.00;2.00;-957.00
1716551333559932947;-1;0;0;0;0;1;63;65;100;60;90;137.46;2;-15.00;4.00;-966.00
1716551333655630826;-1;0;0;0;0;1;63;65;100;60;90;137.46;2;7.00;-1.00;-974.00
1716551333761158227;0;0;0;0;0;1;63;65;99;60;90;137.35;3;9.00;-2.00;-975.00
1716551333859047651;0;0;0;0;0;1;63;65;98;50;90;137.41;3;-5.00;6.00;-980.00
1716551333960331916;0;0;0;0;0;1;63;65;97;50;90;137.42;3;-7.00;4.00;-999.00
1716551334062614679;0;0;0;0;0;1;63;65;95;50;90;137.38;3;-9.00;5.00;-995.00
1716551334166227817;0;0;0;0;0;1;63;65;94;50;90;137.39;3;3.00;-1.00;-993.00
1716551334267415285;0;0;0;0;0;1;63;65;93;50;90;137.35;3;-18.00;3.00;-1000.00
1716551334369891405;0;0;0;0;0;1;63;65;91;50;90;137.41;3;-6.00;1.00;-1005.00
1716551334480718374;0;0;0;0;0;1;63;65;91;50;90;137.36;3;1.00;-2.00;-1006.00
1716551334575225114;0;0;0;0;0;1;63;65;89;50;90;137.37;3;1.00;1.00;-996.00
1716551334679114341;0;0;0;0;0;1;63;65;88;50;90;137.36;3;3.00;7.00;-994.00
1716551334778280258;0;0;0;0;0;1;63;65;86;50;90;137.34;4;-7.00;2.00;-1005.00
1716551334880142450;0;0;0;0;0;1;63;65;85;50;90;137.30;4;5.00;-4.00;-1001.00
1716551334982801198;0;0;0;0;0;1;63;65;84;50;90;137.34;4;-7.00;4.00;-1007.00
1716551335032305717;0;0;0;0;0;1;63;65;83;40;90;137.35;4;-14.00;9.00;-1009.00
1716551335136368989;0;0;0;0;0;0;63;65;83;40;90;137.25;4;13.00;-14.00;-985.00
1716551335236209869;0;0;0;0;0;0;63;65;82;40;90;137.30;4;-9.00;-1.00;-1012.00
1716551335338395357;0;0;0;0;0;0;63;65;82;40;89;137.29;4;8.00;-7.00;-1014.00
1716551335440355062;0;0;0;0;0;0;63;65;81;40;89;137.28;4;-1.00;-3.00;-1008.00
1716551335542804718;0;0;0;0;0;0;63;65;81;40;89;137.21;4;-6.00;4.00;-1018.00
1716551335644166231;0;0;0;0;0;0;63;65;80;40;89;137.29;4;0.00;-4.00;-997.00
1716551335746160984;0;0;0;0;0;0;63;65;80;40;89;137.33;5;-10.00;-5.00;-1009.00
1716551335852744340;0;0;0;0;0;0;63;65;80;40;89;137.30;5;-1.00;9.00;-1005.00
1716551335954205513;0;0;0;0;0;0;63;65;80;40;89;137.32;5;-5.00;1.00;-1012.00
1716551336057719945;0;0;0;0;0;0;63;65;80;40;89;137.31;5;-1.00;-8.00;-1013.00
1716551336155381441;0;0;0;0;0;0;63;65;80;40;89;137.27;5;-8.00;-3.00;-1008.00
1716551336257119894;0;0;0;0;0;0;63;65;80;40;89;137.28;5;-13.00;-3.00;-1008.00
1716551336372944116;0;0;0;0;0;0;63;65;80;40;89;137.30;5;7.00;1.00;-995.00
1716551336460227727;0;0;0;0;0;0;63;65;81;40;89;137.36;5;3.00;-6.00;-990.00
1716551336562414884;0;0;0;0;0;0;63;65;81;40;89;137.29;5;1.00;-7.00;-992.00
1716551336664664268;0;0;0;0;0;0;63;65;81;40;89;137.35;5;-8.00;5.00;-1008.00
1716551336768886804;0;0;0;0;0;0;63;65;81;40;89;137.28;6;-4.00;2.00;-993.00
1716551336869291067;0;0;0;0;0;0;63;65;81;40;89;137.32;6;1.00;-4.00;-1003.00
1716551336971269130;0;0;0;0;0;0;63;65;81;40;89;137.33;6;1.00;-7.00;-1002.00
1716551337073148488;0;0;0;0;0;0;63;65;81;40;89;137.35;6;0.00;-6.00;-1003.00
1716551337175088644;0;0;0;0;0;0;63;65;81;40;89;137.34;6;0.00;-4.00;-998.00
1716551337277253150;0;0;0;0;0;0;63;65;81;40;89;137.32;6;-6.00;-7.00;-996.00
1716551337381170988;0;0;0;0;0;0;63;65;81;40;88;137.35;6;-5.00;-6.00;-993.00
1716551337485867738;0;0;0;0;0;0;64;66;81;40;88;137.36;6;-9.00;0.00;-1000.00
1716551337586908102;0;0;0;0;0;0;64;66;81;40;88;137.35;6;-18.00;3.00;-974.00
1716551337686180114;0;0;0;0;0;0;64;66;81;40;88;137.33;6;7.00;-9.00;-972.00
1716551337789922714;0;0;0;0;0;0;64;66;80;40;88;137.33;7;-12.00;4.00;-934.00
1716551337890540122;0;0;0;0;0;1;64;66;79;40;88;137.25;7;-3.00;8.00;-927.00
1716551337992620944;0;0;0;0;0;2;64;66;77;40;88;137.31;7;-3.00;-9.00;-899.00
1716551338096039533;0;0;0;0;0;3;64;66;75;40;88;137.29;7;-5.00;-6.00;-915.00
1716551338197243213;0;0;0;0;0;3;64;66;71;30;88;137.28;7;-4.00;3.00;-949.00
1716551338298066854;0;0;0;0;0;4;64;66;68;30;88;137.20;7;0.00;-2.00;-960.00
1716551338400091409;0;0;0;0;0;4;64;66;63;30;88;137.20;7;7.00;-7.00;-970.00
1716551338502468347;0;0;0;0;0;4;64;66;59;20;88;137.19;7;8.00;-11.00;-973.00
1716551338605353355;0;0;0;0;0;4;64;66;55;20;88;137.13;7;-12.00;5.00;-983.00
1716551338656420707;0;0;0;0;0;4;64;66;50;10;88;137.10;7;-5.00;4.00;-1011.00
1716551338763025045;0;0;0;0;0;4;64;66;45;10;88;136.99;8;-6.00;-10.00;-993.00
1716551338864546298;0;0;0;0;0;4;64;66;39;0;88;137.01;8;2.00;-10.00;-997.00
1716551338967381954;0;0;0;0;0;4;64;66;34;0;88;137.03;8;1.00;-1.00;-993.00
1716551339070269584;0;0;0;0;0;4;64;66;30;0;88;136.92;8;5.00;-1.00;-1010.00
1716551339168050527;0;0;0;0;0;4;64;66;26;0;88;136.86;8;-3.00;-13.00;-1001.00
1716551339269865989;0;0;0;0;0;4;64;66;21;0;88;136.80;8;-11.00;0.00;-1013.00
1716551339372947216;0;0;0;0;0;4;64;66;16;-10;87;136.75;8;-13.00;-5.00;-998.00
1716551339473964452;0;0;0;0;0;4;63;66;15;-10;87;136.41;8;-23.00;4.00;-1026.00
1716551339578011035;0;0;0;0;0;3;63;66;12;-20;87;136.00;8;7.00;-5.00;-1029.00
1716551339676214218;0;0;0;0;0;3;63;66;15;-20;87;135.13;8;-7.00;0.00;-1019.00
1716551339779639959;0;0;0;0;0;3;63;66;16;-20;87;133.92;9;4.00;-12.00;-1050.00
1716551339879956483;0;0;0;0;0;2;63;66;16;-30;87;133.08;9;-7.00;-10.00;-1070.00
1716551339982222795;0;0;0;0;0;0;63;66;16;-30;87;134.06;9;-11.00;10.00;-661.00
1716551340086208581;0;0;0;0;0;0;63;66;16;-30;87;133.84;9;17.00;10.00;-915.00
1716551340187183618;0;0;0;1;0;0;63;66;16;-30;87;134.13;9;-22.00;-12.00;-896.00
1716551340289191961;0;0;0;1;0;0;63;66;16;-30;87;134.76;9;-15.00;12.00;-1001.00
1716551340391349077;0;0;0;1;0;0;63;66;16;-30;87;135.11;9;19.00;10.00;-998.00
1716551340494347810;0;0;0;1;0;0;64;66;16;-30;87;135.41;9;-1.00;3.00;-992.00
1716551340594188690;0;0;0;1;0;0;64;66;16;-30;87;135.47;9;0.00;0.00;-998.00
1716551340695996046;0;0;0;1;0;0;64;66;16;-30;87;135.50;9;3.00;-12.00;-997.00
1716551340798011064;0;0;0;1;0;0;64;66;16;-40;87;135.67;10;2.00;-4.00;-999.00
1716551340904103517;0;0;0;1;0;0;64;66;10;-40;87;135.72;10;2.00;4.00;-995.00
1716551341001935720;0;0;0;1;0;1;64;66;10;0;87;136.06;10;2.00;2.00;-995.00
1716551341104583978;0;0;0;1;0;2;64;66;10;0;87;136.19;10;4.00;4.00;-991.00
1716551341206116437;0;0;0;1;0;3;64;66;10;0;87;136.31;10;5.00;1.00;-992.00
1716551341309034585;0;0;0;2;0;3;64;66;10;0;86;136.36;10;0.00;4.00;-991.00
1716551341410153627;0;0;0;0;0;0;64;66;10;0;86;136.38;10;5.00;0.00;-993.00
1716551341511953115;0;0;0;0;0;0;63;66;10;0;86;136.44;10;2.00;3.00;-993.00
1716551341614897251;0;0;0;0;0;0;63;66;10;0;86;136.44;10;3.00;1.00;-993.00
1716551341723374128;0;0;0;0;0;0;63;66;10;0;86;136.47;10;2.00;1.00;-994.00
1716551341829331874;0;0;0;0;0;0;63;66;10;0;86;136.45;10;3.00;1.00;-992.00
1716551341919746398;0;0;0;0;0;0;63;66;10;0;86;136.43;10;2.00;1.00;-995.00
1716551341970717668;0;0;0;0;0;0;63;66;10;0;86;136.47;10;3.00;1.00;-993.00
1716551342073004484;0;0;0;0;0;0;63;66;10;0;86;136.48;10;3.00;1.00;-995.00
1716551342175033330;0;0;0;0;0;0;63;66;10;0;86;136.48;10;1.00;2.00;-994.00
1716551342276865005;0;0;0;0;0;0;63;66;10;0;86;136.50;10;2.00;1.00;-994.00
1716551342383011102;0;0;0;0;0;0;63;66;10;0;86;136.48;10;2.00;2.00;-992.00
1716551342486006975;0;0;0;0;0;0;65;66;10;0;86;136.42;10;1.00;2.00;-994.00
1716551342583790302;0;0;0;0;0;0;65;66;10;0;86;136.45;10;4.00;2.00;-996.00
1716551342686082601;0;0;0;0;0;0;65;66;10;0;86;136.48;10;2.00;2.00;-994.00
1716551342791000366;0;0;0;0;0;0;65;66;10;0;86;136.45;10;2.00;1.00;-994.00
1716551342917080879;0;0;0;0;0;0;65;66;10;0;86;136.44;10;2.00;1.00;-996.00
1716551342991880178;0;0;0;0;0;0;65;66;10;0;86;136.37;10;4.00;1.00;-997.00
1716551343094332456;0;0;0;0;0;0;65;66;10;0;86;136.42;10;3.00;0.00;-993.00
1716551343195708751;0;0;0;0;0;0;65;66;10;0;86;136.46;10;2.00;1.00;-995.00
1716551343298226594;0;0;0;0;0;0;65;66;10;0;85;136.47;10;2.00;0.00;-996.00
1716551343401949882;0;0;0;0;0;0;65;66;10;0;85;136.48;10;4.00;3.00;-997.00
1716551343501985788;0;0;0;0;0;0;65;66;10;0;85;136.47;10;3.00;1.00;-995.00
1716551343604115724;0;0;0;0;0;0;65;66;10;0;85;136.48;10;3.00;1.00;-997.00
1716551343705743312;0;0;0;0;0;0;65;66;10;0;85;136.49;10;3.00;1.00;-998.00
1716551343807856798;0;0;0;0;0;0;65;66;10;0;85;136.53;10;5.00;0.00;-998.00
1716551343909945011;0;0;0;0;0;0;65;66;10;0;85;136.52;10;5.00;2.00;-999.00
1716551344013119697;0;0;0;0;0;0;65;66;10;0;85;136.47;10;3.00;1.00;-998.00
1716551344114761114;0;0;0;0;0;0;65;66;10;0;85;136.48;10;5.00;2.00;-998.00
1716551344223635435;0;0;0;0;0;0;65;66;10;0;85;136.48;10;3.00;2.00;-998.00
1716551344319581031;0;0;0;0;0;0;65;66;10;0;85;136.44;10;3.00;2.00;-997.00
1716551344419841527;0;0;0;0;0;0;65;66;10;0;85;136.51;10;2.00;1.00;-997.00
1716551344529612779;0;0;0;0;0;0;64;66;10;0;85;136.47;10;3.00;1.00;-998.00
1716551344625169992;0;0;0;0;0;0;64;66;10;0;85;136.49;10;4.00;1.00;-997.00
1716551344728239774;0;0;0;0;0;0;64;66;10;0;85;136.43;10;2.00;1.00;-997.00
1716551344828664541;0;0;0;0;0;0;64;66;10;0;85;136.47;10;4.00;2.00;-998.00
1716551344930706501;0;0;0;0;0;0;64;66;10;0;85;136.48;10;3.00;2.00;-1000.00
1716551345032682657;0;0;0;0;0;0;64;66;10;0;85;136.44;10;4.00;0.00;-998.00
1716551345134961366;0;0;0;0;0;0;64;66;10;0;85;136.45;10;4.00;2.00;-1002.00
1716551345236930847;0;0;0;0;0;0;64;66;10;0;85;136.47;10;2.00;0.00;-999.00
1716551345288264751;0;0;0;0;0;0;64;66;10;0;84;136.47;10;4.00;2.00;-997.00
1716551345389699220;0;0;0;0;0;0;64;66;10;0;84;136.56;10;3.00;0.00;-1000.00
1716551345543196201;0;0;0;0;0;0;64;67;10;0;84;136.51;10;3.00;1.00;-998.00
1716551345595580339;0;0;0;0;0;0;64;67;10;0;84;136.45;10;2.00;2.00;-999.00
1716551345695828914;0;0;0;0;0;0;64;67;10;0;84;136.48;10;3.00;2.00;-1002.00
1716551345799080371;0;0;0;0;0;0;64;67;10;0;84;136.48;10;2.00;2.00;-998.00
1716551345900676488;0;0;0;0;0;0;64;67;10;0;84;136.52;10;2.00;1.00;-999.00
1716551346001611709;0;0;0;0;0;0;64;67;10;0;84;136.46;10;3.00;0.00;-1000.00
1716551346104886293;0;0;0;0;0;0;64;67;10;0;84;136.45;10;2.00;0.00;-997.00
1716551346205976486;0;0;0;0;0;0;64;67;10;0;84;136.44;10;3.00;0.00;-999.00
1716551346307494401;0;0;0;0;0;0;64;67;10;0;84;136.45;10;3.00;0.00;-1000.00
1716551346409813642;0;0;0;0;0;0;64;67;10;0;84;136.48;10;3.00;1.00;-1000.00
1716551346513319492;0;0;0;0;0;0;64;67;10;0;84;136.46;10;4.00;0.00;-1001.00
1716551346618728637;0;0;0;0;0;0;64;67;10;0;84;136.44;10;2.00;2.00;-1002.00
1716551346719429492;0;0;0;0;0;0;64;67;10;0;84;136.48;10;3.00;1.00;-999.00
1716551346820580959;0;0;0;0;0;0;64;67;10;0;84;136.48;10;2.00;2.00;-1001.00
1716551346919615507;0;0;0;0;0;0;64;67;10;0;84;136.49;10;3.00;2.00;-1001.00
1716551347021732568;0;0;0;0;0;0;64;67;10;0;84;136.45;10;3.00;0.00;-1000.00
1716551347124267578;0;0;0;0;0;0;64;67;10;0;84;136.49;10;1.00;2.00;-999.00
1716551347225714683;0;0;0;0;0;0;64;67;10;0;84;136.45;10;2.00;0.00;-1002.00
1716551347327762126;0;0;0;0;0;0;64;67;10;0;84;136.49;10;4.00;0.00;-999.00
1716551347436955213;0;0;0;0;0;0;64;67;10;0;84;136.50;10;4.00;0.00;-1003.00
1716551347531743764;0;0;0;0;0;0;64;66;10;0;84;136.45;10;2.00;0.00;-1001.00
1716551347634814977;0;0;0;0;0;0;64;66;10;0;84;136.43;10;3.00;0.00;-1003.00
1716551347735807657;0;0;0;0;0;0;64;66;10;0;84;136.47;10;3.00;0.00;-1002.00
1716551347837692022;0;0;0;0;0;0;64;66;10;0;84;136.40;10;4.00;1.00;-1001.00
1716551347941023349;0;0;0;0;0;0;64;66;10;0;84;136.45;10;3.00;2.00;-1002.00
1716551348044801235;0;0;0;0;0;0;64;66;10;0;84;136.43;10;3.00;2.00;-998.00
1716551348143564462;0;0;0;0;0;0;64;66;10;0;84;136.45;10;5.00;1.00;-1001.00
1716551348247658252;0;0;0;0;0;0;64;66;10;0;84;136.45;10;4.00;2.00;-999.00
1716551348348512172;0;0;0;0;0;0;64;66;10;0;84;136.45;10;4.00;1.00;-999.00
1716551348398487806;0;0;0;0;0;0;64;66;10;0;84;136.45;10;5.00;2.00;-998.00
1716551348555130958;0;0;0;0;0;0;64;67;10;0;84;136.45;10;3.00;1.00;-1001.00
1716551348655085802;0;0;0;0;0;0;64;67;10;0;84;136.44;10;4.00;1.00;-999.00
1716551348705849409;0;0;0;0;0;0;64;67;10;0;84;136.40;10;4.00;2.00;-1000.00
1716551348810199975;0;0;0;0;0;0;64;67;10;0;84;136.45;10;4.00;1.00;-1001.00
1716551348909492254;0;0;0;0;0;0;64;67;10;0;84;136.46;10;3.00;2.00;-1001.00
1716551349013725996;0;0;0;0;0;0;64;67;10;0;84;136.44;10;3.00;2.00;-998.00
1716551349118198871;0;0;0;0;0;0;64;67;10;0;84;136.46;10;4.00;1.00;-1000.00
1716551349222407341;0;0;0;0;0;0;64;67;10;0;84;136.41;10;3.00;2.00;-1001.00
1716551349317682504;0;0;0;0;0;0;64;67;10;0;84;136.43;10;4.00;3.00;-1001.00
1716551349425632238;0;0;0;0;0;0;64;67;10;0;84;136.44;10;2.00;0.00;-1000.00
1716551349521479606;0;0;0;0;0;0;65;67;10;0;84;136.39;10;4.00;2.00;-1001.00
1716551349624685525;0;0;0;0;0;0;65;67;10;0;84;136.41;10;4.00;1.00;-1000.00
1716551349734063625;0;0;0;0;0;0;65;67;10;0;84;136.41;10;4.00;3.00;-1003.00
1716551349832696676;0;0;0;0;0;0;65;67;10;0;84;136.37;10;4.00;1.00;-1000.00
1716551349930414438;0;0;0;0;0;0;65;67;10;0;84;136.40;10;4.00;1.00;-1000.00
1716551350032606124;0;0;0;0;0;0;65;67;10;0;84;136.41;10;3.00;1.00;-1000.00
1716551350134503126;0;0;0;0;0;0;65;67;10;0;84;136.41;10;3.00;0.00;-1002.00
1716551350245078802;0;0;0;0;0;0;65;67;10;0;84;136.40;10;2.00;1.00;-1003.00
1716551350339520931;0;0;0;0;0;0;65;67;10;0;84;136.39;10;3.00;1.00;-1002.00
1716551350442093610;0;0;0;0;0;0;65;67;10;0;84;136.43;10;3.00;0.00;-1001.00
1716551350543802738;0;0;0;0;0;0;65;68;10;0;84;136.44;10;4.00;1.00;-999.00
1716551350647009372;0;0;0;0;0;0;65;68;10;0;84;136.47;10;3.00;2.00;-999.00
1716551350752494573;0;0;0;0;0;0;65;68;10;0;84;136.41;10;4.00;1.00;-1003.00
1716551350852082252;0;0;0;0;0;0;65;68;10;0;84;136.34;10;2.00;2.00;-1001.00
1716551350953575611;0;0;0;0;0;0;65;68;10;0;84;136.42;10;2.00;2.00;-1001.00
1716551351058898210;0;0;0;0;0;0;65;68;10;0;84;136.43;10;4.00;2.00;-1002.00
1716551351155779600;0;0;0;0;0;0;65;68;10;0;84;136.35;10;3.00;0.00;-1000.00
1716551351257446765;0;0;0;0;0;0;65;68;10;0;84;136.33;10;3.00;2.00;-1002.00
1716551351359557628;0;0;0;0;0;0;65;68;10;0;84;136.35;10;3.00;2.00;-1000.00
1716551351463622808;0;0;0;0;0;0;65;68;10;0;84;136.37;10;3.00;0.00;-1001.00
1716551351563412666;0;0;0;0;0;0;65;67;10;0;84;136.39;10;4.00;1.00;-1002.00
1716551351665407419;0;0;0;0;0;0;65;67;10;0;84;136.40;10;4.00;1.00;-1002.00
1716551351771574497;0;0;0;0;0;0;65;67;10;0;84;136.37;10;3.00;1.00;-1001.00
1716551351869552373;0;0;0;0;0;0;65;67;10;0;84;136.35;10;3.00;0.00;-999.00
1716551351971796274;0;0;0;0;0;0;65;67;10;0;84;136.39;10;2.00;1.00;-1001.00
1716551352074285745;0;0;0;0;0;0;65;67;10;0;84;136.44;10;5.00;0.00;-1000.00
1716551352175345420;0;0;0;0;0;0;65;67;10;0;84;136.38;10;3.00;2.00;-1001.00
1716551352226345539;0;0;0;0;0;0;65;67;10;0;84;136.39;10;3.00;0.00;-999.00
1716551352328722953;0;0;0;0;0;0;65;67;10;0;84;136.38;10;4.00;0.00;-1002.00
1716551352430387020;0;0;0;0;0;0;65;67;10;0;84;136.39;10;2.00;2.00;-1000.00
1716551352532809972;0;0;0;0;0;0;65;67;10;0;84;136.39;10;5.00;1.00;-999.00
1716551352634973287;0;0;0;0;0;0;65;67;10;0;84;136.37;10;3.00;2.00;-998.00
1716551352736382722;0;0;0;0;0;0;65;67;10;0;84;136.41;10;4.00;0.00;-999.00
1716551352838374614;0;0;0;0;0;0;65;67;10;0;84;136.40;10;3.00;2.00;-1000.00
1716551352941099405;0;0;0;0;0;0;65;67;10;0;84;136.38;10;2.00;1.00;-1000.00
1716551353042615652;0;0;0;0;0;0;65;67;10;0;84;136.33;10;4.00;1.00;-1000.00
1716551353145272016;0;0;0;0;0;0;65;67;10;0;84;136.39;10;2.00;2.00;-999.00
1716551353251617431;0;0;0;0;0;0;65;67;10;0;84;136.33;10;3.00;0.00;-1002.00
1716551353355937242;0;0;0;0;0;0;65;67;10;0;84;136.39;10;4.00;0.00;-1000.00
1716551353454266309;0;0;0;0;0;0;65;67;10;0;84;136.40;10;2.00;1.00;-1000.00
1716551353556675434;0;0;0;0;0;0;65;68;10;0;84;136.38;10;4.00;3.00;-998.00
1716551353656307220;0;0;0;0;0;0;65;68;10;0;84;136.36;10;3.00;1.00;-999.00
1716551353758444309;0;0;0;0;0;0;65;68;10;0;84;136.37;10;5.00;0.00;-998.00
1716551353860831260;0;0;0;0;0;0;65;68;10;0;84;136.39;10;3.00;2.00;-1000.00
1716551353968622684;0;0;0;0;0;0;65;68;10;0;84;136.43;10;4.00;2.00;-1001.00
1716551354067102670;0;0;0;0;0;0;65;68;10;0;84;136.36;10;3.00;2.00;-1001.00
1716551354167082309;0;0;0;0;0;0;65;68;10;0;84;136.39;10;5.00;1.00;-1001.00
1716551354268523454;0;0;0;0;0;0;65;68;10;0;84;136.43;10;4.00;0.00;-999.00
1716551354370738744;0;0;0;0;0;0;65;68;10;0;84;136.36;10;4.00;2.00;-1000.00
1716551354473991632;0;0;0;0;0;0;65;68;10;0;84;136.41;10;3.00;1.00;-1001.00
1716551354576026439;0;0;0;0;0;0;66;68;10;0;84;136.33;10;2.00;0.00;-1000.00
1716551354680825233;0;0;0;0;0;0;66;68;10;0;84;136.39;10;4.00;1.00;-1004.00
1716551354783354997;0;0;0;0;0;0;66;68;10;0;84;136.41;10;3.00;1.00;-1000.00
1716551354886259794;0;0;0;0;0;0;66;68;10;0;84;136.37;10;3.00;1.00;-1000.00
1716551354986971616;0;0;0;0;0;0;66;68;10;0;84;136.39;10;3.00;0.00;-999.00
1716551355090106248;0;0;0;0;0;0;66;68;10;0;84;136.36;10;4.00;1.00;-998.00
1716551355189388751;0;0;0;0;0;0;66;68;10;0;84;136.38;10;3.00;1.00;-1000.00
1716551355294998645;0;0;0;0;0;0;66;68;10;0;84;136.39;10;3.00;1.00;-1000.00
1716551355391425132;0;0;0;0;0;0;66;68;10;0;84;136.37;10;4.00;0.00;-998.00
1716551355496641397;0;0;0;0;0;0;66;68;10;0;84;136.38;10;3.00;0.00;-1000.00
1716551355595339536;0;0;0;0;0;0;65;69;10;0;84;136.39;10;3.00;0.00;-999.00
1716551355697428703;0;0;0;0;0;0;65;69;10;0;84;136.41;10;3.00;0.00;-998.00
1716551355799576044;0;0;0;0;0;0;65;69;10;0;84;136.38;10;2.00;1.00;-1000.00
1716551355854411125;0;0;0;0;0;0;65;69;10;0;84;136.36;10;3.00;0.00;-1002.00
1716551355951846361;0;0;0;0;0;0;65;69;10;0;84;136.35;10;2.00;1.00;-1002.00
1716551356059521675;0;0;0;0;0;0;65;69;10;0;84;136.29;10;4.00;0.00;-1002.00
1716551356156515598;0;0;0;0;0;0;65;69;10;0;84;136.38;10;4.00;2.00;-1000.00
1716551356258680582;0;0;0;0;0;0;65;69;10;0;84;136.41;10;5.00;2.00;-1002.00
1716551356360129117;0;0;0;0;0;0;65;69;10;0;84;136.34;10;4.00;1.00;-1002.00
1716551356462326526;0;0;0;0;0;0;65;69;10;0;84;136.33;10;3.00;2.00;-1003.00
1716551356566578865;0;0;0;0;0;0;67;68;10;0;84;136.36;10;3.00;3.00;-1000.00
1716551356669454097;0;0;0;0;0;0;67;68;10;0;84;136.34;10;2.00;1.00;-1001.00
1716551356768294811;0;0;0;0;0;0;67;68;10;0;84;136.39;10;1.00;0.00;-997.00
1716551356870294809;0;0;0;0;0;0;67;68;10;0;84;136.35;10;3.00;2.00;-1000.00
1716551356972104310;0;0;0;0;0;0;67;68;10;0;84;136.33;10;3.00;1.00;-1001.00
1716551357074374675;0;0;0;0;0;0;67;68;10;0;84;136.30;10;3.00;0.00;-1003.00
1716551357180835008;0;0;0;0;0;0;67;68;10;0;84;136.34;10;4.00;3.00;-1001.00
1716551357279381275;0;0;0;0;0;0;67;68;10;0;84;136.35;10;3.00;2.00;-1000.00
1716551357382921934;0;0;0;0;0;0;67;68;10;0;84;136.28;10;4.00;1.00;-999.00
1716551357483569860;0;0;0;0;0;0;67;68;10;0;84;136.32;10;3.00;1.00;-999.00
1716551357586413621;0;0;0;0;0;0;66;68;10;0;84;136.31;10;3.00;0.00;-1001.00
1716551357687267065;0;0;0;0;0;0;66;68;10;0;84;136.31;10;6.00;0.00;-1000.00
1716551357789315700;0;0;0;0;0;0;66;68;10;0;84;136.30;10;3.00;1.00;-999.00
1716551357891551017;0;0;0;0;0;0;66;68;10;0;84;136.34;10;4.00;2.00;-1001.00
1716551357993184089;0;0;0;0;0;0;66;68;10;0;84;136.28;10;3.00;1.00;-1001.00
1716551358094993352;0;0;0;0;0;0;66;68;10;0;84;136.29;10;5.00;1.00;-1001.00
1716551358197113513;0;0;0;0;0;0;66;68;10;0;84;136.33;10;4.00;2.00;-1002.00
1716551358299017906;0;0;0;0;0;0;66;68;10;0;84;136.30;10;2.00;2.00;-999.00
1716551358401182651;0;0;0;0;0;0;66;68;10;0;84;136.34;10;4.00;1.00;-1002.00
1716551358503041505;0;0;0;0;0;0;66;68;10;0;84;136.36;10;3.00;1.00;-1002.00
1716551358606411695;0;0;0;0;0;0;66;68;10;0;84;136.37;10;4.00;1.00;-999.00
1716551358707184076;0;0;0;0;0;0;66;68;10;0;84;136.37;10;3.00;2.00;-1001.00
1716551358809676885;0;0;0;0;0;0;66;68;10;0;84;136.31;10;3.00;2.00;-1001.00
1716551358912809133;0;0;0;0;0;0;66;68;10;0;84;136.32;10;3.00;1.00;-1000.00
1716551359015041828;0;0;0;0;0;0;66;68;10;0;84;136.34;10;4.00;2.00;-999.00
1716551359119254112;0;0;0;0;0;0;66;68;10;0;84;136.36;10;5.00;0.00;-1000.00
1716551359166159629;0;0;0;0;0;0;66;68;10;0;84;136.35;10;4.00;1.00;-1000.00
1716551359268114089;0;0;0;0;0;0;66;68;10;0;84;136.38;10;4.00;0.00;-1001.00
1716551359371558189;0;0;0;0;0;0;66;68;10;0;84;136.39;10;3.00;1.00;-1000.00
1716551359473457813;0;0;0;0;0;0;66;68;10;0;84;136.34;10;4.00;1.00;-1003.00
1716551359579519033;0;0;0;0;0;0;66;69;10;0;84;136.32;10;3.00;2.00;-1000.00
1716551359682362079;0;0;0;0;0;0;66;69;10;0;84;136.39;10;4.00;2.00;-1001.00
1716551359783993005;0;0;0;0;0;0;66;69;10;0;84;136.35;10;3.00;2.00;-1002.00
1716551359891974210;0;0;0;0;0;0;66;69;10;0;84;136.35;10;3.00;2.00;-1000.00
1716551359988783121;0;0;0;0;0;0;66;69;10;0;84;136.38;10;4.00;2.00;-1002.00
1716551360090008258;0;0;0;0;0;0;66;69;10;0;84;136.38;10;3.00;1.00;-1000.00
1716551360190061092;0;0;0;0;0;0;66;69;10;0;84;136.39;10;3.00;1.00;-1002.00
1716551360292166948;0;0;0;0;0;0;66;69;10;0;84;136.39;10;2.00;1.00;-999.00
1716551360395013809;0;0;0;0;0;0;66;69;10;0;84;136.44;10;4.00;2.00;-1001.00
1716551360495894193;0;0;0;0;0;0;66;69;10;0;84;136.44;10;4.00;2.00;-1001.00
1716551360597944498;0;0;0;0;0;0;66;69;10;0;84;136.47;10;4.00;0.00;-998.00
1716551360700036287;0;0;0;0;0;0;66;69;10;0;84;136.44;10;4.00;1.00;-999.00
1716551360802558422;0;0;0;0;0;0;66;69;10;0;84;136.48;10;4.00;2.00;-1002.00
1716551360903902053;0;0;0;0;0;0;66;69;10;0;84;136.47;10;3.00;0.00;-999.00
1716551361007377624;0;0;0;0;0;0;66;69;10;0;84;136.48;10;3.00;0.00;-999.00
1716551361108146905;0;0;0;0;0;0;66;69;10;0;84;136.42;10;3.00;0.00;-1000.00
1716551361212195634;0;0;0;0;0;0;66;69;10;0;84;136.45;10;3.00;1.00;-1001.00
1716551361314396858;0;0;0;0;0;0;66;69;10;0;84;136.44;10;4.00;0.00;-1002.00
1716551361416546344;0;0;0;0;0;0;66;69;10;0;84;136.47;10;3.00;2.00;-1001.00
1716551361523312807;0;0;0;0;0;0;66;69;10;0;84;136.47;10;4.00;1.00;-1001.00
1716551361618015050;0;0;0;0;0;0;67;69;10;0;84;136.42;10;5.00;1.00;-1000.00
1716551361721803188;0;0;0;0;0;0;67;69;10;0;84;136.47;10;4.00;3.00;-1000.00
1716551361824160575;0;0;0;0;0;0;67;69;10;0;84;136.44;10;4.00;1.00;-1002.00
1716551361925937175;0;0;0;0;0;0;67;69;10;0;84;136.44;10;4.00;0.00;-998.00
1716551361977353811;0;0;0;0;0;0;67;69;10;0;84;136.47;10;4.00;0.00;-998.00
1716551362078002214;0;0;0;0;0;0;67;69;10;0;84;136.49;10;4.00;1.00;-1000.00
1716551362182331085;0;0;0;0;0;0;67;69;10;0;84;136.42;10;4.00;0.00;-1001.00
1716551362285506248;0;0;0;0;0;0;67;69;10;0;84;136.48;10;3.00;2.00;-998.00
1716551362386076927;0;0;0;0;0;0;67;69;10;0;84;136.42;10;4.00;0.00;-1001.00
1716551362488052368;0;0;0;0;0;0;67;69;10;0;84;136.42;10;4.00;1.00;-999.00
1716551362589323759;0;0;0;0;0;0;67;69;10;0;84;136.42;10;3.00;1.00;-1002.00
1716551362696151971;0;0;0;0;0;0;67;69;10;0;84;136.41;10;3.00;3.00;-998.00
1716551362792664289;0;0;0;0;0;0;67;69;10;0;84;136.41;10;4.00;1.00;-999.00
1716551362895006895;0;0;0;0;0;0;67;69;10;0;84;136.35;10;3.00;2.00;-1001.00
1716551362997783660;0;0;0;0;0;0;67;69;10;0;84;136.38;10;3.00;1.00;-1000.00
1716551363098856925;0;0;0;0;0;0;67;69;10;0;84;136.36;10;5.00;2.00;-1002.00
1716551363201425552;0;0;0;0;0;0;67;69;10;0;84;136.38;10;4.00;0.00;-1000.00
1716551363303254365;0;0;0;0;0;0;67;69;10;0;84;136.31;10;2.00;2.00;-1000.00
1716551363405918121;0;0;0;0;0;0;67;69;10;0;84;136.27;10;3.00;2.00;-1001.00
1716551363507040977;0;0;0;0;0;0;67;69;10;0;84;136.29;10;5.00;1.00;-1000.00
1716551363609324455;0;0;0;0;0;0;67;69;10;0;84;136.30;10;4.00;2.00;-1001.00
1716551363713436365;0;0;0;0;0;0;67;69;10;0;84;136.31;10;3.00;2.00;-1000.00
1716551363815198898;0;0;0;0;0;0;67;69;10;0;84;136.26;10;3.00;1.00;-1000.00
1716551363917285442;0;0;0;0;0;0;67;69;10;0;84;136.25;10;5.00;1.00;-1002.00
1716551364026169538;0;0;0;0;0;0;67;69;10;0;84;136.27;10;5.00;2.00;-999.00
1716551364119001865;0;0;0;0;0;0;67;69;10;0;84;136.32;10;4.00;2.00;-998.00
1716551364221213579;0;0;0;0;0;0;67;69;10;0;84;136.27;10;4.00;2.00;-999.00
1716551364322952270;0;0;0;0;0;0;67;69;10;0;84;136.27;10;5.00;1.00;-1000.00
1716551364430506706;0;0;0;0;0;0;67;69;10;0;84;136.22;10;4.00;2.00;-1002.00
1716551364527178049;0;0;0;0;0;0;67;69;10;0;84;136.18;10;2.00;1.00;-1000.00
1716551364628890514;0;0;0;0;0;0;67;69;10;0;84;136.20;10;4.00;1.00;-997.00
1716551364731103420;0;0;0;0;0;0;67;69;10;0;84;136.20;10;5.00;2.00;-1000.00
1716551364833104372;0;0;0;0;0;0;67;69;10;0;84;136.21;10;2.00;2.00;-999.00
1716551364934887409;0;0;0;0;0;0;67;69;10;0;84;136.21;10;2.00;1.00;-999.00
1716551365038134574;0;0;0;0;0;0;67;69;10;0;84;136.21;10;3.00;1.00;-1001.00
1716551365139023780;0;0;0;0;0;0;67;69;10;0;84;136.22;10;3.00;1.00;-1002.00
1716551365240859508;0;0;0;0;0;0;67;69;10;0;84;136.21;10;5.00;0.00;-1002.00
1716551365293308973;0;0;0;0;0;0;67;69;10;0;84;136.28;10;3.00;0.00;-999.00
1716551365394907951;0;0;0;0;0;0;67;69;10;0;84;136.20;10;4.00;1.00;-999.00
1716551365495836973;0;0;0;0;0;0;67;69;10;0;84;136.17;10;4.00;2.00;-1001.00
1716551365598621368;0;0;0;0;0;0;67;71;10;0;84;136.21;10;4.00;0.00;-1000.00
1716551365699946641;0;0;0;0;0;0;67;71;10;0;84;136.23;10;3.00;2.00;-1000.00
1716551365802863597;0;0;0;0;0;0;67;71;10;0;84;136.19;10;3.00;1.00;-999.00
1716551365903657674;0;0;0;0;0;0;67;71;10;0;84;136.19;10;3.00;1.00;-999.00
1716551366007297754;0;0;0;0;0;0;67;71;10;0;84;136.16;10;4.00;1.00;-996.00
1716551366107839822;0;0;0;0;0;0;67;71;10;0;84;136.20;10;3.00;2.00;-1000.00
1716551366209546327;0;0;0;0;0;0;67;71;10;0;84;136.16;10;3.00;1.00;-1001.00
1716551366311915636;0;0;0;0;0;0;67;71;10;0;84;136.20;10;3.00;2.00;-1000.00
1716551366415531635;0;0;0;0;0;0;67;71;10;0;84;136.13;10;3.00;2.00;-1002.00
1716551366521336555;0;0;0;0;0;0;67;71;10;0;84;136.20;10;3.00;2.00;-1001.00
1716551366619224548;0;0;0;0;0;0;67;70;10;0;84;136.18;10;4.00;2.00;-999.00
1716551366722665071;0;0;0;0;0;0;67;70;10;0;84;136.20;10;4.00;2.00;-1001.00
1716551366821746587;0;0;0;0;0;0;67;70;10;0;84;136.22;10;4.00;1.00;-1000.00
1716551366925269842;0;0;0;0;0;0;67;70;10;0;84;136.23;10;3.00;2.00;-1001.00
1716551367027055025;0;0;0;0;0;0;67;70;10;0;84;136.19;10;2.00;3.00;-996.00
1716551367127652168;0;0;0;0;0;0;67;70;10;0;84;136.21;10;2.00;0.00;-1003.00
1716551367230014801;0;0;0;0;0;0;67;70;10;0;84;136.21;10;5.00;1.00;-1000.00
1716551367332508087;0;0;0;0;0;0;67;70;10;0;84;136.16;10;4.00;3.00;-1000.00
1716551367433810234;0;0;0;0;0;0;67;70;10;0;84;136.22;10;2.00;2.00;-1001.00
1716551367535941362;0;0;0;0;0;0;67;70;10;0;84;136.23;10;3.00;0.00;-1000.00
1716551367637782812;0;0;0;0;0;0;68;70;10;0;84;136.19;10;2.00;0.00;-1003.00
1716551367739751338;0;0;0;0;0;0;68;70;10;0;84;136.19;10;4.00;1.00;-1003.00
1716551367841871261;0;0;0;0;0;0;68;70;10;0;84;136.23;10;3.00;0.00;-1000.00
1716551367943608999;0;0;0;0;0;0;68;70;10;0;84;136.27;10;4.00;0.00;-1004.00
1716551368053742885;0;0;0;0;0;0;68;70;10;0;84;136.20;10;4.00;2.00;-1002.00
1716551368151475191;0;0;0;0;0;0;68;70;10;0;84;136.25;10;3.00;1.00;-999.00
1716551368254564762;0;0;0;0;0;0;68;70;10;0;84;136.30;10;3.00;1.00;-1000.00
1716551368357972145;0;0;0;0;0;0;68;70;10;0;84;136.26;10;3.00;2.00;-1000.00
1716551368454633235;0;0;0;0;0;0;68;70;10;0;84;136.24;10;3.00;1.00;-1001.00
1716551368557706356;0;0;0;0;0;0;68;70;10;0;84;136.24;10;4.00;0.00;-999.00
1716551368659088611;0;0;0;0;0;0;68;70;10;0;84;136.32;10;4.00;2.00;-999.00
1716551368760731458;0;0;0;0;0;0;68;70;10;0;84;136.32;10;3.00;1.00;-1000.00
1716551368813602209;0;0;0;0;0;0;68;70;10;0;84;136.32;10;2.00;3.00;-1000.00
1716551368916328191;0;0;0;0;0;0;68;70;10;0;84;136.28;10;4.00;2.00;-1002.00
1716551369018483877;0;0;0;0;0;0;68;70;10;0;84;136.29;10;2.00;2.00;-1000.00
1716551369122254848;0;0;0;0;0;0;68;70;10;0;84;136.27;10;4.00;1.00;-1002.00
1716551369222135305;0;0;0;0;0;0;68;70;10;0;84;136.30;10;3.00;1.00;-1001.00
1716551369322600841;0;0;0;0;0;0;68;70;10;0;84;136.22;10;3.00;1.00;-1000.00
1716551369426109075;0;0;0;0;0;0;68;70;10;0;84;136.24;10;4.00;3.00;-1001.00
1716551369527276277;0;0;0;0;0;0;68;70;10;0;84;136.20;10;4.00;1.00;-1000.00
1716551369628603219;0;0;0;0;0;0;68;70;10;0;84;136.22;10;3.00;1.00;-996.00
1716551369730765342;0;0;0;0;0;0;68;70;10;0;84;136.18;10;4.00;0.00;-1002.00
1716551369834861278;0;0;0;0;0;0;68;70;10;0;84;136.19;10;4.00;1.00;-999.00
1716551369934716939;0;0;0;0;0;0;68;70;10;0;84;136.20;10;4.00;1.00;-1000.00
1716551370036602973;0;0;0;0;0;0;68;70;10;0;84;136.20;10;4.00;1.00;-999.00
1716551370138982295;0;0;0;0;0;0;68;70;10;0;84;136.20;10;4.00;3.00;-999.00
1716551370242380380;0;0;0;0;0;0;68;70;10;0;84;136.20;10;5.00;2.00;-1000.00
1716551370343148708;0;0;0;0;0;0;68;70;10;0;84;136.23;10;2.00;0.00;-1001.00
1716551370444499969;0;0;0;0;0;0;68;70;10;0;84;136.19;10;4.00;1.00;-1000.00
1716551370550401449;0;0;0;0;0;0;68;70;10;0;84;136.17;10;4.00;1.00;-998.00
1716551370653415679;0;0;0;0;0;0;68;70;10;0;84;136.21;10;3.00;3.00;-998.00
1716551370753109455;0;0;0;0;0;0;68;70;10;0;84;136.13;10;4.00;0.00;-1002.00
1716551370854309082;0;0;0;0;0;0;68;70;10;0;84;136.16;10;4.00;1.00;-998.00
1716551370955385684;0;0;0;0;0;0;68;70;10;0;84;136.13;10;4.00;0.00;-999.00
1716551371060385465;0;0;0;0;0;0;68;70;10;0;84;136.18;10;4.00;0.00;-1000.00
1716551371159521579;0;0;0;0;0;0;68;70;10;0;84;136.12;10;2.00;1.00;-1000.00
1716551371260759592;0;0;0;0;0;0;68;70;10;0;84;136.13;10;3.00;1.00;-1001.00
1716551371362383127;0;0;0;0;0;0;68;70;10;0;84;136.17;10;3.00;2.00;-1000.00
1716551371464519500;0;0;0;0;0;0;68;70;10;0;84;136.11;10;3.00;2.00;-1001.00
1716551371566625118;0;0;0;0;0;0;68;70;10;0;84;136.12;10;4.00;1.00;-1002.00
1716551371668601512;0;0;0;0;0;0;68;70;10;0;84;136.16;10;5.00;0.00;-999.00
1716551371770653486;0;0;0;0;0;0;68;70;10;0;84;136.16;10;3.00;1.00;-1000.00
1716551371872821569;0;0;0;0;0;0;68;70;10;0;84;136.18;10;2.00;1.00;-998.00
1716551371923812866;0;0;0;0;0;0;68;70;10;0;84;136.20;10;4.00;1.00;-1001.00
1716551372025607585;0;0;0;0;0;0;68;70;10;0;84;136.17;10;3.00;1.00;-1000.00
1716551372127704858;0;0;0;0;0;0;68;70;10;0;84;136.16;10;4.00;1.00;-999.00
1716551372230324983;0;0;0;0;0;0;68;70;10;0;84;136.13;10;3.00;0.00;-1000.00
1716551372332311153;0;0;0;0;0;0;68;70;10;0;84;136.10;10;4.00;2.00;-1000.00
1716551372433742046;0;0;0;0;0;0;68;70;10;0;84;136.15;10;2.00;3.00;-999.00
1716551372535911083;0;0;0;0;0;0;68;70;10;0;84;136.15;10;5.00;0.00;-999.00
1716551372637521266;0;0;0;0;0;0;69;71;10;0;84;136.14;10;3.00;1.00;-999.00
1716551372739470243;0;0;0;0;0;0;69;71;10;0;84;136.15;10;3.00;2.00;-999.00
1716551372844027757;0;0;0;0;0;0;69;71;10;0;84;136.13;10;4.00;2.00;-998.00
1716551372947160005;0;0;0;0;0;0;69;71;10;0;84;136.15;10;2.00;2.00;-999.00
1716551373050113201;0;0;0;0;0;0;69;71;10;0;84;136.10;10;2.00;2.00;-1000.00
1716551373150837898;0;0;0;0;0;0;69;71;10;0;84;136.13;10;2.00;0.00;-1000.00
1716551373251702547;0;0;0;0;0;0;69;71;10;0;84;136.15;10;4.00;2.00;-1000.00
1716551373353974819;0;0;0;0;0;0;69;71;10;0;84;136.13;10;3.00;3.00;-1002.00
1716551373454680919;0;0;0;0;0;0;69;71;10;0;84;136.16;10;4.00;3.00;-1002.00
1716551373557535171;0;0;0;0;0;0;69;71;10;0;84;136.21;10;5.00;2.00;-1002.00
1716551373660537958;0;0;0;0;0;0;67;71;10;0;84;136.15;10;3.00;2.00;-1001.00
1716551373763308763;0;0;0;0;0;0;67;71;10;0;84;136.19;10;4.00;1.00;-1000.00
1716551373866455078;0;0;0;0;0;0;67;71;10;0;84;136.16;10;5.00;2.00;-999.00
1716551373966842889;0;0;0;0;0;0;67;71;10;0;84;136.21;10;3.00;0.00;-1001.00
1716551374067942380;0;0;0;0;0;0;67;71;10;0;84;136.23;10;3.00;2.00;-1002.00
1716551374169524908;0;0;0;0;0;0;67;71;10;0;84;136.21;10;3.00;2.00;-1003.00
1716551374272546291;0;0;0;0;0;0;67;71;10;0;84;136.27;10;4.00;2.00;-1001.00
1716551374373333692;0;0;0;0;0;0;67;71;10;0;84;136.21;10;3.00;2.00;-1001.00
1716551374475751638;0;0;0;0;0;0;67;71;10;0;84;136.25;10;4.00;4.00;-1000.00
1716551374579435825;0;0;0;0;0;0;67;71;10;0;84;136.28;10;4.00;1.00;-1001.00
1716551374685799121;0;0;0;0;0;0;69;71;10;0;84;136.36;10;3.00;1.00;-998.00
1716551374786084175;0;0;0;0;0;0;69;71;10;0;84;136.26;10;3.00;3.00;-1000.00
1716551374888106822;0;0;0;0;0;0;69;71;10;0;84;136.33;10;3.00;1.00;-1000.00
1716551374986614465;0;0;0;0;0;0;69;71;10;0;84;136.31;10;4.00;2.00;-1002.00
1716551375038327693;0;0;0;0;0;0;69;71;10;0;84;136.32;10;3.00;2.00;-1000.00
1716551375139390468;0;0;0;0;0;0;69;71;10;0;84;136.34;10;3.00;1.00;-1000.00
1716551375241527557;0;0;0;0;0;0;69;71;10;0;84;136.39;10;4.00;2.00;-1000.00
1716551375345202445;0;0;0;0;0;0;69;71;10;0;84;136.33;10;4.00;1.00;-1001.00
1716551375450632095;0;0;0;0;0;0;69;71;10;0;84;136.34;10;4.00;2.00;-1002.00
1716551375552423238;0;0;0;0;0;0;69;71;10;0;84;136.36;10;3.00;1.00;-1002.00
1716551375651509284;0;0;0;0;0;0;69;71;10;0;84;136.34;10;4.00;1.00;-1000.00
1716551375753618717;0;0;0;0;0;0;69;71;10;0;84;136.36;10;3.00;2.00;-999.00
1716551375856600522;0;0;0;0;0;0;69;71;10;0;84;136.34;10;3.00;1.00;-1001.00
1716551375957582950;0;0;0;0;0;0;69;71;10;0;84;136.40;10;3.00;1.00;-999.00
1716551376062531471;0;0;0;0;0;0;69;71;10;0;84;136.42;10;4.00;0.00;-997.00
1716551376163761377;0;0;0;0;0;0;69;71;10;0;84;136.38;10;4.00;2.00;-1000.00
1716551376263342618;0;0;0;0;0;0;69;71;10;0;84;136.34;10;3.00;1.00;-1001.00
1716551376365370512;0;0;0;0;0;0;69;71;10;0;84;136.38;10;2.00;0.00;-998.00
1716551376467570066;0;0;0;0;0;0;69;71;10;0;84;136.36;10;4.00;1.00;-1000.00
1716551376569566249;0;0;0;0;0;0;69;71;10;0;84;136.39;10;3.00;1.00;-999.00
1716551376672532081;0;0;0;0;0;0;69;71;10;0;84;136.42;10;4.00;0.00;-1002.00
1716551376773348808;0;0;0;0;0;0;69;71;10;0;84;136.38;10;4.00;1.00;-1000.00
1716551376877179145;0;0;0;0;0;0;69;71;10;0;84;136.38;10;3.00;1.00;-998.00
1716551376978263378;0;0;0;0;0;0;69;71;10;0;84;136.33;10;4.00;1.00;-1004.00
1716551377091377258;0;0;0;0;0;0;69;71;10;0;84;136.36;10;4.00;1.00;-999.00
1716551377184645652;0;0;0;0;0;0;69;71;10;0;84;136.39;10;3.00;2.00;-997.00
1716551377284485101;0;0;0;0;0;0;69;71;10;0;84;136.43;10;3.00;1.00;-999.00
1716551377387049198;0;0;0;0;0;0;69;71;10;0;84;136.34;10;5.00;0.00;-1000.00
1716551377489558935;0;0;0;0;0;0;69;71;10;0;84;136.36;10;3.00;2.00;-998.00
1716551377590568304;0;0;0;0;0;0;69;71;10;0;84;136.36;10;4.00;0.00;-1000.00
1716551377693707942;0;0;0;0;0;0;69;71;10;0;84;136.40;10;2.00;2.00;-999.00
1716551377794394731;0;0;0;0;0;0;69;71;10;0;84;136.34;10;3.00;1.00;-1001.00
1716551377896404504;0;0;0;0;0;0;69;71;10;0;84;136.43;10;3.00;1.00;-998.00
1716551377998275995;0;0;0;0;0;0;69;71;10;0;84;136.31;10;4.00;3.00;-1002.00
1716551378100938320;0;0;0;0;0;0;69;71;10;0;84;136.37;10;4.00;2.00;-999.00
1716551378202294349;0;0;0;0;0;0;69;71;10;0;84;136.36;10;3.00;0.00;-1000.00
1716551378304918527;0;0;0;0;0;0;69;71;10;0;84;136.33;10;3.00;2.00;-999.00
1716551378356245040;0;0;0;0;0;0;69;71;10;0;84;136.34;10;3.00;1.00;-1001.00
1716551378460660696;0;0;0;0;0;0;69;71;10;0;84;136.35;10;4.00;2.00;-997.00
1716551378559014558;0;0;0;0;0;0;69;71;10;0;84;136.35;10;3.00;2.00;-999.00
1716551378661188840;0;0;0;0;0;0;69;71;10;0;84;136.35;10;4.00;1.00;-998.00
1716551378763133525;0;0;0;0;0;0;69;71;10;0;84;136.33;10;5.00;2.00;-999.00
1716551378865151882;0;0;0;0;0;0;69;71;10;0;84;136.35;10;2.00;2.00;-1003.00
1716551378968704462;0;0;0;0;0;0;69;71;10;0;84;136.37;10;5.00;0.00;-1002.00
1716551379069215774;0;0;0;0;0;0;69;71;10;0;84;136.32;10;4.00;1.00;-1000.00
1716551379171219825;0;0;0;0;0;0;69;71;10;0;84;136.36;10;3.00;2.00;-998.00
1716551379273480176;0;0;0;0;0;0;69;71;10;0;84;136.44;10;3.00;0.00;-1000.00
1716551379375218629;0;0;0;0;0;0;69;71;10;0;84;136.36;10;3.00;2.00;-999.00
1716551379480586051;0;0;0;0;0;0;69;71;10;0;84;136.40;10;4.00;1.00;-1001.00
1716551379582238912;0;0;0;0;0;0;69;71;10;0;84;136.35;10;3.00;2.00;-999.00
1716551379683763742;0;0;0;0;0;0;69;72;10;0;84;136.41;10;3.00;1.00;-1000.00
1716551379783577919;0;0;0;0;0;0;69;72;10;0;84;136.40;10;4.00;0.00;-999.00
1716551379885014772;0;0;0;0;0;0;69;72;10;0;84;136.40;10;3.00;1.00;-998.00
1716551379987316846;0;0;0;0;0;0;69;72;10;0;84;136.36;10;4.00;1.00;-1001.00
1716551380089165210;0;0;0;0;0;0;69;72;10;0;84;136.38;10;3.00;0.00;-999.00
1716551380191234350;0;0;0;0;0;0;69;72;10;0;84;136.38;10;3.00;1.00;-999.00
1716551380296262025;0;0;0;0;0;0;69;72;10;0;84;136.40;10;4.00;0.00;-1000.00
1716551380395338058;0;0;0;0;0;0;69;72;10;0;84;136.36;10;3.00;0.00;-998.00
1716551380498888731;0;0;0;0;0;0;69;72;10;0;84;136.38;10;4.00;0.00;-1000.00
1716551380600142240;0;0;0;0;0;0;69;72;10;0;84;136.35;10;3.00;2.00;-1000.00
1716551380703014135;0;0;0;0;0;0;69;71;10;0;84;136.37;10;5.00;2.00;-998.00
1716551380804049253;0;0;0;0;0;0;69;71;10;0;84;136.37;10;3.00;2.00;-1000.00
1716551380906215429;0;0;0;0;0;0;69;71;10;0;84;136.36;10;4.00;0.00;-1000.00
1716551381008925199;0;0;0;0;0;0;69;71;10;0;84;136.37;10;3.00;0.00;-1003.00
1716551381110246419;0;0;0;0;0;0;69;71;10;0;84;136.32;10;4.00;2.00;-999.00
1716551381215042591;0;0;0;0;0;0;69;71;10;0;84;136.28;10;3.00;0.00;-999.00
1716551381319170475;0;0;0;0;0;0;69;71;10;0;84;136.36;10;3.00;2.00;-1000.00
1716551381417991161;0;0;0;0;0;0;69;71;10;0;84;136.31;10;3.00;3.00;-999.00
1716551381518652677;0;0;0;0;0;0;69;71;10;0;84;136.38;10;3.00;1.00;-1000.00
1716551381622542619;0;0;0;0;0;0;69;71;10;0;84;136.36;10;3.00;1.00;-1000.00
1716551381722232103;0;0;0;0;0;0;71;72;10;0;84;136.34;10;3.00;2.00;-997.00
1716551381824194908;0;0;0;0;0;0;71;72;10;0;84;136.38;10;3.00;0.00;-1000.00
1716551381875167846;0;0;0;0;0;0;71;72;10;0;84;136.35;10;3.00;0.00;-997.00
1716551381979592561;0;0;0;0;0;0;71;72;10;0;84;136.32;10;3.00;3.00;-1000.00
1716551382085264682;0;0;0;0;0;0;71;72;10;0;84;136.31;10;4.00;1.00;-999.00
1716551382184859991;0;0;0;0;0;0;71;72;10;0;84;136.30;10;4.00;0.00;-998.00
1716551382287651777;0;0;0;0;0;0;71;72;10;0;83;136.30;10;3.00;1.00;-1000.00
1716551382386415719;0;0;0;0;0;0;71;72;10;0;83;136.29;10;4.00;2.00;-1000.00
1716551382488123893;0;0;0;0;0;0;71;72;10;0;83;136.30;10;4.00;2.00;-998.00
1716551382589968442;0;0;0;0;0;0;71;72;10;0;83;136.29;10;3.00;2.00;-999.00
1716551382692499160;0;0;0;0;0;0;70;71;10;0;83;136.26;10;4.00;3.00;-1000.00
1716551382794165849;0;0;0;0;0;0;70;71;10;0;83;136.33;10;3.00;2.00;-1001.00
1716551382897810220;0;0;0;0;0;0;70;71;10;0;83;136.30;10;3.00;1.00;-996.00
1716551382997954845;0;0;0;0;0;0;70;71;10;0;83;136.31;10;3.00;2.00;-998.00
1716551383100602626;0;0;0;0;0;0;70;71;10;0;83;136.34;10;4.00;1.00;-1000.00
1716551383202037096;0;0;0;0;0;0;70;71;10;0;83;136.27;10;4.00;1.00;-999.00
1716551383304061174;0;0;0;0;0;0;70;71;10;0;83;136.34;10;2.00;2.00;-998.00
1716551383406396389;0;0;0;0;0;0;70;71;10;0;83;136.32;10;4.00;2.00;-1000.00
1716551383508224725;0;0;0;0;0;0;70;71;10;0;83;136.31;10;4.00;3.00;-1000.00
1716551383614314317;0;0;0;0;0;0;70;71;10;0;83;136.29;10;5.00;3.00;-1000.00
1716551383721188545;0;0;0;0;0;0;70;72;10;0;83;136.29;10;3.00;2.00;-998.00
1716551383820842981;0;0;0;0;0;0;70;72;10;0;83;136.25;10;5.00;3.00;-998.00
1716551383920934677;0;0;0;0;0;0;70;72;10;0;83;136.25;10;2.00;1.00;-1000.00
1716551384021990060;0;0;0;0;0;0;70;72;10;0;83;136.27;10;3.00;1.00;-998.00
1716551384122311353;0;0;0;0;0;0;70;72;10;0;83;136.29;10;4.00;0.00;-1000.00
1716551384223848342;0;0;0;0;0;0;70;72;10;0;83;136.24;10;4.00;1.00;-998.00
1716551384326139688;0;0;0;0;0;0;70;72;10;0;83;136.23;10;3.00;2.00;-999.00
1716551384427862644;0;0;0;0;0;0;70;72;10;0;83;136.28;10;3.00;1.00;-1001.00
1716551384530333757;0;0;0;0;0;0;70;72;10;0;83;136.30;10;3.00;1.00;-999.00
1716551384632197618;0;0;0;0;0;0;70;72;10;0;83;136.30;10;4.00;1.00;-1000.00
1716551384734181880;0;0;0;0;0;0;70;72;10;0;83;136.32;10;4.00;1.00;-997.00
1716551384836510181;0;0;0;0;0;0;70;72;10;0;83;136.28;10;3.00;1.00;-1000.00
1716551384940308332;0;0;0;0;0;0;70;72;10;0;83;136.38;10;4.00;2.00;-1001.00
1716551385043533325;0;0;0;0;0;0;70;72;10;0;83;136.33;10;4.00;2.00;-1000.00
1716551385142193317;0;0;0;0;0;0;70;72;10;0;83;136.30;10;3.00;1.00;-1002.00
1716551385244574546;0;0;0;0;0;0;70;72;10;0;83;136.31;10;3.00;1.00;-1001.00
1716551385295005321;0;0;0;0;0;0;70;72;10;0;83;136.34;10;3.00;2.00;-1001.00
1716551385396902799;0;0;0;0;0;0;70;72;10;0;83;136.33;10;3.00;2.00;-1000.00
1716551385500995159;0;0;0;0;0;0;70;72;10;0;83;136.36;10;4.00;1.00;-1001.00
1716551385601004123;0;0;0;0;0;0;70;72;10;0;83;136.31;10;2.00;1.00;-1001.00
1716551385703191757;0;0;0;0;0;0;70;72;10;0;83;136.28;10;4.00;3.00;-1000.00
1716551385805067062;0;0;0;0;0;0;70;72;10;0;83;136.34;10;4.00;0.00;-998.00
1716551385906984329;0;0;0;0;0;0;70;72;10;0;83;136.30;10;4.00;2.00;-999.00
1716551386009125471;0;0;0;0;0;0;70;72;10;0;83;136.33;10;3.00;1.00;-998.00
1716551386114377737;0;0;0;0;0;0;70;72;10;0;83;136.33;10;3.00;2.00;-999.00
1716551386220807313;0;0;0;0;0;0;70;72;10;0;83;136.32;10;3.00;2.00;-998.00
1716551386317567586;0;0;0;0;0;0;70;72;10;0;83;136.36;10;4.00;2.00;-1000.00
1716551386417979955;0;0;0;0;0;0;70;72;10;0;83;136.34;10;3.00;1.00;-998.00
1716551386522431373;0;0;0;0;0;0;70;72;10;0;83;136.36;10;2.00;1.00;-1000.00
1716551386621791839;0;0;0;0;0;0;70;72;10;0;83;136.36;10;3.00;3.00;-1001.00
1716551386724769353;0;0;0;0;0;0;70;72;10;0;83;136.33;10;3.00;2.00;-999.00
1716551386826018571;0;0;0;0;0;0;70;72;10;0;83;136.30;10;2.00;2.00;-1001.00
1716551386927839279;0;0;0;0;0;0;70;72;10;0;83;136.28;10;3.00;0.00;-1000.00
1716551387030745506;0;0;0;0;0;0;70;72;10;0;83;136.28;10;2.00;2.00;-1000.00
1716551387132100582;0;0;0;0;0;0;70;72;10;0;83;136.25;10;3.00;1.00;-998.00
1716551387233826637;0;0;0;0;0;0;70;72;10;0;83;136.25;10;2.00;1.00;-1000.00
1716551387335674524;0;0;0;0;0;0;70;72;10;0;83;136.27;10;2.00;1.00;-1001.00
1716551387437830209;0;0;0;0;0;0;70;72;10;0;83;136.30;10;4.00;0.00;-1001.00
1716551387539734363;0;0;0;0;0;0;70;72;10;0;83;136.34;10;2.00;0.00;-1000.00
1716551387644514560;0;0;0;0;0;0;70;72;10;0;83;136.30;10;3.00;1.00;-999.00
1716551387747674226;0;0;0;0;0;0;71;72;10;0;83;136.29;10;4.00;2.00;-1002.00
1716551387849812746;0;0;0;0;0;0;71;72;10;0;83;136.39;10;4.00;0.00;-1001.00
1716551387951009988;0;0;0;0;0;0;71;72;10;0;83;136.37;10;2.00;-1.00;-997.00
1716551388053832769;0;0;0;0;0;0;71;72;10;0;83;136.29;10;1.00;1.00;-1001.00
1716551388154041051;0;0;0;0;0;0;71;72;10;0;83;136.30;10;3.00;1.00;-998.00
1716551388255844831;0;0;0;0;0;0;71;72;10;0;83;136.31;10;3.00;2.00;-1000.00
1716551388357895374;0;0;0;0;0;0;71;72;10;0;83;136.30;10;3.00;2.00;-998.00
1716551388459931373;0;0;0;0;0;0;71;72;10;0;83;136.33;10;3.00;2.00;-998.00
1716551388514771699;0;0;0;0;0;0;71;72;10;0;83;136.30;10;3.00;1.00;-1000.00
1716551388616590261;0;0;0;0;0;0;71;72;10;0;83;136.35;10;3.00;2.00;-998.00
1716551388718082904;0;0;0;0;0;0;71;73;10;0;83;136.34;10;3.00;1.00;-1001.00
1716551388819604635;0;0;0;0;0;0;71;73;10;0;83;136.41;10;2.00;2.00;-999.00
1716551388918993949;0;0;0;0;0;0;71;73;10;0;83;136.31;10;2.00;1.00;-1003.00
1716551389020575284;0;0;0;0;0;0;71;73;10;0;83;136.35;10;3.00;1.00;-999.00
1716551389122735500;0;0;0;0;0;0;71;73;10;0;83;136.34;10;3.00;1.00;-1001.00
1716551389225723028;0;0;0;0;0;0;71;73;10;0;83;136.33;10;3.00;0.00;-999.00
1716551389326738119;0;0;0;0;0;0;71;73;10;0;83;136.36;10;3.00;2.00;-1000.00
1716551389428750514;0;0;0;0;0;0;71;73;10;0;83;136.33;10;3.00;1.00;-999.00
1716551389530792951;0;0;0;0;0;0;71;73;10;0;83;136.32;10;5.00;1.00;-1001.00
1716551389632766962;0;0;0;0;0;0;71;73;10;0;83;136.36;10;3.00;0.00;-1001.00
1716551389735173225;0;0;0;0;0;0;71;73;10;0;83;136.34;10;3.00;2.00;-998.00
1716551389846767425;0;0;0;0;0;0;71;73;10;0;83;136.40;10;3.00;2.00;-999.00
1716551389939082384;0;0;0;0;0;0;71;73;10;0;83;136.38;10;3.00;0.00;-1000.00
1716551390048935890;0;0;0;0;0;0;71;73;10;0;83;136.39;10;3.00;2.00;-999.00
1716551390149396181;0;0;0;0;0;0;71;73;10;0;83;136.42;10;3.00;2.00;-999.00
1716551390247448921;0;0;0;0;0;0;71;73;10;0;83;136.38;10;4.00;0.00;-1001.00
1716551390352654933;0;0;0;0;0;0;71;73;10;0;83;136.38;10;4.00;0.00;-998.00
1716551390451165199;0;0;0;0;0;0;71;73;10;0;83;136.37;10;3.00;2.00;-997.00
1716551390552888393;0;0;0;0;0;0;71;73;10;0;83;136.34;10;3.00;1.00;-1002.00
1716551390653702974;0;0;0;0;0;0;71;73;10;0;83;136.34;10;2.00;0.00;-1002.00
1716551390755599975;0;0;0;0;0;0;71;73;10;0;83;136.39;10;2.00;1.00;-1000.00
1716551390858297586;0;0;0;0;0;0;71;73;10;0;83;136.33;10;3.00;1.00;-1000.00
1716551390959619045;0;0;0;0;0;0;71;73;10;0;83;136.26;10;4.00;2.00;-998.00
1716551391061807632;0;0;0;0;0;0;71;73;10;0;83;136.24;10;4.00;1.00;-997.00
1716551391163813352;0;0;0;0;0;0;71;73;10;0;83;136.28;10;3.00;3.00;-1001.00
1716551391265679359;0;0;0;0;0;0;71;73;10;0;83;136.28;10;3.00;1.00;-999.00
1716551391367718935;0;0;0;0;0;0;71;73;10;0;83;136.22;10;3.00;0.00;-1000.00
1716551391469963312;0;0;0;0;0;0;71;73;10;0;83;136.27;10;3.00;1.00;-999.00
1716551391572637796;0;0;0;0;0;0;71;73;10;0;83;136.26;10;4.00;2.00;-1000.00
1716551391674475193;0;0;0;0;0;0;71;73;10;0;83;136.24;10;3.00;0.00;-1000.00
1716551391778433799;0;0;0;0;0;0;71;73;10;0;83;136.20;10;3.00;2.00;-1000.00
1716551391880959033;0;0;0;0;0;0;71;73;10;0;83;136.22;10;3.00;1.00;-999.00
1716551391930002212;0;0;0;0;0;0;71;73;10;0;83;136.24;10;4.00;1.00;-999.00
1716551392031962871;0;0;0;0;0;0;71;73;10;0;83;136.20;10;4.00;2.00;-1000.00
1716551392133531332;0;0;0;0;0;0;71;73;10;0;83;136.24;10;3.00;1.00;-999.00
1716551392235542774;0;0;0;0;0;0;71;73;10;0;83;136.22;10;3.00;0.00;-998.00
1716551392337703227;0;0;0;0;0;0;71;73;10;0;83;136.21;10;3.00;2.00;-1000.00
1716551392439775705;0;0;0;0;0;0;71;73;10;0;83;136.23;10;3.00;0.00;-1000.00
1716551392542266130;0;0;0;0;0;0;71;73;10;0;83;136.25;10;2.00;1.00;-1000.00
1716551392649705886;0;0;0;0;0;0;71;73;10;0;83;136.22;10;4.00;0.00;-1000.00
1716551392749698400;0;0;0;0;0;0;71;73;10;0;83;136.28;10;2.00;1.00;-999.00
1716551392851079463;0;0;0;0;0;0;71;73;10;0;83;136.32;10;3.00;2.00;-1001.00
1716551392953043222;0;0;0;0;0;0;71;73;10;0;83;136.27;10;3.00;0.00;-1002.00
1716551393052345514;0;0;0;0;0;0;71;73;10;0;83;136.28;10;1.00;1.00;-996.00
1716551393153781414;0;0;0;0;0;0;71;73;10;0;83;136.32;10;4.00;0.00;-998.00
