timestampns;pitch;roll;yaw;vgx;vgy;vgz;templ;temph;tof;h;bat;baro;time;agx;agy;agz;
1716381946787782669;0;0;0;0;0;0;56;58;10;0;82;195.60;0;-1.00;7.00;-999.00
1716381946897344827;0;0;0;0;0;0;56;58;10;0;82;195.57;0;-2.00;6.00;-996.00
1716381946992508172;0;0;0;0;0;0;56;58;10;0;82;195.52;0;-2.00;6.00;-998.00
1716381947095286607;0;0;0;0;0;0;56;58;10;0;82;195.50;0;-1.00;6.00;-1001.00
1716381947194968223;0;0;0;0;0;0;56;58;10;0;82;195.53;0;0.00;6.00;-1001.00
1716381947298534870;0;0;0;0;0;0;56;58;10;0;82;195.50;0;-1.00;5.00;-999.00
1716381947399108886;0;0;0;0;0;0;56;58;10;0;82;195.49;0;-1.00;7.00;-1000.00
1716381947501056194;0;0;0;0;0;0;56;58;10;0;82;195.47;0;-1.00;5.00;-1000.00
1716381947604135990;0;0;0;0;0;0;56;58;10;0;82;195.50;0;-2.00;8.00;-997.00
1716381947704877138;0;0;0;0;0;0;56;58;10;0;82;195.52;0;-1.00;6.00;-997.00
1716381947808258056;0;0;0;0;0;0;56;58;10;0;82;195.50;0;-2.00;6.00;-998.00
1716381947909135341;0;0;0;0;0;0;56;58;10;0;82;195.53;0;-1.00;6.00;-997.00
1716381948014512538;0;0;0;0;0;0;56;58;10;0;82;195.54;0;-1.00;6.00;-996.00
1716381948061858415;0;0;0;0;0;0;56;58;10;0;82;195.55;0;-1.00;7.00;-1001.00
1716381948166536808;0;0;0;0;0;0;56;58;10;0;82;195.48;0;-1.00;6.00;-999.00
1716381948265947341;0;0;0;0;0;0;56;58;10;0;82;195.53;0;-2.00;6.00;-997.00
1716381948370827436;0;0;0;0;0;0;56;58;10;0;82;195.51;0;-1.00;7.00;-998.00
1716381948470857620;0;0;0;0;0;0;56;58;10;0;82;195.53;0;-1.00;6.00;-998.00
1716381948572540044;0;0;0;0;0;0;56;58;10;0;82;195.52;0;-2.00;7.00;-1000.00
1716381948674868106;0;0;0;0;0;0;56;58;10;0;82;195.52;0;-1.00;6.00;-999.00
1716381948776891946;0;0;0;0;0;0;56;58;10;0;82;195.52;0;-1.00;7.00;-998.00
1716381948881688594;0;0;0;0;0;0;56;58;10;0;82;195.50;0;-1.00;7.00;-997.00
1716381948982387781;0;0;0;0;0;0;56;58;10;0;82;195.51;0;-1.00;8.00;-999.00
1716381949081914424;0;0;0;0;0;0;56;58;10;0;82;195.54;0;-1.00;7.00;-1001.00
1716381949184353351;0;0;0;0;0;0;56;58;10;0;82;195.44;0;-2.00;6.00;-997.00
1716381949285980939;0;0;0;0;0;0;58;59;10;0;82;195.46;0;0.00;5.00;-1000.00
1716381949390141248;0;0;0;0;0;0;58;59;10;0;82;195.46;0;-1.00;6.00;-999.00
1716381949491750240;0;0;0;0;0;0;58;59;10;0;82;195.45;0;-1.00;6.00;-1001.00
1716381949592061281;0;0;0;0;0;0;58;59;10;0;82;195.46;0;-1.00;7.00;-998.00
1716381949694776296;0;0;0;0;0;0;58;59;10;0;82;195.44;0;-1.00;5.00;-1000.00
1716381949797196149;0;0;0;0;0;0;58;59;10;0;82;195.44;0;-3.00;6.00;-999.00
1716381949898162841;0;0;0;0;0;0;58;59;10;0;82;195.44;0;-2.00;6.00;-1000.00
1716381950000522851;0;0;0;0;0;0;58;59;10;0;82;195.47;0;-1.00;7.00;-1000.00
1716381950103886127;0;0;0;0;0;0;58;59;10;0;82;195.44;0;-1.00;8.00;-1002.00
1716381950205016613;0;0;0;0;0;0;58;59;10;0;82;195.46;0;-1.00;9.00;-1001.00
1716381950306457757;0;0;0;0;0;0;57;60;10;0;82;195.43;0;0.00;6.00;-998.00
1716381950410068273;0;0;0;0;0;0;57;60;10;0;82;195.43;0;-1.00;7.00;-1001.00
1716381950513318061;0;0;0;0;0;0;57;60;10;0;82;195.43;0;0.00;6.00;-1001.00
1716381950614826679;0;0;0;0;0;0;57;60;10;0;82;195.44;0;0.00;7.00;-1000.00
1716381950665662050;0;0;0;0;0;0;57;60;10;0;82;195.44;0;-2.00;7.00;-998.00
1716381950765106916;0;0;0;0;0;0;57;60;10;0;82;195.44;0;-1.00;6.00;-1001.00
1716381950868608236;0;0;0;0;0;0;57;60;10;0;82;195.46;0;-1.00;7.00;-1000.00
1716381950970273256;0;0;0;0;0;0;57;60;10;0;82;195.44;0;-1.00;6.00;-999.00
1716381951073363542;0;0;0;0;0;0;57;60;10;0;82;195.47;0;-1.00;6.00;-1001.00
1716381951174677610;0;0;0;0;0;0;57;60;10;0;82;195.47;0;-1.00;7.00;-999.00
1716381951275791168;0;0;0;0;0;0;58;60;10;0;82;195.48;0;-1.00;7.00;-1000.00
1716381951379200935;0;0;0;0;0;0;58;60;10;0;82;195.46;0;0.00;7.00;-999.00
1716381951480849981;0;0;0;0;0;0;58;60;10;0;82;195.47;0;-1.00;6.00;-999.00
1716381951583306312;0;0;0;0;0;0;58;60;10;0;82;195.47;0;-3.00;7.00;-998.00
1716381951688991069;0;0;0;0;0;0;58;60;10;0;82;195.46;0;-1.00;5.00;-1001.00
1716381951785959482;0;0;0;0;0;0;58;60;10;0;82;195.43;0;-1.00;5.00;-1000.00
1716381951888333797;0;0;0;0;0;0;58;60;10;0;82;195.40;0;-1.00;6.00;-997.00
1716381951990093708;0;0;0;0;0;0;58;60;10;0;82;195.43;0;-2.00;7.00;-999.00
1716381952092747449;0;0;0;0;0;0;58;60;10;0;82;195.37;0;-2.00;6.00;-998.00
1716381952194324731;0;0;0;0;0;0;58;60;10;0;82;195.40;0;-2.00;7.00;-1001.00
1716381952296027898;0;0;0;0;0;0;58;60;10;0;82;195.44;0;-1.00;7.00;-1000.00
1716381952398999452;0;0;0;0;0;0;58;60;10;0;82;195.42;0;-1.00;7.00;-1000.00
1716381952500066280;0;0;0;0;0;0;58;60;10;0;82;195.48;0;-1.00;6.00;-999.00
1716381952603350877;0;0;0;0;0;0;58;60;10;0;82;195.47;0;-1.00;5.00;-1001.00
1716381952704062700;0;0;0;0;0;0;58;60;10;0;82;195.46;0;-2.00;7.00;-999.00
1716381952807914733;0;0;0;0;0;0;58;60;10;0;82;195.47;0;-1.00;6.00;-1001.00
1716381952908625125;0;0;0;0;0;0;58;60;10;0;82;195.44;0;-1.00;6.00;-999.00
1716381953012410879;0;0;0;0;0;0;58;60;10;0;82;195.45;0;-1.00;7.00;-998.00
1716381953117267608;0;0;0;0;0;0;58;60;10;0;82;195.49;0;-2.00;7.00;-997.00
1716381953216949224;0;0;0;0;0;0;58;60;10;0;82;195.47;0;-2.00;7.00;-1001.00
1716381953320151090;0;0;0;0;0;0;58;60;10;0;82;195.46;0;-1.00;5.00;-1000.00
1716381953420357227;0;0;0;0;0;0;58;60;10;0;82;195.52;0;-2.00;6.00;-1001.00
1716381953469272136;0;0;0;0;0;0;58;60;10;0;82;195.43;0;0.00;7.00;-1000.00
1716381953571623325;0;0;0;0;0;0;58;60;10;0;82;195.41;0;-1.00;6.00;-1000.00
1716381953673118114;0;0;0;0;0;0;58;60;10;0;82;195.45;0;-2.00;6.00;-997.00
1716381953775968313;0;0;0;0;0;0;58;60;10;0;82;195.42;0;-1.00;6.00;-1000.00
1716381953877346277;0;0;0;0;0;0;58;60;10;0;82;195.39;0;-1.00;6.00;-999.00
1716381953979645967;0;0;0;0;0;0;58;60;10;0;82;195.42;0;-1.00;6.00;-999.00
1716381954087274551;0;0;0;0;0;0;58;60;10;0;82;195.40;0;-1.00;5.00;-999.00
1716381954183472633;0;0;0;0;0;0;58;60;10;0;82;195.47;0;0.00;7.00;-999.00
1716381954287921667;0;0;0;0;0;0;58;61;10;0;82;195.39;0;-2.00;6.00;-999.00
1716381954387641429;0;0;0;0;0;0;58;61;10;0;82;195.49;0;-1.00;6.00;-1001.00
1716381954489547491;0;0;0;0;0;0;58;61;10;0;82;195.45;0;0.00;6.00;-998.00
1716381954596266508;0;0;0;0;0;0;58;61;10;0;82;195.44;0;-2.00;6.00;-999.00
1716381954692969322;0;0;0;0;0;0;58;61;10;0;82;195.47;0;0.00;5.00;-1001.00
1716381954796156883;0;0;0;0;0;0;58;61;10;0;82;195.50;0;0.00;7.00;-997.00
1716381954898060083;0;0;0;0;0;0;58;61;10;0;82;195.47;0;-2.00;5.00;-999.00
1716381954998828887;0;0;0;0;0;0;58;61;10;0;82;195.44;0;-1.00;6.00;-999.00
1716381955103405237;0;0;0;0;0;0;58;61;10;0;82;195.52;0;-1.00;7.00;-998.00
1716381955203570604;0;0;0;0;0;0;58;61;10;0;82;195.43;0;-1.00;7.00;-1000.00
1716381955305502414;0;0;0;0;0;0;59;61;10;0;82;195.46;0;-1.00;6.00;-1000.00
1716381955409357786;0;0;0;0;0;0;59;61;10;0;82;195.47;0;0.00;6.00;-998.00
1716381955509102821;0;0;0;0;0;0;59;61;10;0;82;195.42;0;-1.00;7.00;-997.00
1716381955616475343;0;0;0;0;0;0;59;61;10;0;82;195.48;0;-1.00;9.00;-1000.00
1716381955713916301;0;0;0;0;0;0;59;61;10;0;82;195.44;0;-1.00;6.00;-1001.00
1716381955816170454;0;0;0;0;0;0;59;61;10;0;82;195.48;0;-1.00;8.00;-997.00
1716381955921921730;0;0;0;0;0;0;59;61;10;0;82;195.49;0;-2.00;7.00;-999.00
1716381956028346061;0;0;0;0;0;0;59;61;10;0;82;195.47;0;-2.00;7.00;-1000.00
1716381956131468772;0;0;0;0;0;0;59;61;10;0;82;195.48;0;-2.00;6.00;-999.00
1716381956223660945;0;0;0;0;0;0;59;61;10;0;82;195.51;0;-2.00;7.00;-999.00
1716381956327768564;0;0;0;0;0;0;59;62;10;0;82;195.49;0;-1.00;6.00;-1000.00
1716381956429642438;0;0;0;0;0;0;59;62;10;0;82;195.56;0;-1.00;5.00;-1000.00
1716381956529966592;0;0;0;0;0;0;59;62;10;0;82;195.46;0;-1.00;8.00;-1001.00
1716381956633765935;0;0;0;0;0;0;59;62;10;0;82;195.51;0;-1.00;7.00;-998.00
1716381956734493970;0;0;0;0;0;0;59;62;10;0;82;195.48;0;-1.00;5.00;-1000.00
1716381956792701005;0;0;0;0;0;0;59;62;10;0;82;195.49;0;-2.00;7.00;-999.00
1716381956889211416;0;0;0;0;0;0;59;62;10;0;82;195.52;0;-1.00;7.00;-998.00
1716381956990443944;0;0;0;0;0;0;59;62;10;0;82;195.51;0;1.00;4.00;-1003.00
1716381957091673612;0;0;0;0;0;0;59;62;10;0;82;195.51;0;0.00;5.00;-998.00
1716381957193103551;0;0;0;0;0;0;59;62;10;0;82;195.51;0;-8.00;10.00;-1008.00
1716381957299849271;0;0;0;0;0;0;59;61;10;0;82;195.51;0;-3.00;0.00;-996.00
1716381957397070407;0;0;0;0;0;0;59;61;10;0;82;195.51;0;-6.00;14.00;-1077.00
1716381957498937368;-2;0;0;0;0;-1;59;61;17;0;82;195.51;0;-2.00;-9.00;-1238.00
1716381957601782560;0;0;-1;0;0;-4;59;61;16;0;82;195.51;0;25.00;-14.00;-1275.00
1716381957703199625;1;0;-1;0;0;-6;59;61;16;0;82;195.71;0;-11.00;-7.00;-1153.00
1716381957806502342;1;0;0;0;0;-7;59;61;21;10;82;195.85;0;-17.00;5.00;-1017.00
1716381957907607078;1;0;0;0;0;-7;59;61;28;20;82;195.90;0;4.00;-2.00;-984.00
1716381958009043455;0;0;0;0;0;-7;59;61;37;30;82;195.99;1;1.00;-1.00;-942.00
1716381958116462707;0;0;0;0;0;-6;59;61;43;30;82;196.05;1;8.00;0.00;-932.00
1716381958213328599;0;0;0;0;0;-6;59;61;49;40;82;196.07;1;4.00;1.00;-898.00
1716381958320171356;0;0;0;0;0;-4;60;62;54;50;82;196.18;1;-10.00;9.00;-925.00
1716381958421560525;0;0;0;0;0;-3;60;62;58;50;82;196.23;1;6.00;-2.00;-895.00
1716381958520484924;0;0;0;0;0;-2;60;62;62;50;82;196.29;1;6.00;0.00;-902.00
1716381958626143932;0;0;0;0;0;-1;60;62;68;50;81;196.34;1;5.00;3.00;-930.00
1716381958724093198;0;0;0;0;0;-1;60;62;70;60;81;196.37;1;3.00;0.00;-927.00
1716381958828429937;0;0;0;0;0;-1;60;62;73;60;81;196.34;1;-3.00;5.00;-974.00
1716381958932386875;0;0;0;0;0;-1;60;62;75;60;81;196.31;2;6.00;-5.00;-979.00
1716381959030208826;0;0;0;0;0;-1;60;62;77;60;81;196.40;2;-1.00;0.00;-973.00
1716381959136078834;0;0;0;0;0;-1;60;62;79;60;81;196.48;2;0.00;3.00;-968.00
1716381959234189748;-1;0;0;0;0;0;60;62;80;70;81;196.42;2;4.00;2.00;-993.00
1716381959336166858;0;0;0;0;0;0;60;62;82;70;81;196.41;2;10.00;0.00;-988.00
1716381959440682411;0;0;0;0;0;0;60;62;83;70;81;196.41;2;0.00;6.00;-991.00
1716381959541096210;0;0;0;0;0;0;60;62;84;70;81;196.45;2;6.00;-6.00;-986.00
1716381959642842292;0;0;0;0;0;0;60;62;85;70;81;196.45;2;-9.00;7.00;-986.00
1716381959744658231;0;0;0;0;0;0;60;62;86;70;81;196.51;2;-1.00;-1.00;-986.00
1716381959849007844;0;0;0;0;0;0;60;62;86;70;81;196.47;2;-4.00;0.00;-982.00
1716381959949693441;0;0;0;0;0;0;60;62;86;70;81;196.49;3;-3.00;0.00;-983.00
1716381960058717012;0;0;0;0;0;0;60;62;87;70;81;196.49;3;0.00;2.00;-975.00
1716381960152465343;0;0;0;0;0;0;60;62;87;70;81;196.47;3;0.00;0.00;-991.00
1716381960254330396;0;0;0;0;0;0;60;62;87;70;81;196.42;3;-6.00;2.00;-1004.00
1716381960355858802;0;0;0;0;0;0;60;63;87;70;81;196.40;3;-1.00;-10.00;-981.00
1716381960459500551;-1;0;0;0;0;0;60;63;87;70;81;196.41;3;-8.00;1.00;-1000.00
1716381960509800910;-1;0;0;0;0;0;60;63;86;70;81;196.40;3;0.00;-7.00;-985.00
1716381960612012147;0;0;0;0;0;0;60;63;86;70;81;196.39;3;10.00;-2.00;-1013.00
1716381960717253923;0;0;0;0;0;0;60;63;86;70;81;196.45;3;0.00;-5.00;-981.00
1716381960818508863;0;0;0;0;0;0;60;63;86;70;81;196.37;3;-2.00;-1.00;-1004.00
1716381960921111106;0;0;0;0;0;0;60;63;85;70;81;196.42;4;0.00;-6.00;-989.00
1716381961024704933;0;0;-1;0;0;0;60;63;85;70;81;196.40;4;-7.00;6.00;-1004.00
1716381961122329950;0;0;-1;0;0;0;60;63;85;70;81;196.35;4;-2.00;0.00;-998.00
1716381961224813222;0;0;-1;0;0;0;60;63;85;70;81;196.45;4;8.00;-8.00;-995.00
1716381961327926635;0;0;-1;0;0;0;60;62;84;70;81;196.37;4;-6.00;-7.00;-1002.00
1716381961432060718;0;0;-1;0;0;0;60;62;83;70;81;196.45;4;-12.00;-1.00;-984.00
1716381961530018806;0;0;-1;0;0;0;60;62;83;70;81;196.47;4;2.00;0.00;-999.00
1716381961632375240;0;0;0;0;0;0;60;62;83;70;81;196.44;4;-4.00;4.00;-1013.00
1716381961734423637;0;0;0;0;0;0;60;62;83;70;81;196.37;4;-11.00;3.00;-1021.00
1716381961837361812;0;0;0;0;0;0;60;62;82;70;81;196.34;4;0.00;-5.00;-1000.00
1716381961938387632;-1;0;0;0;0;0;60;62;82;70;81;196.37;5;-11.00;1.00;-1005.00
1716381962040602445;-1;0;0;0;0;0;60;62;82;70;81;196.38;5;-14.00;7.00;-996.00
1716381962142333269;-1;0;0;0;0;0;60;62;82;70;81;196.39;5;-9.00;0.00;-991.00
1716381962244282007;-1;0;0;0;0;0;60;62;82;70;81;196.38;5;-16.00;5.00;-982.00
1716381962347125053;-1;0;0;0;0;0;61;63;81;70;81;196.39;5;2.00;-8.00;-990.00
1716381962452148675;0;0;-1;0;0;0;61;63;81;70;81;196.40;5;-1.00;2.00;-991.00
1716381962551208257;0;0;-1;0;0;0;61;63;81;70;81;196.39;5;-16.00;2.00;-992.00
1716381962653037548;0;0;-1;0;0;0;61;63;81;70;81;196.43;5;-15.00;3.00;-1004.00
1716381962753965616;0;0;-1;0;0;0;61;63;81;70;81;196.31;5;7.00;-2.00;-1010.00
1716381962859080553;0;0;-1;0;0;0;61;63;80;70;81;196.32;5;-7.00;0.00;-994.00
1716381962962597846;0;0;-1;0;0;0;61;63;80;70;81;196.45;6;-11.00;7.00;-1019.00
1716381963061727523;0;0;-1;0;0;0;61;63;80;70;81;196.46;6;-10.00;6.00;-995.00
1716381963166625738;0;0;-1;0;0;0;61;63;80;70;81;196.46;6;-8.00;2.00;-1011.00
1716381963264291763;0;0;-1;0;0;0;61;63;80;70;81;196.43;6;-6.00;5.00;-991.00
1716381963367214679;0;0;-1;0;0;0;60;62;80;70;81;196.44;6;-20.00;15.00;-1014.00
1716381963468282938;0;0;-1;0;0;0;60;62;80;70;81;196.39;6;-12.00;4.00;-1002.00
1716381963572178602;0;0;-1;0;0;0;60;62;80;70;81;196.40;6;-17.00;13.00;-1017.00
1716381963672653198;0;0;-1;0;0;0;60;62;79;70;81;196.37;6;9.00;-11.00;-994.00
1716381963774246692;0;0;-1;0;0;0;60;62;79;70;81;196.37;6;-14.00;15.00;-1005.00
1716381963876659631;0;0;-1;0;0;0;60;62;79;70;81;196.30;6;-1.00;3.00;-996.00
1716381963980843067;0;0;-1;0;0;0;60;62;79;70;81;196.40;7;8.00;0.00;-978.00
1716381964039056777;0;0;-1;0;0;0;60;62;79;70;81;196.46;7;1.00;11.00;-1004.00
1716381964130970478;0;0;-1;0;0;0;60;62;78;70;81;196.45;7;10.00;1.00;-1022.00
1716381964233880519;0;0;-1;0;0;0;60;62;78;70;81;196.38;7;-6.00;0.00;-1011.00
1716381964388777494;0;0;-1;0;0;0;61;63;78;70;81;196.34;7;-1.00;-3.00;-1017.00
1716381964437211990;0;0;-1;0;0;0;61;63;78;70;81;196.43;7;-3.00;10.00;-1000.00
1716381964542360782;0;0;0;0;0;0;61;63;78;70;81;196.41;7;-4.00;7.00;-1022.00
1716381964641203880;0;0;0;0;0;0;61;63;79;70;81;196.40;7;2.00;9.00;-989.00
1716381964744411468;0;0;0;0;0;0;61;63;79;70;81;196.41;7;0.00;6.00;-1012.00
1716381964855443477;0;0;0;0;0;0;61;63;79;70;81;196.32;7;11.00;7.00;-989.00
1716381964947481155;0;0;0;0;0;0;61;63;80;70;81;196.42;8;-11.00;20.00;-1022.00
1716381965051203727;0;0;0;0;0;0;61;63;80;70;81;196.43;8;-4.00;14.00;-972.00
1716381965152512550;0;-1;0;0;0;0;61;63;80;70;81;196.47;8;2.00;13.00;-995.00
1716381965254300117;0;-1;0;0;0;0;61;63;81;70;81;196.37;8;-6.00;30.00;-1002.00
1716381965356942653;0;-1;0;0;0;0;60;63;81;70;81;196.41;8;0.00;11.00;-993.00
1716381965457049131;0;0;0;0;0;0;60;63;81;70;81;196.37;8;1.00;10.00;-1005.00
1716381965565116643;0;0;0;0;0;0;60;63;81;70;81;196.38;8;-3.00;19.00;-995.00
1716381965661369085;0;0;0;0;0;0;60;63;81;70;81;196.39;8;1.00;10.00;-991.00
1716381965763001918;0;0;0;0;0;0;60;63;81;70;81;196.42;8;-5.00;4.00;-997.00
1716381965865059137;0;0;0;0;0;0;60;63;81;70;81;196.48;8;-1.00;9.00;-1006.00
1716381965966669321;0;-1;0;0;0;0;60;63;81;70;81;196.44;9;7.00;4.00;-1002.00
1716381966069783210;0;-1;-1;0;0;0;60;63;81;70;81;196.44;9;7.00;9.00;-995.00
1716381966171255826;0;0;-1;0;0;0;60;63;81;70;81;196.44;9;9.00;12.00;-987.00
1716381966273356437;0;-1;-1;0;0;0;60;63;81;70;81;196.47;9;28.00;2.00;-1004.00
1716381966376460552;0;-1;0;0;0;0;62;63;81;70;81;196.42;9;0.00;24.00;-987.00
1716381966476968526;0;0;0;0;0;0;62;63;81;70;81;196.45;9;0.00;10.00;-1005.00
1716381966582799673;0;0;0;0;0;0;62;63;82;70;81;196.42;9;7.00;4.00;-1011.00
1716381966688085794;0;0;0;0;0;0;62;63;82;70;81;196.40;9;11.00;8.00;-993.00
1716381966785144090;0;0;0;0;0;0;62;63;82;70;81;196.44;9;0.00;13.00;-1005.00
1716381966888761043;0;0;0;0;0;0;62;63;82;70;81;196.47;9;7.00;5.00;-998.00
1716381966988835573;0;0;0;0;0;0;62;63;83;70;81;196.46;10;-2.00;13.00;-998.00
1716381967094099283;0;0;0;0;0;0;62;63;83;70;81;196.42;10;4.00;8.00;-997.00
1716381967192277431;0;0;0;0;0;0;62;63;83;70;81;196.37;10;5.00;5.00;-987.00
1716381967301304340;0;0;0;0;0;0;62;63;83;70;81;196.51;10;6.00;8.00;-995.00
1716381967396275758;0;0;0;0;0;0;62;63;83;70;81;196.46;10;16.00;7.00;-980.00
1716381967497810840;0;0;0;0;0;0;62;63;83;70;81;196.53;10;11.00;14.00;-995.00
1716381967600411653;0;0;0;0;0;0;62;63;83;70;81;196.42;10;10.00;2.00;-989.00
1716381967701758623;0;0;0;0;0;0;62;63;84;70;81;196.42;10;-10.00;14.00;-997.00
1716381967804682970;0;0;0;0;0;0;62;63;84;70;81;196.39;10;11.00;4.00;-983.00
1716381967905765533;0;0;0;0;0;0;62;63;84;70;81;196.41;10;5.00;8.00;-991.00
1716381968008582115;0;0;-1;0;0;0;62;63;83;70;81;196.40;11;-11.00;10.00;-991.00
1716381968113717555;0;0;-1;0;0;0;62;63;83;70;81;196.40;11;-11.00;12.00;-999.00
1716381968165349721;0;0;-1;0;0;0;62;63;83;70;81;196.41;11;-7.00;14.00;-1009.00
1716381968263329029;0;0;0;0;0;0;62;63;83;70;81;196.46;11;9.00;7.00;-1005.00
1716381968365039348;0;0;0;0;0;0;61;64;82;70;81;196.41;11;-4.00;14.00;-1030.00
1716381968467283725;0;0;0;0;0;0;61;64;82;70;81;196.42;11;5.00;12.00;-1014.00
1716381968569112777;0;0;0;0;0;0;61;64;82;70;81;196.34;11;4.00;19.00;-1011.00
1716381968671366691;0;-1;0;0;0;0;61;64;83;70;81;196.40;11;7.00;16.00;-994.00
1716381968773651361;0;-1;0;0;0;0;61;64;82;70;81;196.48;11;11.00;12.00;-990.00
1716381968877384901;0;-1;0;0;0;0;61;64;83;70;81;196.46;11;8.00;25.00;-994.00
1716381968977916479;0;-1;0;0;0;0;61;64;82;70;81;196.40;12;9.00;19.00;-994.00
1716381969080553531;0;-1;0;0;0;0;61;64;82;70;81;196.32;12;-15.00;12.00;-994.00
1716381969182906150;0;-1;0;0;0;0;61;64;82;70;81;196.29;12;-11.00;15.00;-992.00
1716381969284182071;0;0;0;0;0;0;61;64;82;70;81;196.38;12;-11.00;7.00;-1010.00
1716381969388189077;-4;0;0;0;0;0;62;64;79;70;81;196.33;12;14.00;4.00;-1002.00
1716381969499173164;-8;0;0;1;0;0;62;64;80;70;81;196.33;12;12.00;0.00;-984.00
1716381969591472387;-8;0;0;2;0;0;62;64;80;70;81;196.27;12;-14.00;3.00;-1025.00
1716381969697343349;-8;0;0;3;0;0;62;64;78;70;81;196.29;12;-20.00;4.00;-1001.00
1716381969797323942;-6;0;0;5;0;0;62;64;78;70;81;196.28;12;-39.00;3.00;-998.00
1716381969896020174;-5;0;0;5;0;0;62;64;79;70;81;196.24;12;-27.00;-11.00;-1006.00
1716381969998340129;-3;0;0;6;0;0;62;64;80;70;81;196.31;13;-38.00;-8.00;-1018.00
1716381970099916696;-3;0;0;6;0;0;62;64;79;70;81;196.25;13;-33.00;-15.00;-992.00
1716381970202471017;-5;0;0;7;0;0;62;64;80;70;81;196.20;13;-26.00;-13.00;-1011.00
1716381970307542800;-2;0;0;7;0;0;62;64;81;70;81;196.21;13;-29.00;-18.00;-1009.00
1716381970408015251;0;0;0;7;0;0;62;64;81;70;81;196.26;13;-33.00;-10.00;-975.00
1716381970510334014;3;1;0;6;0;0;62;64;81;70;81;196.27;13;-26.00;-16.00;-1004.00
1716381970611426115;4;0;0;5;0;0;62;64;81;70;81;196.33;13;-20.00;-25.00;-994.00
1716381970712218284;3;1;0;4;0;0;62;64;82;70;81;196.35;13;-35.00;-8.00;-1006.00
1716381970821488857;2;1;0;3;0;0;62;64;82;70;81;196.32;13;-11.00;-11.00;-1007.00
1716381970920018911;1;0;0;3;0;0;62;64;82;70;81;196.30;13;-9.00;-16.00;-989.00
1716381971022486925;0;0;0;2;0;0;62;64;82;70;81;196.33;14;-5.00;-7.00;-1010.00
1716381971120024919;0;0;0;2;0;0;62;64;82;60;81;196.38;14;-12.00;1.00;-1029.00
1716381971223179817;-1;0;0;2;0;0;62;64;83;60;81;196.37;14;-1.00;-8.00;-1008.00
1716381971325798511;-1;0;0;2;0;0;62;64;84;60;81;196.30;14;-9.00;-11.00;-1001.00
1716381971430683374;0;0;0;2;0;0;62;65;84;70;81;196.31;14;-4.00;-2.00;-1001.00
1716381971531482219;0;0;0;2;0;0;62;65;86;70;81;196.32;14;-3.00;-8.00;-1028.00
1716381971630019903;0;0;0;2;0;0;62;65;87;70;80;196.38;14;-8.00;-7.00;-986.00
1716381971731834888;2;0;0;2;0;0;62;65;87;70;80;196.45;14;2.00;-7.00;-978.00
1716381971835112333;5;0;0;1;0;0;62;65;88;70;80;196.39;14;-10.00;-4.00;-1000.00
1716381971890600681;3;0;0;1;0;0;62;65;89;70;80;196.41;14;19.00;-14.00;-1000.00
1716381971993313550;1;0;0;0;0;0;62;65;90;70;80;196.41;15;31.00;-24.00;-973.00
1716381972089719057;1;0;1;0;0;0;62;65;90;70;80;196.37;15;23.00;-3.00;-986.00
1716381972196083545;0;0;7;0;0;0;62;65;91;70;80;196.43;15;8.00;-8.00;-978.00
1716381972294374704;0;0;13;0;0;0;62;65;91;70;80;196.47;15;14.00;-10.00;-1002.00
1716381972395767450;0;0;20;0;0;0;62;65;91;70;80;196.44;15;13.00;-12.00;-986.00
1716381972498602867;0;0;26;0;0;0;62;65;91;70;80;196.44;15;6.00;-7.00;-987.00
1716381972600614547;0;0;32;0;0;0;62;65;91;70;80;196.48;15;14.00;-9.00;-986.00
1716381972704936265;0;0;39;0;0;0;62;65;91;70;80;196.44;15;4.00;-10.00;-983.00
1716381972804846763;0;0;45;0;0;0;62;65;91;70;80;196.49;15;3.00;-15.00;-967.00
1716381972910362482;0;0;52;0;0;0;62;65;90;70;80;196.47;15;4.00;-13.00;-999.00
1716381973008113861;0;0;58;0;0;0;62;65;89;70;80;196.42;16;0.00;-10.00;-994.00
1716381973109791755;0;0;65;0;0;0;62;65;89;70;80;196.41;16;1.00;4.00;-1012.00
1716381973212422132;0;0;72;0;0;0;62;65;89;70;80;196.38;16;2.00;-10.00;-1010.00
1716381973315224409;0;0;78;0;0;0;62;65;88;70;80;196.42;16;-4.00;-10.00;-1008.00
1716381973434609889;0;0;91;0;0;0;63;64;88;70;80;196.40;16;-25.00;-2.00;-993.00
1716381973519592046;0;0;98;0;0;0;63;64;87;70;80;196.37;16;-5.00;-11.00;-996.00
1716381973622027635;0;0;104;0;0;0;63;64;87;70;79;196.41;16;-8.00;0.00;-999.00
1716381973725216865;0;0;110;0;0;0;63;64;86;70;79;196.41;16;-11.00;2.00;-992.00
1716381973824117660;0;0;117;0;0;0;63;64;86;70;79;196.28;16;-8.00;-2.00;-1016.00
1716381973927412748;0;0;123;0;0;0;63;64;86;70;79;196.38;17;-5.00;1.00;-1020.00
1716381974027733564;0;0;128;0;0;0;63;64;86;70;79;196.38;17;-14.00;0.00;-989.00
1716381974134971141;0;0;134;0;0;0;63;64;86;70;79;196.42;17;-13.00;16.00;-1031.00
1716381974232080459;0;0;140;0;0;0;63;64;85;70;79;196.35;17;-3.00;3.00;-1001.00
1716381974334268569;0;0;145;0;0;0;63;64;86;70;79;196.31;17;-4.00;-4.00;-1014.00
1716381974436499118;0;0;151;0;0;0;62;65;85;70;79;196.30;17;-10.00;-8.00;-992.00
1716381974539447546;0;0;156;0;0;0;62;65;85;70;79;196.31;17;-24.00;6.00;-999.00
1716381974641949653;0;0;161;0;0;0;62;65;85;70;79;196.34;17;-32.00;2.00;-987.00
1716381974743056058;0;0;164;0;0;0;62;65;84;70;79;196.35;17;-28.00;3.00;-985.00
1716381974844611406;0;0;167;0;0;0;62;65;84;70;79;196.34;17;0.00;-6.00;-1005.00
1716381974946484327;0;0;169;0;0;0;62;65;84;70;79;196.37;18;1.00;-12.00;-1007.00
1716381975048938989;0;0;171;0;0;0;62;65;84;70;79;196.34;18;-13.00;-2.00;-1005.00
1716381975152906179;0;0;172;0;0;0;62;65;83;70;79;196.29;18;-21.00;-6.00;-987.00
1716381975253842353;0;0;173;0;0;0;62;65;83;70;79;196.31;18;-20.00;-3.00;-997.00
1716381975356703519;0;0;174;0;0;0;62;65;83;70;79;196.28;18;-19.00;-6.00;-999.00
1716381975458414316;0;0;174;0;0;0;63;65;82;70;79;196.27;18;-4.00;-11.00;-1004.00
1716381975562637329;0;0;175;0;0;0;63;65;82;70;79;196.28;18;0.00;-15.00;-1017.00
1716381975611742019;0;0;175;0;0;0;63;65;82;70;78;196.27;18;-10.00;-9.00;-1006.00
1716381975715272903;0;0;175;0;0;0;63;65;82;70;78;196.33;18;-26.00;-3.00;-1014.00
1716381975817224264;-7;0;175;0;0;0;63;65;81;70;78;196.33;18;7.00;-13.00;-998.00
1716381975922619342;-8;0;175;-1;0;0;63;65;81;70;78;196.29;19;-20.00;7.00;-1011.00
1716381976022559165;-8;0;175;-2;0;0;63;65;81;70;78;196.27;19;-33.00;-5.00;-1010.00
1716381976122865915;-8;0;175;-4;0;0;63;65;81;70;78;196.24;19;-33.00;-7.00;-1006.00
1716381976224845170;-8;0;175;-5;0;0;63;65;82;70;78;196.22;19;-44.00;-8.00;-1006.00
1716381976325937509;-7;0;175;-6;0;0;63;65;81;70;78;196.20;19;-54.00;-10.00;-988.00
1716381976428370237;-6;0;175;-6;0;0;63;65;81;70;78;196.16;19;-53.00;-20.00;-990.00
1716381976534629583;-6;0;175;-7;0;0;63;65;81;70;78;196.10;19;-62.00;-6.00;-995.00
1716381976632652044;-4;0;175;-8;0;0;63;65;81;70;78;196.11;19;-61.00;-12.00;-973.00
1716381976738024711;-1;1;175;-8;0;0;63;65;82;70;78;196.15;19;-61.00;-10.00;-1005.00
1716381976835792541;1;1;175;-7;0;0;63;65;82;70;78;196.20;19;-62.00;0.00;-991.00
1716381976938696861;3;0;175;-6;0;0;63;65;82;70;78;196.15;20;-65.00;-18.00;-1012.00
1716381977039760112;4;0;175;-5;0;0;63;65;81;70;78;196.17;20;-65.00;-9.00;-1010.00
1716381977142657518;2;0;175;-4;0;0;63;65;82;70;78;196.18;20;-55.00;-7.00;-1012.00
1716381977246617078;0;0;175;-3;0;0;63;65;81;70;78;196.16;20;-34.00;-24.00;-998.00
1716381977346588850;0;0;175;-2;0;0;63;65;81;70;78;196.23;20;-43.00;-3.00;-983.00
1716381977448349475;0;0;175;-2;0;0;63;66;81;70;78;196.19;20;-27.00;-21.00;-978.00
1716381977552748918;-1;0;175;-2;0;0;63;66;81;70;78;196.16;20;-24.00;-12.00;-1002.00
1716381977652838230;-1;0;175;-2;0;0;63;66;80;70;78;196.17;20;-18.00;-22.00;-987.00
1716381977753777265;0;0;175;-2;0;0;63;66;80;70;78;196.10;20;-23.00;-14.00;-1002.00
1716381977856066703;1;0;175;-2;0;0;63;66;80;70;78;196.20;20;-32.00;-3.00;-985.00
1716381977958622217;5;0;175;-2;0;0;63;66;77;70;78;196.24;21;-27.00;-5.00;-1015.00
1716381978060432195;9;0;161;1;0;0;63;66;71;70;78;196.28;21;20.00;6.00;-1155.00
1716381978163533926;-2;1;160;2;0;0;63;66;76;70;78;196.14;21;61.00;-24.00;-1073.00
1716381978264622449;-7;0;168;0;0;0;63;66;76;70;78;196.08;21;57.00;-34.00;-972.00
1716381978366130113;-1;0;175;0;0;0;63;66;78;70;78;196.18;21;-24.00;12.00;-1008.00
1716381978468950033;-2;-3;174;0;0;0;63;65;78;70;78;196.18;21;51.00;-80.00;-1088.00
1716381978569670438;-3;-2;175;0;0;0;63;65;77;70;77;196.27;21;62.00;-63.00;-1031.00
1716381978673363447;-4;0;176;1;0;0;63;65;77;70;77;196.15;21;11.00;17.00;-962.00
1716381978773942708;-3;2;175;0;0;0;63;65;76;70;77;196.21;21;6.00;10.00;-886.00
1716381978876024484;-1;4;175;1;0;1;63;65;75;60;77;196.15;21;2.00;15.00;-950.00
1716381978979124069;-3;1;175;1;0;2;63;65;73;60;77;196.20;22;42.00;-27.00;-911.00
1716381979084742546;0;1;174;1;0;2;63;65;72;60;77;196.08;22;-48.00;-24.00;-992.00
1716381979186629533;-3;0;174;1;0;3;63;65;68;60;77;196.02;22;-65.00;-27.00;-950.00
1716381979287592887;-5;0;175;1;0;3;63;65;64;50;77;195.90;22;-42.00;-3.00;-905.00
1716381979387311697;-3;0;175;1;0;4;63;65;60;50;77;195.92;22;-50.00;3.00;-941.00
1716381979491598129;-3;0;175;0;0;4;63;65;56;40;77;195.83;22;-1.00;-22.00;-960.00
1716381979589808225;-2;0;175;-1;0;4;63;65;51;40;77;195.89;22;-5.00;-21.00;-1006.00
1716381979641745567;0;0;175;-1;0;4;63;65;47;40;77;195.35;22;15.00;-22.00;-996.00
1716381979742721080;31;2;172;2;0;0;63;65;38;40;77;195.51;22;-35.00;-6.00;-1008.00
1716381979848996162;36;-20;142;6;-1;2;63;65;38;40;77;195.84;22;-49.00;-38.00;-1126.00
1716381979946984291;11;-20;125;10;-1;4;63;65;36;30;77;195.65;23;135.00;54.00;-1066.00
1716381980050023794;-3;-2;114;12;0;4;63;65;30;30;77;195.83;23;93.00;66.00;-938.00
1716381980153657913;-3;12;109;11;0;4;63;65;22;30;77;195.81;23;51.00;92.00;-883.00
1716381980253740549;-3;9;112;8;0;5;63;65;15;20;77;195.60;23;31.00;31.00;-1007.00
1716381980356474876;-5;6;124;6;0;5;63;65;14;20;77;195.12;23;47.00;10.00;-1030.00
1716381980459634065;-5;5;139;4;0;5;64;66;14;10;77;192.46;23;20.00;22.00;-1098.00
1716381980561459541;0;1;149;3;0;1;64;66;15;10;76;192.62;23;-201.00;-106.00;-2687.00
1716381980662053823;-7;4;149;3;0;0;64;66;15;10;76;193.71;23;52.00;3.00;-792.00
1716381980764173507;-7;4;154;2;0;2;64;66;15;10;76;193.33;23;30.00;-23.00;-855.00
1716381980866421699;0;0;161;1;0;2;64;66;15;0;76;192.93;23;-63.00;-98.00;-1160.00
1716381980968058586;-1;0;163;2;1;1;64;66;15;0;76;193.83;24;-39.00;-61.00;-927.00
1716381981070760726;0;0;167;3;1;1;64;66;15;0;76;193.91;24;-5.00;-49.00;-981.00
1716381981172204494;0;0;170;3;1;1;64;66;15;0;76;194.17;24;-35.00;23.00;-1001.00
1716381981274367332;0;0;172;3;1;1;64;66;15;0;76;194.12;24;-18.00;3.00;-995.00
1716381981377341270;0;0;174;3;1;1;64;66;15;0;76;194.20;24;-17.00;0.00;-1008.00
1716381981478510379;0;0;174;3;1;1;64;65;15;0;76;194.21;24;-7.00;-3.00;-1001.00
1716381981580940246;0;0;174;4;1;0;64;65;15;0;76;194.31;24;-28.00;15.00;-990.00
1716381981686833620;0;0;174;4;1;0;64;65;15;0;76;194.28;24;-26.00;0.00;-1011.00
1716381981784327030;0;0;174;4;1;0;64;65;15;0;76;194.41;24;-23.00;-7.00;-1004.00
1716381981890285015;0;0;174;4;1;0;64;65;10;0;76;194.63;24;-2.00;1.00;-1007.00
1716381981988575458;0;0;174;0;0;3;64;65;10;0;76;194.90;24;-2.00;0.00;-1002.00
1716381982094974756;0;0;174;0;0;4;64;65;10;0;76;195.05;24;-5.00;-6.00;-1005.00
1716381982198994874;0;0;174;0;0;4;64;65;10;0;76;195.15;24;-5.00;-3.00;-1000.00
1716381982298128128;0;0;174;0;0;3;64;65;10;0;76;195.16;24;-7.00;0.00;-998.00
1716381982397121906;0;0;174;0;0;3;64;65;10;0;76;195.17;24;-7.00;0.00;-996.00
1716381982498972177;0;0;174;0;0;3;64;66;10;0;76;195.26;24;-6.00;-2.00;-1001.00
1716381982603000164;0;0;174;0;0;2;64;66;10;0;76;195.26;24;-3.00;-2.00;-1003.00
1716381982703397274;0;0;174;0;0;0;64;66;10;0;76;195.21;24;-7.00;-3.00;-1000.00
1716381982805688142;0;0;174;0;0;0;64;66;10;0;76;195.23;24;-6.00;-3.00;-1000.00
1716381982907589197;0;0;174;0;0;0;64;66;10;0;76;195.25;24;-5.00;-1.00;-999.00
1716381983011304855;0;0;174;0;0;0;64;66;10;0;76;195.27;24;-6.00;-1.00;-1000.00
1716381983060638904;0;0;174;0;0;0;64;66;10;0;76;195.28;24;-4.00;0.00;-1001.00
1716381983164500474;0;0;174;0;0;0;64;66;10;0;76;195.24;24;-5.00;-2.00;-998.00
1716381983264406204;0;0;174;0;0;0;64;66;10;0;76;195.22;24;-6.00;-1.00;-999.00
1716381983365931034;0;0;174;0;0;0;64;66;10;0;76;195.21;24;-5.00;-1.00;-1000.00
1716381983468495368;0;0;174;0;0;0;63;67;10;0;76;195.21;24;-7.00;-1.00;-999.00
1716381983569499254;0;0;174;0;0;0;63;67;10;0;76;195.22;24;-5.00;-2.00;-999.00
1716381983672451019;0;0;174;0;0;0;63;67;10;0;76;195.19;24;-4.00;-1.00;-999.00
1716381983774062395;0;0;174;0;0;0;63;67;10;0;76;195.12;24;-5.00;0.00;-996.00
1716381983877725124;0;0;174;0;0;0;63;67;10;0;76;195.20;24;-5.00;-1.00;-1000.00
1716381983978865623;0;0;174;0;0;0;63;67;10;0;76;195.20;24;-3.00;-2.00;-999.00
1716381984084313154;0;0;174;0;0;0;63;67;10;0;76;195.20;24;-4.00;0.00;-1001.00
1716381984182260513;0;0;174;0;0;0;63;67;10;0;76;195.24;24;-4.00;-3.00;-1000.00
1716381984286707162;0;0;174;0;0;0;63;67;10;0;76;195.21;24;-6.00;0.00;-1000.00
1716381984385838747;0;0;174;0;0;0;63;67;10;0;76;195.26;24;-5.00;-1.00;-998.00
1716381984490930080;0;0;174;0;0;0;64;67;10;0;76;195.20;24;-5.00;-1.00;-1000.00
1716381984589751482;0;0;174;0;0;0;64;67;10;0;76;195.24;24;-3.00;-2.00;-998.00
1716381984692410469;0;0;174;0;0;0;64;67;10;0;76;195.22;24;-4.00;-2.00;-998.00
1716381984793687343;0;0;174;0;0;0;64;67;10;0;76;195.20;24;-5.00;0.00;-998.00
1716381984895884037;0;0;174;0;0;0;64;67;10;0;76;195.14;24;-6.00;-1.00;-1000.00
1716381984999176025;0;0;174;0;0;0;64;67;10;0;76;195.19;24;-5.00;-1.00;-998.00
1716381985100099086;0;0;174;0;0;0;64;67;10;0;76;195.24;24;-5.00;0.00;-1000.00
1716381985202844858;0;0;174;0;0;0;64;67;10;0;76;195.19;24;-5.00;-1.00;-997.00
1716381985304425954;0;0;174;0;0;0;64;67;10;0;76;195.16;24;-5.00;-1.00;-999.00
1716381985405976533;0;0;174;0;0;0;64;67;10;0;76;195.17;24;-5.00;-3.00;-1000.00
1716381985509486198;0;0;174;0;0;0;65;67;10;0;76;195.21;24;-5.00;-1.00;-1001.00
1716381985610787391;0;0;174;0;0;0;65;67;10;0;76;195.16;24;-5.00;-1.00;-998.00
1716381985717589139;0;0;174;0;0;0;65;67;10;0;76;195.19;24;-6.00;-2.00;-998.00
1716381985815326213;0;0;174;0;0;0;65;67;10;0;76;195.18;24;-7.00;-1.00;-999.00
1716381985918054580;0;0;174;0;0;0;65;67;10;0;76;195.21;24;-5.00;-1.00;-997.00
1716381986019023418;0;0;175;0;0;0;65;67;10;0;76;195.15;24;-6.00;-2.00;-998.00
1716381986068967103;0;0;175;0;0;0;65;67;10;0;76;195.13;24;-5.00;-2.00;-998.00
1716381986171219348;0;0;175;0;0;0;65;67;10;0;76;195.17;24;-5.00;-1.00;-998.00
1716381986272793054;0;0;175;0;0;0;65;67;10;0;76;195.19;24;-4.00;0.00;-999.00
1716381986375955104;0;0;175;0;0;0;65;67;10;0;76;195.14;24;-4.00;-2.00;-998.00
1716381986483267068;0;0;175;0;0;0;64;67;10;0;76;195.11;24;-5.00;-3.00;-998.00
1716381986581408500;0;0;175;0;0;0;64;67;10;0;76;195.14;24;-4.00;-1.00;-1002.00
1716381986684464693;0;0;175;0;0;0;64;67;10;0;76;195.17;24;-4.00;-1.00;-999.00
1716381986788097858;0;0;175;0;0;0;64;67;10;0;76;195.20;24;-5.00;-2.00;-999.00
1716381986887934923;0;0;175;0;0;0;64;67;10;0;76;195.38;24;-5.00;0.00;-998.00
1716381986997871398;0;0;175;0;0;0;64;67;10;0;76;195.52;24;-6.00;-1.00;-999.00
1716381987092880010;0;0;175;0;0;0;64;67;10;0;76;195.65;24;-4.00;-1.00;-1000.00
1716381987192758321;0;0;175;0;0;0;64;67;10;0;76;195.66;24;-5.00;-3.00;-996.00
1716381987294707298;0;0;175;0;0;0;64;67;10;0;76;195.56;24;-5.00;-1.00;-998.00
1716381987398401260;0;0;175;0;0;0;64;67;10;0;76;195.53;24;-6.00;-1.00;-998.00
1716381987500335454;0;0;175;0;0;0;65;67;10;0;76;195.44;24;-5.00;-1.00;-1000.00
1716381987600714206;0;0;175;0;0;0;65;67;10;0;76;195.44;24;-4.00;-2.00;-998.00
1716381987702775239;0;0;175;0;0;0;65;67;10;0;76;195.41;24;-4.00;-1.00;-997.00
1716381987804844379;0;0;175;0;0;0;65;67;10;0;76;195.41;24;-5.00;-2.00;-997.00
1716381987906610012;0;0;175;0;0;0;65;67;10;0;76;195.47;24;-5.00;-1.00;-999.00
1716381988013818979;0;0;175;0;0;0;65;67;10;0;76;195.41;24;-4.00;-1.00;-998.00
1716381988117147684;0;0;175;0;0;0;65;67;10;0;76;195.42;24;-4.00;-2.00;-998.00
1716381988213673353;0;0;175;0;0;0;65;67;10;0;76;195.38;24;-3.00;-1.00;-999.00
1716381988316109418;0;0;175;0;0;0;65;67;10;0;76;195.36;24;-6.00;-1.00;-1000.00
1716381988418094158;0;0;175;0;0;0;65;67;10;0;76;195.38;24;-4.00;-1.00;-997.00
1716381988520236015;0;0;175;0;0;0;65;67;10;0;76;195.36;24;-5.00;-1.00;-999.00
1716381988630545377;0;0;175;0;0;0;65;67;10;0;76;195.37;24;-5.00;0.00;-998.00
1716381988722688198;0;0;175;0;0;0;65;67;10;0;76;195.34;24;-5.00;-1.00;-997.00
1716381988825477838;0;0;175;0;0;0;65;67;10;0;76;195.37;24;-4.00;-1.00;-998.00
1716381988928259849;0;0;175;0;0;0;65;67;10;0;76;195.35;24;-5.00;0.00;-1000.00
1716381989031403541;0;0;175;0;0;0;65;67;10;0;76;195.32;24;-6.00;-1.00;-998.00
1716381989131881952;0;0;175;0;0;0;65;67;10;0;76;195.34;24;-5.00;-2.00;-999.00
1716381989233151435;0;0;175;0;0;0;65;67;10;0;76;195.27;24;-5.00;0.00;-998.00
1716381989334711790;0;0;175;0;0;0;65;67;10;0;76;195.33;24;-5.00;-2.00;-1000.00
1716381989386445522;0;0;175;0;0;0;65;67;10;0;76;195.30;24;-6.00;0.00;-998.00
1716381989540216922;0;0;175;0;0;0;66;67;10;0;76;195.33;24;-4.00;-1.00;-1000.00
1716381989589636802;0;0;175;0;0;0;66;67;10;0;76;195.39;24;-6.00;-1.00;-997.00
1716381989695589542;0;0;175;0;0;0;66;67;10;0;76;195.33;24;-4.00;-1.00;-1000.00
1716381989794135570;0;0;175;0;0;0;66;67;10;0;76;195.35;24;-6.00;-2.00;-999.00
1716381989897318124;0;0;175;0;0;0;66;67;10;0;76;195.36;24;-6.00;-3.00;-998.00
1716381989997593879;0;0;175;0;0;0;66;67;10;0;76;195.34;24;-5.00;-1.00;-1000.00
1716381990099797725;0;0;175;0;0;0;66;67;10;0;76;195.39;24;-6.00;-1.00;-999.00
1716381990203290224;0;0;175;0;0;0;66;67;10;0;76;195.35;24;-5.00;0.00;-999.00
1716381990303941011;0;0;175;0;0;0;66;67;10;0;76;195.32;24;-5.00;0.00;-1001.00
1716381990406156539;0;0;175;0;0;0;66;67;10;0;76;195.29;24;-4.00;-2.00;-998.00
1716381990507859468;0;0;175;0;0;0;66;67;10;0;76;195.30;24;-5.00;0.00;-998.00
1716381990611275434;0;0;175;0;0;0;66;67;10;0;76;195.39;24;-6.00;0.00;-1000.00
1716381990718553066;0;0;175;0;0;0;66;67;10;0;76;195.33;24;-6.00;-1.00;-999.00
