timestampns;pitch;roll;yaw;vgx;vgy;vgz;templ;temph;tof;h;bat;baro;time;agx;agy;agz;
1716905445583061456;0;0;0;0;0;0;84;87;10;0;17;155.09;0;-11.00;11.00;-1001.00
1716905445685036182;0;0;0;0;0;0;84;87;10;0;17;155.06;0;-12.00;10.00;-999.00
1716905445789334058;0;0;0;0;0;0;84;87;10;0;17;155.12;0;-11.00;11.00;-1000.00
1716905445888665914;0;0;0;0;0;0;84;87;10;0;17;155.11;0;-11.00;10.00;-1000.00
1716905445990880012;0;0;0;0;0;0;84;87;10;0;17;155.09;0;-11.00;11.00;-1000.00
1716905446092799901;0;0;0;0;0;0;85;89;10;0;17;155.11;0;-11.00;12.00;-999.00
1716905446194553375;0;0;0;0;0;0;85;89;10;0;17;155.13;0;-12.00;11.00;-998.00
1716905446296507120;0;0;0;0;0;0;85;89;10;0;17;155.17;0;-12.00;11.00;-1000.00
1716905446398585319;0;0;0;0;0;0;85;89;10;0;17;155.23;0;-12.00;11.00;-1000.00
1716905446501897811;0;0;0;0;0;0;85;89;10;0;17;155.19;0;-17.00;8.00;-997.00
1716905446552292108;0;0;0;0;0;0;85;89;10;0;17;155.19;0;-11.00;9.00;-999.00
1716905446654663324;0;0;0;0;0;0;85;89;10;0;17;155.19;0;-20.00;16.00;-996.00
1716905446755741834;0;0;0;0;0;0;85;89;10;0;17;155.19;0;-8.00;-12.00;-987.00
1716905446857702255;0;0;0;0;0;0;85;89;10;0;17;155.19;0;-18.00;45.00;-987.00
1716905446959671974;0;0;0;0;0;0;85;89;10;0;17;155.19;0;-35.00;18.00;-1102.00
1716905447061614036;0;0;0;0;0;2;86;90;10;0;17;155.19;0;-14.00;-1.00;-1149.00
1716905447163709402;-1;0;0;0;0;5;86;90;10;10;17;155.19;0;-22.00;12.00;-1323.00
1716905447265532970;0;0;0;0;0;7;86;90;20;10;17;155.62;0;-17.00;16.00;-1157.00
1716905447367431879;0;0;0;0;0;8;86;90;28;20;17;155.80;0;4.00;-15.00;-1047.00
1716905447469699621;0;0;0;0;0;9;86;90;36;30;17;155.94;1;0.00;2.00;-992.00
1716905447571450710;0;0;0;0;0;8;86;90;44;40;17;156.00;1;-3.00;15.00;-962.00
1716905447673512458;0;0;0;0;0;8;86;90;50;50;17;156.09;1;-31.00;12.00;-878.00
1716905447775626897;0;0;0;0;0;7;86;90;56;60;17;156.25;1;-11.00;-6.00;-844.00
1716905447888999700;0;0;0;0;0;5;86;90;61;70;17;156.33;1;12.00;-15.00;-857.00
1716905447980195045;0;0;0;0;0;4;86;90;65;70;17;156.46;1;5.00;-12.00;-878.00
1716905448083220243;0;0;0;0;0;3;86;90;67;80;17;156.45;1;14.00;-14.00;-877.00
1716905448272214889;0;0;0;0;0;2;86;90;68;80;17;156.48;1;-5.00;14.00;-930.00
1716905448285629987;0;0;0;0;0;1;86;90;69;80;17;156.50;1;10.00;-6.00;-960.00
1716905448387706518;0;0;0;0;0;0;86;90;69;80;17;156.52;1;-10.00;-6.00;-947.00
1716905448670618772;0;0;0;0;0;0;86;90;69;80;17;156.48;2;-31.00;22.00;-975.00
1716905448674756526;-1;0;0;0;0;0;86;90;68;80;17;156.56;2;-5.00;-1.00;-990.00
1716905448693582773;-1;0;0;0;0;0;86;90;68;80;17;156.50;2;-27.00;23.00;-1012.00
1716905448795530796;-1;0;0;0;0;0;86;90;68;80;17;156.50;2;-14.00;12.00;-1020.00
1716905449022007465;0;0;0;0;0;0;86;90;68;80;17;156.51;2;-28.00;27.00;-1008.00
1716905449022686719;-1;0;0;0;0;0;86;90;68;80;17;156.47;2;-30.00;23.00;-1053.00
1716905449050505399;-1;0;0;0;0;1;86;90;68;80;17;156.44;2;-26.00;21.00;-1044.00
1716905449152717590;-1;0;0;0;0;1;86;90;66;80;17;156.41;2;-8.00;-13.00;-1054.00
1716905449392286539;-1;0;0;0;0;1;86;90;67;80;17;156.39;2;-16.00;-1.00;-1017.00
1716905449394845247;-1;0;0;0;0;1;86;90;68;80;17;156.38;2;-18.00;7.00;-1032.00
1716905449462049007;-1;0;0;0;0;1;86;90;69;80;17;156.40;3;5.00;-16.00;-1024.00
1716905449560642719;-1;0;0;0;0;1;86;90;70;80;17;156.30;3;-14.00;-13.00;-1041.00
1716905449772189617;-1;0;0;0;0;1;86;90;71;80;17;156.28;3;-42.00;18.00;-981.00
1716905449773086786;-1;0;0;0;0;1;86;90;72;80;17;156.22;3;-24.00;13.00;-979.00
1716905449866482973;-1;0;0;0;0;1;86;90;74;80;17;156.33;3;-23.00;15.00;-1013.00
1716905450143532752;-1;0;0;0;0;1;86;90;75;80;17;156.28;3;-22.00;19.00;-976.00
1716905450149390697;-1;0;0;0;0;0;86;89;76;80;17;156.31;3;-15.00;2.00;-1001.00
1716905450172576427;-1;0;0;0;0;0;86;89;77;80;17;156.33;3;-35.00;25.00;-1007.00
1716905450274903535;-1;-1;0;0;0;1;86;89;79;80;17;156.24;3;-1.00;12.00;-1028.00
1716905450524071455;0;-1;0;0;0;1;86;89;80;90;17;156.20;3;-41.00;20.00;-983.00
1716905450524714231;-1;-1;0;0;0;1;86;89;82;90;17;156.11;4;-28.00;18.00;-994.00
1716905450580485343;-1;0;0;0;0;0;86;89;83;90;17;156.15;4;-30.00;14.00;-952.00
1716905450682500123;-1;0;0;0;0;0;86;89;84;90;17;156.19;4;-12.00;-9.00;-978.00
1716905450899503707;-1;0;0;0;0;0;86;89;85;90;17;156.07;4;4.00;7.00;-971.00
1716905450900123834;-1;0;0;0;0;0;86;89;86;90;17;156.15;4;-29.00;25.00;-997.00
1716905450988500595;-1;-1;0;0;0;0;86;89;86;90;17;156.04;4;-22.00;28.00;-1024.00
1716905451090506076;0;0;0;0;0;0;86;89;87;90;17;156.01;4;-38.00;19.00;-1015.00
1716905451274357795;-1;0;0;0;0;0;86;89;87;90;17;155.97;4;-51.00;38.00;-951.00
1716905451294833660;-1;0;0;0;0;0;86;89;88;90;17;156.03;4;3.00;2.00;-1008.00
1716905451397150039;-1;0;0;0;0;0;86;89;88;90;17;156.01;4;-1.00;-14.00;-953.00
1716905451640386819;-1;0;0;0;0;0;86;89;89;90;17;155.99;5;-6.00;-16.00;-969.00
1716905451653980493;-1;0;0;0;0;0;86;89;89;90;17;155.93;5;-6.00;18.00;-1027.00
1716905451660460710;-1;0;0;0;0;0;86;89;89;90;17;155.91;5;-4.00;10.00;-998.00
1716905451754010915;-1;0;0;0;0;0;86;89;89;90;17;155.75;5;-33.00;23.00;-987.00
1716905452063764572;-1;0;0;0;0;0;86;89;88;90;17;155.78;5;7.00;1.00;-1018.00
1716905452080898046;-1;0;0;0;0;0;86;89;88;90;17;155.73;5;-2.00;2.00;-1016.00
1716905452082412481;-2;0;0;0;0;0;86;89;88;90;17;155.59;5;-25.00;25.00;-982.00
1716905452170161247;-1;0;0;0;0;0;86;89;87;90;17;155.54;5;-45.00;30.00;-1000.00
1716905452263997793;-1;0;0;0;0;0;86;89;87;90;17;155.55;5;-46.00;42.00;-1007.00
1716905452523392677;-1;0;0;0;0;0;86;89;86;90;17;155.67;5;2.00;2.00;-1006.00
1716905452569182634;-1;0;0;0;0;0;86;89;86;90;17;155.46;6;-5.00;-16.00;-1010.00
1716905452676124334;-1;0;0;0;0;0;86;89;86;90;17;155.41;6;-17.00;0.00;-970.00
1716905452998620510;-1;0;0;0;0;0;86;89;85;90;17;155.30;6;-4.00;-3.00;-1018.00
1716905453005891799;-1;0;0;0;0;0;86;89;85;90;17;155.23;6;-16.00;7.00;-1008.00
1716905453009512424;-1;0;0;0;0;0;86;89;85;90;17;155.20;6;1.00;-5.00;-998.00
1716905453079737186;-1;0;0;0;0;0;85;89;84;90;17;155.23;6;-60.00;47.00;-1031.00
1716905453181763410;-1;0;0;0;0;0;85;89;84;90;17;155.16;6;-18.00;7.00;-1010.00
1716905453283415317;-1;0;0;0;0;0;85;89;84;90;17;155.15;6;-5.00;0.00;-1046.00
1716905453385419607;-1;0;0;0;0;0;85;89;84;90;17;155.08;6;-26.00;4.00;-962.00
1716905453487557411;-1;0;0;0;0;0;85;89;83;90;17;155.02;7;1.00;-18.00;-1011.00
1716905453591197013;-1;0;0;0;0;0;85;89;83;90;17;155.02;7;1.00;-10.00;-1036.00
1716905453691518306;-1;0;0;0;0;0;85;89;83;90;17;154.97;7;-21.00;9.00;-1026.00
1716905453793552398;-1;0;0;0;0;0;85;89;83;90;17;154.86;7;-27.00;-3.00;-989.00
1716905453896169662;-1;0;0;0;0;0;85;89;82;90;17;154.87;7;-26.00;13.00;-1000.00
1716905453999730110;-1;0;0;0;0;0;85;89;82;90;17;154.92;7;-26.00;24.00;-986.00
1716905454099309921;-1;0;0;0;0;0;86;88;82;90;17;154.84;7;-30.00;5.00;-1000.00
1716905454150379180;-1;0;0;0;0;0;86;88;82;90;17;154.85;7;-36.00;11.00;-996.00
1716905454252389669;-1;0;0;0;0;0;86;88;82;90;17;154.83;7;-35.00;15.00;-988.00
1716905454355432033;-1;0;0;0;0;0;86;88;82;90;17;154.91;7;-20.00;11.00;-993.00
1716905454458005666;-1;0;0;0;0;0;86;88;82;90;17;154.77;8;-15.00;-15.00;-998.00
1716905454560463190;-1;0;0;0;0;0;86;88;81;90;17;154.81;8;-32.00;27.00;-1023.00
1716905454667296409;-1;0;0;0;0;0;86;88;81;90;17;154.69;8;-10.00;-14.00;-1024.00
1716905454762459278;-1;0;0;0;0;0;86;88;81;90;17;154.56;8;-9.00;-2.00;-997.00
1716905454864283800;-1;0;0;0;0;0;86;88;82;90;17;154.53;8;-34.00;12.00;-998.00
1716905454968929052;-1;0;0;0;0;0;86;88;82;90;17;154.53;8;-19.00;-5.00;-1013.00
1716905455069696664;-1;0;0;0;0;0;85;89;82;90;17;154.51;8;7.00;-18.00;-1024.00
1716905455172002553;-1;0;0;0;0;0;85;89;82;90;17;154.45;8;-32.00;34.00;-984.00
1716905455272261857;-1;0;0;0;0;0;85;89;83;90;17;154.50;8;-27.00;8.00;-1020.00
1716905455374189853;-1;0;0;0;0;0;85;89;83;90;17;154.39;8;-12.00;-5.00;-998.00
1716905455478951215;-2;0;0;0;0;0;85;89;83;90;17;154.47;9;-23.00;26.00;-1050.00
1716905455580213546;-8;0;0;0;0;0;85;89;84;90;17;154.45;9;21.00;-2.00;-999.00
1716905455680293560;-8;0;0;-1;0;0;85;89;84;90;17;154.47;9;0.00;-18.00;-999.00
1716905455782138824;-6;0;0;-2;0;0;85;89;83;90;17;154.54;9;-44.00;5.00;-1020.00
1716905455887233972;-4;0;0;-3;0;0;85;89;84;90;17;154.60;9;-18.00;-5.00;-1012.00
1716905455989862203;-1;0;0;-3;0;0;85;89;84;90;17;154.67;9;-26.00;-5.00;-993.00
1716905456088538169;0;0;0;-3;0;0;85;88;84;90;17;154.76;9;-39.00;6.00;-1013.00
1716905456190196514;-1;0;0;-2;0;0;85;88;84;90;17;154.86;9;-69.00;20.00;-1008.00
1716905456292798280;-1;0;0;-2;0;0;85;88;84;90;17;154.85;9;-57.00;16.00;-983.00
1716905456394165754;-1;0;0;-2;0;0;85;88;84;90;17;154.91;9;-40.00;-9.00;-959.00
1716905456496266126;-2;0;0;-2;0;0;85;88;84;90;17;154.90;10;-24.00;11.00;-1010.00
1716905456599926471;-2;0;0;-2;0;0;85;88;84;90;17;155.01;10;-29.00;15.00;-1008.00
1716905456703053712;-1;0;0;-2;0;0;85;88;83;90;17;155.07;10;-45.00;15.00;-967.00
1716905456751420974;-2;0;0;-2;0;0;85;88;83;90;17;155.06;10;-44.00;20.00;-996.00
1716905456855782747;-2;0;0;-2;0;0;85;88;83;90;17;155.11;10;-36.00;44.00;-1035.00
1716905456956474542;-2;0;0;-2;0;0;85;88;82;90;17;155.18;10;-42.00;37.00;-1027.00
1716905457057036399;-2;0;0;-2;0;0;85;88;82;90;17;155.27;10;-31.00;16.00;-1012.00
1716905457159303426;-2;0;0;-2;0;0;85;88;81;90;17;155.29;10;-21.00;8.00;-1022.00
1716905457262464523;-1;0;0;-2;0;0;85;88;81;90;17;155.30;10;-47.00;31.00;-1005.00
1716905457363195896;-1;0;0;-2;0;0;85;88;80;90;17;155.41;10;-60.00;31.00;-978.00
1716905457465434551;0;0;0;-2;0;0;85;88;79;90;17;155.32;11;-33.00;5.00;-986.00
1716905457570206165;2;0;0;-1;0;0;85;88;78;90;17;155.38;11;-22.00;-1.00;-1000.00
1716905457669804096;2;0;0;-1;0;0;85;88;78;90;17;155.39;11;-40.00;32.00;-1027.00
1716905457772580862;0;0;0;0;0;0;85;88;76;90;17;155.37;11;-21.00;27.00;-1011.00
1716905457875647544;0;0;0;0;0;0;85;88;76;90;17;155.44;11;-53.00;34.00;-1002.00
1716905457976125478;0;0;0;0;0;0;85;88;75;80;17;155.41;11;-37.00;35.00;-1003.00
1716905458078201770;0;0;0;0;0;0;83;88;75;80;17;155.46;11;-21.00;26.00;-1017.00
1716905458180116653;0;-1;0;0;0;0;83;88;74;80;17;155.54;11;-14.00;-6.00;-1002.00
1716905458282073259;0;0;0;0;0;0;83;88;74;80;17;155.51;11;-6.00;-19.00;-982.00
1716905458384442329;0;0;0;0;0;0;83;88;74;80;17;155.44;11;-23.00;19.00;-989.00
1716905458487930059;-2;0;0;0;0;0;83;88;74;80;17;155.32;12;-30.00;20.00;-1026.00
1716905458590251445;-8;0;0;0;0;0;83;88;74;80;17;155.44;12;-14.00;9.00;-985.00
1716905458690066576;-8;0;0;-2;0;0;83;88;74;80;17;155.46;12;-33.00;37.00;-1038.00
1716905458792890310;-5;0;0;-3;0;0;83;88;74;80;17;155.36;12;-58.00;24.00;-1028.00
1716905458896888256;-3;0;0;-3;0;0;83;88;75;80;17;155.36;12;-50.00;-3.00;-978.00
1716905458996815681;0;0;0;-3;0;0;83;88;74;80;17;155.33;12;-36.00;6.00;-1006.00
1716905459100376367;0;0;0;-3;0;0;84;88;73;80;17;155.29;12;-59.00;29.00;-1025.00
1716905459199960947;0;0;0;-2;0;0;84;88;74;80;17;155.32;12;-7.00;7.00;-1023.00
1716905459305007457;-1;0;0;-2;0;0;84;88;76;80;17;155.39;12;-58.00;12.00;-970.00
1716905459403664827;-1;0;0;-2;0;0;84;88;77;80;17;155.38;12;-52.00;29.00;-998.00
1716905459506149768;-1;0;0;-2;0;0;84;88;78;80;17;155.45;13;-30.00;8.00;-989.00
1716905459556993007;-1;0;0;-2;0;0;84;88;79;80;17;155.51;13;-31.00;15.00;-1011.00
1716905459659319877;-1;0;0;-2;0;0;84;88;80;80;17;155.58;13;-27.00;17.00;-1019.00
1716905459761094570;-1;0;0;-2;0;0;84;88;81;90;17;155.58;13;-11.00;5.00;-1019.00
1716905459863245248;-1;0;0;-2;0;0;84;88;81;90;17;155.60;13;-8.00;0.00;-988.00
1716905459964972257;0;0;0;-2;0;0;84;88;82;90;17;155.63;13;-34.00;1.00;-970.00
1716905460068413972;0;0;0;-2;0;0;83;87;82;90;17;155.67;13;-71.00;37.00;-974.00
1716905460170792341;0;0;0;-1;0;0;83;87;82;90;17;155.62;13;-35.00;13.00;-978.00
1716905460272291421;2;-1;0;-1;0;0;83;87;83;90;17;155.65;13;-32.00;-10.00;-992.00
1716905460374368906;1;0;0;0;0;0;83;87;82;90;17;155.61;13;-29.00;14.00;-1035.00
1716905460477287769;0;0;0;0;0;0;83;87;82;90;17;155.62;14;0.00;-3.00;-1022.00
1716905460577570199;0;0;0;0;0;0;83;87;82;90;17;155.62;14;-14.00;18.00;-1012.00
1716905460680554151;0;0;0;0;0;0;83;87;82;90;17;155.64;14;9.00;-9.00;-985.00
1716905460782235860;0;0;0;0;0;0;83;87;81;90;17;155.55;14;8.00;3.00;-999.00
1716905460883725643;0;0;0;0;0;0;83;87;81;90;17;155.50;14;-29.00;17.00;-978.00
1716905460985804319;0;0;0;0;0;0;83;87;81;90;17;155.40;14;-11.00;-2.00;-970.00
1716905461087787151;0;0;0;0;0;0;84;87;81;90;17;155.38;14;-31.00;40.00;-1029.00
1716905461189808130;0;0;0;0;0;0;84;87;80;90;17;155.38;14;6.00;-5.00;-1004.00
1716905461291756629;0;0;0;0;0;0;84;87;80;90;17;155.29;14;-25.00;-5.00;-976.00
1716905461393808603;0;0;0;0;0;0;84;87;80;90;17;155.22;14;0.00;25.00;-1014.00
1716905461497339725;0;0;2;0;0;0;84;87;81;90;17;155.18;15;-15.00;14.00;-1005.00
1716905461597980737;0;0;7;0;0;0;84;87;81;90;17;155.17;15;-22.00;23.00;-1020.00
1716905461700964927;0;0;13;0;0;0;84;87;81;90;17;155.19;15;-21.00;28.00;-1007.00
1716905461803215265;0;0;19;0;0;0;84;87;81;90;17;155.12;15;-30.00;47.00;-1018.00
1716905461904223203;-1;0;25;0;0;0;84;87;81;90;17;155.17;15;-18.00;27.00;-1013.00
1716905462006006479;-1;0;31;0;0;0;84;87;82;90;17;155.16;15;-21.00;21.00;-1014.00
1716905462110691785;-1;0;37;0;0;0;84;87;82;90;17;155.19;15;-5.00;16.00;-969.00
1716905462209901332;0;0;43;0;0;0;84;87;82;90;17;155.18;15;19.00;-3.00;-1035.00
1716905462311944961;0;0;49;0;0;0;84;87;82;90;17;155.22;15;-10.00;-7.00;-972.00
1716905462413762331;0;0;55;0;0;0;84;87;82;90;17;155.20;15;-23.00;27.00;-987.00
1716905462520073413;0;0;61;0;0;0;84;87;82;90;17;155.19;16;-22.00;38.00;-1002.00
1716905462624875307;0;-1;67;0;0;0;84;87;82;90;17;155.26;16;-10.00;10.00;-999.00
1716905462730901002;0;-1;73;0;0;0;84;87;82;90;17;155.24;16;-12.00;15.00;-992.00
1716905462833729505;0;-1;79;0;0;0;84;87;82;90;17;155.30;16;-35.00;10.00;-969.00
1716905462928617715;0;-1;85;0;0;0;84;87;82;90;17;155.27;16;-6.00;12.00;-975.00
1716905462976238012;0;-1;91;0;0;0;84;87;82;90;17;155.27;16;-28.00;24.00;-984.00
1716905463129046440;0;0;97;0;0;0;83;87;82;90;17;155.27;16;-11.00;-4.00;-970.00
1716905463230738878;0;0;103;0;0;0;83;87;81;90;17;155.25;16;5.00;-5.00;-963.00
1716905463282105684;0;0;109;0;0;0;83;87;81;90;17;155.23;16;-22.00;31.00;-992.00
1716905463392166614;0;0;115;0;0;0;83;87;81;90;17;155.16;16;9.00;-4.00;-996.00
1716905463485862493;0;0;121;0;0;0;83;87;80;90;17;155.14;17;-3.00;21.00;-1020.00
1716905463589605331;0;0;127;0;0;0;83;87;80;90;17;155.11;17;0.00;5.00;-1002.00
1716905463690106630;0;0;133;0;0;0;83;87;80;90;17;155.18;17;-2.00;14.00;-997.00
1716905463792145729;0;0;139;0;0;0;83;87;80;90;17;155.15;17;-12.00;13.00;-1005.00
1716905463893554687;0;0;145;0;0;0;83;87;79;90;17;155.12;17;-11.00;24.00;-1002.00
1716905464010794401;0;0;151;0;0;0;83;87;80;90;17;155.08;17;-26.00;32.00;-1014.00
1716905464097449064;0;0;157;0;0;0;83;87;80;90;17;155.18;17;13.00;-2.00;-1005.00
1716905464200431823;0;0;162;0;0;0;83;87;80;90;17;155.19;17;-33.00;34.00;-988.00
1716905464301587820;0;0;166;0;0;0;83;87;80;90;17;155.19;17;-11.00;16.00;-1016.00
1716905464404122114;0;0;169;0;0;0;83;87;81;90;17;155.25;17;-11.00;24.00;-1009.00
1716905464505581617;0;0;172;0;0;0;83;87;81;90;17;155.34;18;-6.00;4.00;-1010.00
1716905464608034133;0;0;174;0;0;0;83;87;81;90;17;155.45;18;-20.00;16.00;-1019.00
1716905464710189819;0;0;175;0;0;0;83;87;82;90;17;155.53;18;3.00;-13.00;-1015.00
1716905464811828136;0;0;176;0;0;0;83;87;82;90;17;155.57;18;-3.00;26.00;-1042.00
1716905464913864374;0;0;177;0;0;0;83;87;82;90;17;155.58;18;1.00;0.00;-991.00
1716905465016800403;0;0;177;0;0;0;83;87;83;90;17;155.63;18;-32.00;34.00;-988.00
1716905465118722200;0;0;177;0;0;0;83;86;83;90;17;155.71;18;-16.00;-17.00;-1042.00
1716905465219640731;-3;0;177;0;0;0;83;86;84;90;17;155.65;18;-20.00;35.00;-961.00
1716905465327181339;-8;0;177;0;0;0;83;86;84;90;17;155.63;18;-26.00;24.00;-1035.00
1716905465423582315;-7;0;177;2;0;0;83;86;83;90;17;155.64;18;-3.00;-5.00;-1019.00
1716905465525432586;-4;0;177;3;0;0;83;86;83;90;17;155.61;19;-46.00;22.00;-985.00
1716905465627341270;-2;0;177;3;0;0;83;86;83;90;17;155.54;19;-31.00;-12.00;-1005.00
1716905465730141401;0;0;177;3;0;0;83;86;82;90;17;155.56;19;-46.00;18.00;-995.00
1716905465839310169;1;0;178;3;0;0;83;86;82;90;17;155.55;19;-34.00;3.00;-1005.00
1716905465933272123;0;0;178;2;0;0;83;86;82;90;17;155.51;19;-32.00;25.00;-1012.00
1716905466035346508;0;0;178;2;0;0;83;86;82;90;17;155.47;19;-31.00;34.00;-1036.00
1716905466137606620;0;0;178;2;0;0;83;85;82;90;17;155.51;19;-17.00;7.00;-1032.00
1716905466239784717;0;0;178;2;0;0;83;85;82;90;17;155.44;19;-11.00;-30.00;-986.00
1716905466341626405;0;0;177;2;0;0;83;85;82;90;17;155.48;19;-27.00;-15.00;-971.00
1716905466444198131;0;0;178;2;0;0;83;85;82;90;17;155.42;19;-30.00;9.00;-993.00
1716905466545416116;0;0;177;2;0;0;83;85;82;90;17;155.43;20;-2.00;1.00;-1016.00
1716905466647439718;0;0;177;2;0;0;83;85;83;90;17;155.44;20;-27.00;-1.00;-977.00
1716905466750236988;1;0;177;2;0;0;83;85;83;90;17;155.51;20;0.00;10.00;-986.00
1716905466800728321;3;0;177;1;0;0;83;85;84;90;17;155.46;20;-57.00;17.00;-980.00
1716905466902515649;3;-1;177;0;0;0;83;85;83;90;17;155.51;20;-25.00;8.00;-974.00
1716905467004299879;1;-4;177;0;0;0;83;85;83;90;17;155.53;20;-2.00;-3.00;-987.00
1716905467158123493;0;1;177;0;-1;0;83;85;84;90;17;155.51;20;-3.00;0.00;-1048.00
1716905467259451150;0;2;177;0;0;0;83;85;84;90;17;155.54;20;-4.00;28.00;-970.00
1716905467311271667;0;1;177;0;0;0;83;85;84;90;17;155.48;20;-20.00;5.00;-1001.00
1716905467414415597;0;0;177;0;0;0;83;85;84;90;17;155.46;21;-26.00;0.00;-982.00
1716905467515135288;0;0;177;0;0;0;83;85;84;90;17;155.47;21;-6.00;6.00;-1010.00
1716905467617931842;0;0;177;0;0;0;83;85;85;90;17;155.45;21;-5.00;20.00;-1019.00
1716905467719157457;0;0;177;0;0;0;83;85;85;90;17;155.37;21;-1.00;3.00;-998.00
1716905467821993112;0;0;177;0;0;0;83;85;85;90;17;155.28;21;0.00;10.00;-995.00
1716905467935000181;-1;0;177;0;0;0;83;85;85;90;17;155.35;21;-3.00;25.00;-983.00
1716905468038837671;-7;0;177;0;0;0;83;85;85;90;17;155.32;21;10.00;1.00;-1001.00
1716905468126260280;-7;0;177;2;0;0;82;85;86;90;17;155.28;21;-21.00;7.00;-975.00
1716905468228694677;-4;0;177;3;0;0;82;85;85;90;17;155.26;21;-5.00;4.00;-993.00
1716905468342629432;-2;0;177;3;0;0;82;85;85;90;17;155.22;21;-36.00;21.00;-997.00
1716905468436226367;0;0;177;3;0;0;82;85;85;90;17;155.31;22;-34.00;25.00;-1041.00
1716905468534644365;1;0;177;3;0;0;82;85;85;90;17;155.29;22;-12.00;11.00;-1014.00
1716905468636494159;0;0;177;3;0;0;82;85;85;90;17;155.23;22;-24.00;5.00;-985.00
1716905468738699913;0;0;177;2;0;0;82;85;85;90;17;155.30;22;-19.00;2.00;-978.00
1716905468840436458;0;0;177;2;0;0;82;85;85;90;17;155.21;22;-5.00;-9.00;-999.00
1716905468943389415;0;0;177;2;0;0;82;85;85;90;17;155.17;22;-23.00;0.00;-1017.00
1716905469045352458;0;0;177;2;0;0;82;85;85;90;17;155.23;22;-31.00;43.00;-1025.00
1716905469147208929;0;0;177;2;0;0;82;85;85;90;17;155.19;22;-42.00;20.00;-997.00
1716905469248963594;0;0;177;2;0;0;82;85;84;90;17;155.18;22;-35.00;17.00;-977.00
1716905469352336883;0;0;177;2;0;0;82;85;84;90;17;155.11;22;-1.00;-5.00;-984.00
1716905469452543020;3;0;177;2;0;0;82;85;84;90;17;155.19;23;-22.00;4.00;-985.00
1716905469554391384;4;0;177;1;0;0;82;85;84;90;17;155.12;23;-24.00;9.00;-1014.00
1716905469656514644;2;0;177;0;0;0;82;85;83;90;17;155.07;23;-21.00;14.00;-1015.00
1716905469763267278;1;0;177;0;0;0;82;85;83;90;17;155.11;23;-21.00;34.00;-1024.00
1716905469861621856;0;0;177;0;0;0;82;85;83;90;17;155.11;23;-20.00;13.00;-985.00
1716905469962454080;0;0;177;0;0;0;82;85;83;90;17;155.12;23;-3.00;-1.00;-1009.00
1716905470065061569;0;0;177;0;0;0;82;85;83;90;17;155.07;23;12.00;-10.00;-1011.00
1716905470166483163;0;0;177;0;0;0;82;85;83;90;17;155.10;23;-31.00;14.00;-985.00
1716905470268382310;0;0;177;0;0;0;82;85;83;90;17;155.08;23;10.00;3.00;-1008.00
1716905470374504566;1;0;177;0;0;0;82;85;83;90;17;155.11;23;-9.00;39.00;-1031.00
1716905470472398519;1;0;175;0;0;0;82;85;83;90;17;155.13;24;28.00;-19.00;-1039.00
1716905470574125528;1;0;169;0;0;0;82;85;82;90;17;155.23;24;26.00;-15.00;-1024.00
1716905470676795244;1;0;164;0;0;0;82;85;82;90;17;155.22;24;9.00;-9.00;-977.00
1716905470778579235;1;0;158;0;0;0;82;85;82;90;17;155.19;24;2.00;36.00;-1005.00
1716905470880317449;1;-1;152;0;0;0;82;85;82;90;17;155.29;24;14.00;-9.00;-1022.00
1716905470982414007;0;0;146;0;0;0;82;85;82;90;17;155.22;24;-1.00;-5.00;-972.00
1716905471084484815;0;-1;140;0;0;0;82;85;82;90;17;155.21;24;-28.00;31.00;-980.00
1716905471186422586;0;-1;134;0;0;0;81;85;82;90;17;155.24;24;-12.00;29.00;-984.00
1716905471288223981;0;-1;128;0;0;0;81;85;82;90;17;155.24;24;-9.00;34.00;-1017.00
1716905471339176893;0;-1;122;0;0;0;81;85;81;90;17;155.18;24;-18.00;24.00;-999.00
1716905471441421985;0;-1;117;0;0;0;81;85;81;90;17;155.18;25;-6.00;9.00;-990.00
1716905471543265581;0;-1;111;0;0;0;81;85;82;90;17;155.17;25;-13.00;2.00;-992.00
1716905471645143032;0;-1;105;0;0;0;81;85;81;90;17;155.19;25;-13.00;-5.00;-984.00
1716905471766649961;0;-1;99;0;0;0;81;85;81;90;17;155.18;25;-4.00;-26.00;-972.00
1716905471849252939;0;-1;93;0;0;0;81;85;81;90;17;155.28;25;-1.00;-5.00;-1007.00
1716905471951641798;0;-1;87;0;0;0;81;85;81;90;17;155.33;25;-10.00;30.00;-1021.00
1716905472053029060;0;-1;81;0;0;0;81;85;80;90;17;155.39;25;-6.00;8.00;-1012.00
1716905472159585714;0;0;75;0;0;0;82;85;81;90;17;155.37;25;-11.00;7.00;-993.00
1716905472257986783;0;0;69;0;0;0;82;85;80;90;17;155.38;25;-13.00;6.00;-979.00
1716905472359064579;0;0;63;0;0;0;82;85;80;90;17;155.39;25;-26.00;27.00;-1004.00
1716905472478421449;0;0;57;0;0;0;82;85;79;90;17;155.41;26;-13.00;22.00;-1024.00
1716905472563216686;0;0;51;0;0;0;82;85;79;90;17;155.41;26;-13.00;4.00;-1019.00
1716905472666129350;0;0;45;0;0;0;82;85;79;90;17;155.47;26;-22.00;16.00;-1018.00
1716905472767189025;0;0;39;0;0;0;82;85;78;90;17;155.42;26;-8.00;-5.00;-991.00
1716905472869117021;0;0;33;0;0;0;82;85;78;90;17;155.50;26;-30.00;20.00;-1002.00
1716905472971379518;0;0;27;0;0;0;82;85;77;90;17;155.48;26;-4.00;6.00;-992.00
1716905473073044300;0;0;20;0;0;0;82;85;77;90;17;155.52;26;-14.00;35.00;-1002.00
1716905473175301551;0;0;15;0;0;0;81;84;77;90;17;155.48;26;1.00;-4.00;-966.00
1716905473276854991;0;0;10;0;0;0;81;84;77;90;17;155.49;26;-2.00;5.00;-1002.00
1716905473378990411;0;0;7;0;0;0;81;84;77;80;17;155.50;26;0.00;4.00;-994.00
1716905473485812664;0;0;5;0;0;0;81;84;77;80;17;155.49;27;1.00;18.00;-1017.00
1716905473583241701;0;0;3;0;0;0;81;84;77;80;17;155.50;27;14.00;3.00;-1010.00
1716905473685455322;0;0;1;0;0;0;81;84;77;80;17;155.41;27;-16.00;28.00;-1014.00
1716905473787124633;0;0;0;0;0;0;81;84;77;80;17;155.39;27;0.00;-22.00;-962.00
1716905473889483690;0;0;0;0;0;0;81;84;77;80;17;155.43;27;-14.00;10.00;-1021.00
1716905473991041421;-1;0;0;0;0;0;81;84;77;80;17;155.37;27;-9.00;14.00;-999.00
1716905474093222141;-2;0;0;0;0;0;81;84;78;80;17;155.32;27;-6.00;-7.00;-1030.00
1716905474195276975;-7;0;0;0;0;0;81;84;78;80;17;155.30;27;-29.00;16.00;-1013.00
1716905474301687717;-7;0;-1;-2;0;0;81;84;78;80;17;155.30;27;-8.00;11.00;-1014.00
1716905474399073362;-5;0;0;-3;0;0;81;84;78;80;17;155.23;27;5.00;-6.00;-994.00
1716905474501161575;-3;0;0;-3;0;0;81;84;78;80;17;155.27;28;-37.00;10.00;-984.00
1716905474603223800;0;0;0;-3;0;0;81;84;78;80;17;155.18;28;-26.00;0.00;-993.00
1716905474705645561;0;0;0;-3;0;0;81;84;78;80;17;155.13;28;-55.00;12.00;-978.00
1716905474806759357;0;0;0;-2;0;0;81;84;78;80;17;155.16;28;-47.00;8.00;-980.00
1716905474908843994;0;0;0;-2;0;0;81;84;79;80;17;155.15;28;-23.00;1.00;-1009.00
1716905474960043191;-1;0;0;-2;0;0;81;84;80;80;17;155.13;28;-31.00;-5.00;-994.00
1716905475062178134;-1;0;0;-2;0;0;81;84;80;80;17;155.06;28;-42.00;-11.00;-966.00
1716905475214869260;-1;0;0;-2;0;0;81;84;80;90;17;155.12;28;-36.00;-1.00;-955.00
1716905475317174673;-1;0;0;-2;0;0;81;84;81;90;17;155.09;28;-10.00;-22.00;-1006.00
1716905475419391155;-1;0;0;-2;0;0;81;84;82;90;17;155.05;28;-13.00;-12.00;-1010.00
1716905475470027446;-1;0;0;-2;0;0;81;84;82;90;17;154.99;29;-38.00;7.00;-986.00
1716905475572814702;0;0;0;-2;0;0;81;84;82;90;17;154.99;29;-42.00;27.00;-1001.00
1716905475674639940;0;0;0;-2;0;0;81;84;82;90;17;155.01;29;-30.00;18.00;-1023.00
1716905475776659011;1;0;0;-1;0;0;81;84;82;90;17;155.06;29;-65.00;13.00;-1016.00
1716905475878134012;2;0;0;-1;0;0;81;84;82;90;17;155.02;29;-9.00;-1.00;-989.00
1716905475980076551;0;0;0;0;0;0;81;84;82;90;17;154.99;29;-25.00;8.00;-981.00
1716905476082719087;0;0;0;0;0;0;81;84;82;90;17;155.05;29;-36.00;15.00;-996.00
1716905476184211969;0;0;0;0;0;0;81;84;82;90;17;155.05;29;-31.00;31.00;-997.00
1716905476286268234;0;0;0;0;0;0;81;84;83;90;17;155.01;29;-28.00;32.00;-1023.00
1716905476388290882;0;0;0;0;0;0;81;84;83;90;17;155.00;29;-35.00;10.00;-1005.00
1716905476507358789;0;0;0;0;0;0;81;84;83;90;17;154.99;30;-53.00;36.00;-974.00
1716905476594432353;0;0;0;0;0;0;81;84;83;90;17;154.98;30;-31.00;-5.00;-977.00
1716905476694199085;0;0;0;0;0;0;81;84;83;90;17;155.06;30;-45.00;7.00;-979.00
1716905476796196460;0;0;0;0;0;0;81;84;82;90;17;155.10;30;-43.00;7.00;-976.00
1716905476898016452;-1;0;0;0;0;0;81;84;83;90;17;155.08;30;6.00;6.00;-1030.00
1716905477001891136;0;0;2;0;0;0;81;84;82;90;17;155.08;30;-5.00;-15.00;-1012.00
1716905477102147102;0;0;8;0;0;0;81;84;82;90;17;155.15;30;-20.00;-15.00;-969.00
1716905477203974246;0;0;14;0;0;0;81;84;82;90;17;155.09;30;-2.00;-5.00;-1020.00
1716905477305866479;0;0;20;0;0;0;81;84;82;90;17;155.08;30;-43.00;23.00;-990.00
1716905477409196138;0;0;26;0;0;0;81;84;81;90;17;155.10;30;-22.00;-2.00;-992.00
1716905477510094165;0;0;30;0;0;0;81;84;81;90;17;155.08;31;-37.00;21.00;-988.00
1716905477614446163;0;0;34;0;0;0;81;84;81;90;17;155.07;31;-15.00;-2.00;-983.00
1716905477713994741;0;-1;36;0;0;0;81;84;81;90;17;155.15;31;-12.00;9.00;-1002.00
1716905477816668272;0;0;38;0;0;0;81;84;80;90;17;155.16;31;-1.00;4.00;-1023.00
1716905477920556068;0;0;40;0;0;0;81;84;80;90;17;155.21;31;-34.00;3.00;-977.00
1716905478021256208;0;0;41;0;0;0;81;84;80;90;17;155.14;31;-28.00;18.00;-1031.00
1716905478148303031;0;0;42;0;0;0;81;84;80;90;17;155.19;31;-34.00;16.00;-987.00
1716905478227941274;0;0;42;0;0;0;81;84;80;90;17;155.23;31;-50.00;31.00;-1065.00
1716905478326350927;-5;0;42;0;0;0;81;84;81;90;17;155.27;31;-21.00;31.00;-976.00
1716905478465262651;-8;0;42;0;0;0;81;84;81;90;17;155.23;31;-34.00;32.00;-1016.00
1716905478530057668;-8;0;42;-1;-1;0;81;84;80;90;17;155.22;32;-20.00;0.00;-1017.00
1716905478632013320;-7;-1;42;-2;-2;0;81;84;79;90;17;155.17;32;-44.00;14.00;-989.00
1716905478733774662;-2;-1;42;-3;-3;0;81;84;79;90;17;155.24;32;-54.00;8.00;-1007.00
1716905478835865497;0;-1;42;-3;-3;0;81;84;78;90;17;155.17;32;-55.00;0.00;-967.00
1716905478937855005;1;0;42;-2;-2;0;81;84;78;90;17;155.21;32;-44.00;14.00;-1007.00
1716905479039745807;0;0;42;-2;-2;0;81;84;78;90;17;155.25;32;-26.00;2.00;-1014.00
1716905479141855955;0;0;42;-2;-2;0;81;84;78;90;17;155.31;32;-46.00;29.00;-1027.00
1716905479244134902;0;-1;42;-2;-2;0;81;84;77;90;17;155.19;32;-45.00;-1.00;-979.00
1716905479347079753;-1;-1;42;-2;-2;0;81;84;77;90;17;155.21;32;-40.00;23.00;-1016.00
1716905479396681785;-1;0;42;-2;-2;0;81;84;77;80;17;155.19;32;-27.00;13.00;-1030.00
1716905479498605489;-1;0;42;-2;-2;0;81;84;78;80;17;155.20;33;-42.00;5.00;-963.00
1716905479600711584;-1;0;42;-2;-2;0;81;84;78;80;17;155.19;33;-22.00;-2.00;-985.00
1716905479702575206;-1;0;42;-2;-2;0;81;84;78;80;17;155.15;33;-46.00;18.00;-982.00
1716905479804544448;-1;0;42;-2;-2;0;81;84;78;80;17;155.10;33;-7.00;-22.00;-1011.00
1716905479906616926;-1;0;42;-2;-2;0;81;84;78;80;17;155.16;33;-39.00;2.00;-1009.00
1716905480008776187;0;0;42;-2;-2;0;81;84;78;80;17;155.08;33;-47.00;14.00;-926.00
1716905480110877275;4;0;42;-1;-1;0;81;84;78;80;17;155.10;33;-62.00;-2.00;-1031.00
1716905480213551759;3;-1;42;-1;-1;0;81;83;78;80;17;155.02;33;-31.00;5.00;-985.00
1716905480314652681;0;0;42;0;0;0;81;83;78;80;17;155.04;33;-31.00;15.00;-1025.00
1716905480417476177;0;0;42;0;0;0;81;83;78;80;17;155.04;34;-28.00;20.00;-1018.00
1716905480518604993;0;0;42;0;0;0;81;83;78;80;17;155.07;34;-9.00;2.00;-1004.00
1716905480620440721;0;0;42;0;0;0;81;83;79;80;17;155.02;34;-44.00;29.00;-1011.00
1716905480724001646;0;0;42;0;0;0;81;83;79;80;17;154.99;34;-24.00;5.00;-1003.00
1716905480824564456;0;0;42;0;0;0;81;83;79;80;17;155.02;34;-47.00;19.00;-967.00
1716905480926434993;0;0;45;0;0;0;81;83;80;90;17;155.04;34;12.00;-35.00;-992.00
1716905481028437614;0;0;51;0;0;0;81;83;80;90;17;155.06;34;-26.00;18.00;-995.00
1716905481130983591;0;0;57;0;0;0;81;83;81;90;17;155.16;34;-15.00;-1.00;-984.00
1716905481232737541;0;0;63;0;0;0;80;83;81;90;17;155.10;34;-19.00;8.00;-988.00
1716905481334625720;0;0;69;0;0;0;80;83;82;90;17;155.21;34;-33.00;32.00;-987.00
1716905481436537265;0;0;75;0;0;0;80;83;82;90;17;155.19;35;-52.00;22.00;-974.00
1716905481538732290;0;0;81;0;0;0;80;83;82;90;17;155.17;35;-18.00;40.00;-1003.00
1716905481640684843;0;0;87;0;0;0;80;83;82;90;17;155.27;35;-14.00;8.00;-1002.00
1716905481742581844;0;0;93;0;0;0;80;83;82;90;17;155.26;35;-31.00;23.00;-989.00
1716905481847480535;0;0;99;0;0;0;80;83;82;90;17;155.21;35;-15.00;8.00;-974.00
1716905481946937561;0;0;105;0;0;0;80;83;82;90;17;155.28;35;-19.00;49.00;-1013.00
1716905482049232959;0;0;110;0;0;0;80;83;82;90;17;155.38;35;-20.00;24.00;-998.00
1716905482153493642;0;0;116;0;0;0;80;83;82;90;17;155.24;35;-39.00;28.00;-969.00
1716905482253390073;0;0;122;0;0;0;80;83;81;90;17;155.39;35;-23.00;13.00;-1024.00
1716905482356715202;0;0;128;0;0;0;80;83;81;90;17;155.40;35;-19.00;29.00;-1002.00
1716905482456729173;0;0;134;0;0;0;80;83;81;90;17;155.35;36;-25.00;25.00;-1004.00
1716905482559143781;0;0;140;0;0;0;80;83;81;90;17;155.35;36;-1.00;14.00;-1005.00
1716905482660806655;0;0;146;0;0;0;80;83;81;90;17;155.39;36;-8.00;15.00;-1001.00
1716905482762665510;0;0;152;0;0;0;80;83;81;90;17;155.41;36;-13.00;37.00;-1001.00
1716905482864577293;0;0;158;0;0;0;80;83;81;90;17;155.39;36;-4.00;21.00;-998.00
1716905482966515541;0;0;164;0;0;0;80;83;81;90;17;155.47;36;-27.00;39.00;-1028.00
1716905483144645452;0;0;177;0;0;0;80;83;82;90;17;155.39;36;-12.00;38.00;-1014.00
1716905483273592472;0;0;-176;0;0;0;80;83;82;90;17;155.44;36;-3.00;48.00;-1034.00
1716905483498939752;0;0;-170;0;0;0;80;83;82;90;17;155.40;36;9.00;3.00;-989.00
1716905483499670982;0;0;-166;0;0;0;80;83;82;90;17;155.47;37;-22.00;22.00;-985.00
1716905483534864902;0;0;-163;0;0;0;80;83;82;90;17;155.56;37;-13.00;-1.00;-986.00
1716905483629577398;0;0;-161;0;0;0;80;83;82;90;17;155.47;37;-23.00;35.00;-997.00
1716905483875217676;0;0;-159;0;0;0;80;83;82;90;17;155.52;37;2.00;7.00;-1025.00
1716905483875793457;0;0;-158;0;0;0;80;83;82;90;17;155.57;37;-11.00;28.00;-1021.00
1716905483935721158;0;0;-157;0;0;0;80;83;82;90;17;155.56;37;-19.00;21.00;-1024.00
1716905484039005756;0;0;-157;0;0;0;80;83;82;90;17;155.66;37;-21.00;17.00;-1014.00
1716905484250805854;0;0;-157;0;0;0;80;83;82;90;17;155.64;37;-22.00;19.00;-972.00
1716905484251965284;-3;-1;-157;0;0;0;80;82;83;90;17;155.61;37;-14.00;-12.00;-988.00
1716905484344704627;-7;-1;-157;1;0;0;80;82;83;90;17;155.58;37;5.00;31.00;-1022.00
1716905484446671009;-8;0;-157;2;1;0;80;82;84;90;17;155.59;38;-6.00;8.00;-1022.00
1716905484628537654;-8;0;-157;3;1;0;80;82;83;90;17;155.64;38;-20.00;5.00;-992.00
1716905484650360822;-7;0;-157;4;2;0;80;82;83;90;17;155.58;38;-23.00;8.00;-1000.00
1716905484757642984;-7;0;-157;5;2;0;80;82;83;90;17;155.58;38;-60.00;24.00;-996.00
1716905485011568069;-6;0;-157;6;2;0;80;82;83;90;17;155.53;38;-64.00;21.00;-1022.00
1716905485015721321;-5;0;-157;7;2;0;80;82;83;90;17;155.53;38;-47.00;7.00;-990.00
1716905485058527708;-5;0;-157;7;3;0;80;82;83;90;17;155.61;38;-68.00;0.00;-984.00
1716905485160667419;-3;1;-157;7;3;0;80;82;83;90;17;155.57;38;-58.00;-1.00;-975.00
1716905485388885498;0;1;-157;7;3;0;80;83;83;90;17;155.51;38;-75.00;6.00;-982.00
1716905485392548322;2;1;-157;7;3;0;80;83;83;90;17;155.56;38;-39.00;-12.00;-1006.00
1716905485466554403;4;1;-157;6;2;0;80;83;83;90;17;155.58;39;-64.00;2.00;-986.00
1716905485568298578;4;1;-157;4;2;0;80;83;83;90;17;155.59;39;-56.00;-12.00;-1002.00
1716905485782405853;3;1;-156;4;1;0;80;83;83;90;17;155.64;39;-28.00;-10.00;-1001.00
1716905485785952329;2;1;-156;3;1;0;80;83;83;90;17;155.68;39;-25.00;5.00;-1038.00
1716905485883336544;1;1;-156;2;1;0;80;83;84;90;17;155.60;39;-28.00;16.00;-1021.00
1716905486142190217;0;1;-156;2;1;0;80;83;84;90;17;155.68;39;-7.00;-12.00;-1033.00
1716905486146551132;0;2;-156;2;1;0;80;83;85;90;17;155.60;39;3.00;-11.00;-1012.00
1716905486240822553;2;2;-156;1;2;0;80;82;85;90;17;155.53;39;-27.00;-31.00;-967.00
1716905486511583566;2;1;-156;0;2;0;80;82;85;90;17;155.63;39;-32.00;36.00;-998.00
1716905486515088558;2;-3;-157;0;1;0;80;82;86;90;17;155.54;40;-30.00;-19.00;-1033.00
1716905486545767784;1;-3;-156;0;1;0;80;82;86;90;17;155.54;40;-5.00;-6.00;-998.00
1716905486647640943;0;-1;-156;0;0;0;80;82;87;90;17;155.47;40;-19.00;7.00;-995.00
1716905486971782445;0;0;-156;0;0;0;80;82;87;90;17;155.40;40;-21.00;12.00;-979.00
1716905486972563743;0;0;-156;0;0;0;80;82;87;90;17;155.50;40;-13.00;36.00;-995.00
1716905487055276632;0;0;-156;0;0;0;80;82;88;90;17;155.54;40;-9.00;12.00;-982.00
1716905487158849477;0;0;-156;0;0;0;80;82;88;90;17;155.49;40;27.00;-6.00;-1018.00
1716905487427620887;0;0;-156;0;0;0;79;82;88;90;17;155.53;40;0.00;24.00;-985.00
1716905487428403377;0;0;-157;0;0;0;79;82;88;90;17;155.55;40;-4.00;0.00;-956.00
1716905487464652299;0;0;-156;0;0;0;79;82;88;90;17;155.59;41;20.00;4.00;-950.00
1716905487565376043;1;0;-156;0;0;0;79;82;88;90;17;155.67;41;-35.00;28.00;-957.00
1716905487881005525;1;0;-157;0;0;-1;79;82;87;90;17;155.51;41;-14.00;25.00;-929.00
1716905487882144451;0;0;-157;0;0;-1;79;82;85;90;17;155.54;41;-5.00;10.00;-907.00
1716905487973368883;0;0;-157;0;0;-3;79;82;80;90;17;155.44;41;18.00;-20.00;-934.00
1716905488075336694;1;0;-157;0;0;-4;79;82;76;80;17;155.51;41;-8.00;9.00;-976.00
1716905488177294492;1;0;-157;0;0;-4;79;82;72;80;17;155.52;41;-3.00;26.00;-1000.00
1716905488279748678;1;0;-156;0;0;-4;79;82;68;70;17;155.42;41;3.00;-11.00;-1002.00
1716905488384094476;0;0;-156;0;0;-4;79;82;63;70;17;155.30;41;-13.00;3.00;-967.00
1716905488484444379;0;0;-156;0;0;-4;79;82;59;70;17;155.27;42;-3.00;3.00;-996.00
1716905488585817813;0;0;-156;0;0;-4;79;82;55;60;17;155.33;42;5.00;13.00;-992.00
1716905488691863298;1;0;-157;0;0;-4;79;82;54;60;17;155.22;42;4.00;9.00;-1024.00
1716905488789527654;1;0;-157;0;0;-4;79;82;50;50;17;155.28;42;-16.00;39.00;-1033.00
1716905488893144369;0;0;-157;0;0;-4;79;82;45;50;17;155.22;42;0.00;5.00;-1013.00
1716905488995512008;0;0;-157;0;0;-4;79;82;40;40;17;155.19;42;-23.00;50.00;-988.00
1716905489095440864;1;0;-157;0;0;-4;79;82;36;40;17;155.16;42;4.00;19.00;-1035.00
1716905489197715759;1;0;-156;0;0;-4;79;82;33;30;17;155.11;42;19.00;7.00;-1028.00
1716905489299356460;12;6;-159;-1;0;-4;79;81;29;30;17;154.97;42;-13.00;19.00;-1049.00
1716905489401930093;6;3;-158;-2;1;-4;79;81;25;30;17;154.96;42;16.00;-3.00;-993.00
1716905489506742238;-4;-4;-156;-2;0;-4;79;81;19;20;17;154.94;43;24.00;-27.00;-979.00
1716905489605519294;-4;-4;-156;-1;0;-4;79;81;16;20;17;154.65;43;9.00;-9.00;-998.00
1716905489656035661;-2;-2;-156;0;0;-4;79;81;10;10;17;154.06;43;38.00;-3.00;-1030.00
1716905489758299350;0;0;-156;0;0;-4;79;81;10;10;17;153.56;43;19.00;-2.00;-1018.00
1716905489860489130;1;1;-156;0;0;-3;79;81;10;0;17;153.07;43;-4.00;36.00;-1050.00
1716905489962353706;9;5;-161;-2;0;-2;79;81;10;0;17;152.40;43;-4.00;17.00;-1141.00
1716905490064157724;3;1;-163;-3;0;-2;79;81;10;0;17;152.94;43;37.00;-27.00;-1026.00
1716905490167378902;-5;-2;-157;-3;0;-2;79;81;10;0;17;151.80;43;136.00;-221.00;-1415.00
1716905490291610717;-3;0;-156;-2;0;-1;78;82;10;0;17;151.41;43;0.00;18.00;-967.00
1716905490372225284;0;0;-157;-2;0;-1;78;82;10;0;17;152.02;43;-2.00;-71.00;-994.00
1716905490472179174;-2;0;-159;-2;0;0;78;82;10;0;17;152.43;44;-84.00;-1.00;-976.00
1716905490574215173;-1;0;-162;-2;0;0;78;82;10;0;17;152.93;44;-59.00;-28.00;-987.00
1716905490676933526;-2;0;-166;-2;-1;0;78;82;10;0;17;153.25;44;-115.00;-55.00;-1002.00
1716905490778341770;-3;0;-167;-3;-1;0;78;82;10;0;17;153.61;44;-31.00;-5.00;-938.00
1716905490881163835;-3;0;-167;-3;-1;0;78;82;10;0;17;153.64;44;-74.00;-41.00;-974.00
1716905490983537673;-3;0;-166;-3;-1;0;78;82;10;0;17;153.58;44;-123.00;2.00;-986.00
1716905491085316419;-1;0;-165;-4;-2;0;78;82;10;0;17;153.44;44;-56.00;-2.00;-958.00
1716905491187436103;1;0;-165;-4;-2;-1;78;82;10;0;17;153.47;44;-47.00;10.00;-1132.00
1716905491289222478;1;0;-165;-4;-2;0;79;82;10;0;17;153.53;44;-6.00;-3.00;-997.00
1716905491391380786;1;0;-165;-4;-2;0;79;82;10;0;17;153.68;44;-10.00;-4.00;-1009.00
1716905491493211030;1;0;-165;-5;-2;0;79;82;10;0;17;153.74;45;-8.00;3.00;-990.00
1716905491595299243;1;0;-165;-5;-2;0;79;82;10;0;17;154.08;45;-11.00;5.00;-999.00
1716905491697333812;1;0;-165;-5;-2;-2;79;82;10;0;17;154.26;45;-13.00;-2.00;-989.00
1716905491799802541;1;0;-165;0;0;-3;79;82;10;0;17;154.30;45;-5.00;0.00;-990.00
1716905491902517795;1;0;-165;0;0;-3;79;82;10;0;17;154.33;45;-6.00;-2.00;-989.00
1716905492003276109;1;0;-165;0;0;-3;79;82;10;0;17;154.37;45;-7.00;-5.00;-995.00
1716905492106926441;1;0;-165;0;0;-3;79;82;10;0;17;154.46;45;-9.00;-8.00;-984.00
1716905492216041326;1;0;-165;0;0;-3;79;82;10;0;17;154.49;45;7.00;2.00;-990.00
1716905492311463117;1;0;-165;0;0;-3;78;82;10;0;17;154.49;45;2.00;1.00;-997.00
1716905492416164636;1;0;-165;0;0;-2;78;82;10;0;17;154.45;45;-6.00;-1.00;-997.00
1716905492514283418;1;0;-165;0;0;0;78;82;10;0;17;154.42;45;-6.00;-2.00;-995.00
1716905492615913629;1;0;-165;0;0;0;78;82;10;0;17;154.40;45;-5.00;-4.00;-995.00
1716905492718456268;1;0;-165;0;0;0;78;82;10;0;17;154.42;45;-6.00;-4.00;-998.00
1716905492820147752;1;0;-165;0;0;0;78;82;10;0;17;154.44;45;-8.00;-2.00;-997.00
1716905492921915292;1;0;-165;0;0;0;78;82;10;0;17;154.46;45;-5.00;-3.00;-997.00
1716905492973309040;1;0;-165;0;0;0;78;82;10;0;17;154.40;45;-5.00;-2.00;-997.00
1716905493075595617;1;0;-165;0;0;0;78;82;10;0;17;154.43;45;-7.00;-4.00;-995.00
1716905493190491676;1;0;-165;0;0;0;78;82;10;0;17;154.41;45;-6.00;-1.00;-997.00
1716905493279118061;1;0;-165;0;0;0;78;82;10;0;17;154.39;45;-6.00;-3.00;-995.00
1716905493381333351;1;0;-165;0;0;0;78;82;10;0;17;154.35;45;-6.00;0.00;-997.00
1716905493483171701;1;0;-165;0;0;0;78;82;10;0;17;154.35;45;-7.00;-3.00;-993.00
1716905493585927724;1;0;-165;0;0;0;78;82;10;0;17;154.35;45;-5.00;-3.00;-996.00
1716905493688442945;1;0;-165;0;0;0;78;82;10;0;17;154.37;45;-5.00;-3.00;-1011.00
1716905493790963649;1;0;-165;0;0;0;78;82;10;0;17;154.38;45;-6.00;-3.00;-992.00
1716905493893826246;1;0;-165;0;0;0;78;82;10;0;17;154.41;45;-5.00;-1.00;-994.00
1716905493992850542;1;0;-165;0;0;0;78;82;10;0;17;154.37;45;-6.00;-3.00;-996.00
1716905494094895124;1;0;-165;0;0;0;78;82;10;0;17;154.39;45;-7.00;-2.00;-999.00
1716905494200615644;1;0;-165;0;0;0;78;82;10;0;17;154.39;45;-6.00;-2.00;-998.00
1716905494298838615;1;0;-165;0;0;0;78;81;10;0;17;154.40;45;-4.00;-2.00;-998.00
1716905494402561187;1;0;-165;0;0;0;78;81;10;0;17;154.39;45;-4.00;-1.00;-1012.00
1716905494503035545;1;0;-165;0;0;0;78;81;10;0;17;154.40;45;-7.00;-1.00;-999.00
1716905494605051755;1;0;-165;0;0;0;78;81;10;0;17;154.45;45;-4.00;-3.00;-997.00
1716905494707392454;1;0;-165;0;0;0;78;81;10;0;17;154.45;45;-5.00;-3.00;-997.00
