timestampns;pitch;roll;yaw;vgx;vgy;vgz;templ;temph;tof;h;bat;baro;time;agx;agy;agz;
1710946887926158905;0;0;0;0;0;0;81;85;10;0;27;124.02;0;-15.00;3.00;-999.00
1710946888030874729;-1;0;0;0;0;0;81;85;10;0;27;123.99;0;-16.00;4.00;-1000.00
1710946888130022287;-1;0;0;0;0;0;82;85;10;0;27;124.02;0;-17.00;4.00;-1001.00
1710946888231903553;-1;0;0;0;0;0;82;85;10;0;27;124.00;0;-15.00;4.00;-1000.00
1710946888334159135;0;0;0;0;0;0;82;85;10;0;27;123.95;0;-16.00;4.00;-1000.00
1710946888436131000;0;0;0;0;0;0;82;85;10;0;27;124.01;0;-17.00;4.00;-1000.00
1710946888537919521;0;0;0;0;0;0;82;85;10;0;27;124.02;0;-16.00;3.00;-1001.00
1710946888642237186;0;0;0;0;0;0;82;85;10;0;27;124.03;0;-17.00;3.00;-1001.00
1710946888741637945;0;0;0;0;0;0;82;85;10;0;27;124.02;0;-16.00;3.00;-999.00
1710946888845392227;0;0;0;0;0;0;82;85;10;0;27;124.04;0;-18.00;3.00;-1002.00
1710946888947273969;0;0;0;0;0;0;82;85;10;0;27;123.99;0;-17.00;2.00;-999.00
1710946889048698186;0;0;0;0;0;0;82;85;10;0;27;123.97;0;-16.00;3.00;-999.00
1710946889149710655;0;0;0;0;0;0;81;86;10;0;27;123.97;0;-17.00;2.00;-1000.00
1710946889251675844;0;0;0;0;0;0;81;86;10;0;27;124.00;0;-16.00;4.00;-1000.00
1710946889353746414;0;0;0;0;0;0;81;86;10;0;27;123.98;0;-16.00;2.00;-1000.00
1710946889456213235;0;0;0;0;0;0;81;86;10;0;27;123.96;0;-17.00;3.00;-1000.00
1710946889560416936;0;0;0;0;0;0;81;86;10;0;27;124.00;0;-16.00;4.00;-1001.00
1710946889660666942;0;0;0;0;0;0;81;86;10;0;27;123.97;0;-17.00;4.00;-999.00
1710946889762719631;0;0;0;0;0;0;81;86;10;0;27;123.95;0;-15.00;2.00;-1001.00
1710946889865013837;0;0;0;0;0;0;81;86;10;0;27;124.01;0;-16.00;4.00;-998.00
1710946889966749668;0;0;0;0;0;0;81;86;10;0;27;123.96;0;-16.00;2.00;-998.00
1710946890068791389;0;0;0;0;0;0;81;86;10;0;27;123.94;0;-16.00;6.00;-998.00
1710946890174393892;0;0;0;0;0;0;82;84;10;0;27;123.92;0;-14.00;3.00;-998.00
1710946890272904872;0;0;0;0;0;0;82;84;10;0;27;123.96;0;-16.00;4.00;-999.00
1710946890375898122;0;0;0;0;0;0;82;84;10;0;27;123.99;0;-15.00;3.00;-998.00
1710946890476724147;0;0;0;0;0;0;82;84;10;0;27;123.98;0;-16.00;3.00;-1000.00
1710946890578938484;0;0;0;0;0;0;82;84;10;0;27;123.98;0;-15.00;2.00;-1000.00
1710946890681543588;0;0;0;0;0;0;82;84;10;0;27;123.95;0;-17.00;3.00;-1002.00
1710946890784032106;0;0;0;0;0;0;82;84;10;0;27;124.00;0;-16.00;5.00;-999.00
1710946890884577512;0;0;0;0;0;0;82;84;10;0;27;123.98;0;-18.00;4.00;-1000.00
1710946890986608743;0;0;0;0;0;0;82;84;10;0;27;123.97;0;-17.00;5.00;-997.00
1710946891088620185;0;0;0;0;0;0;82;84;10;0;27;124.01;0;-17.00;2.00;-1000.00
1710946891192517280;0;0;0;0;0;0;82;86;10;0;27;123.95;0;-17.00;3.00;-999.00
1710946891292637348;0;0;0;0;0;0;82;86;10;0;27;123.96;0;-15.00;3.00;-998.00
1710946891346504688;0;0;0;0;0;0;82;86;10;0;27;123.97;0;-17.00;3.00;-999.00
1710946891446187973;0;0;0;0;0;0;82;86;10;0;27;123.96;0;-17.00;3.00;-999.00
1710946891548246383;0;0;0;0;0;0;82;86;10;0;27;123.95;0;-15.00;3.00;-1001.00
1710946891649781942;0;0;0;0;0;0;82;86;10;0;27;123.94;0;-16.00;4.00;-999.00
1710946891751589298;0;0;0;0;0;0;82;86;10;0;27;123.98;0;-18.00;2.00;-1001.00
1710946891853685855;0;0;0;0;0;0;82;86;10;0;27;123.99;0;-17.00;2.00;-999.00
1710946891956696033;0;0;0;0;0;0;82;86;10;0;27;123.98;0;-17.00;6.00;-1004.00
1710946892057600498;0;0;0;0;0;0;82;86;10;0;27;123.96;0;-17.00;3.00;-1002.00
1710946892160862445;0;0;0;0;0;0;82;85;10;0;27;123.95;0;-17.00;5.00;-1002.00
1710946892263883113;0;0;0;0;0;0;82;85;10;0;27;123.98;0;-18.00;3.00;-999.00
1710946892364003896;0;0;0;0;0;0;82;85;10;0;27;123.95;0;-16.00;2.00;-999.00
1710946892466258525;0;0;0;0;0;0;82;85;10;0;27;123.98;0;-15.00;4.00;-1005.00
1710946892569531202;0;0;0;0;0;0;82;85;10;0;27;123.98;0;-15.00;4.00;-1001.00
1710946892672432184;0;0;0;0;0;0;82;85;10;0;27;123.92;0;-16.00;1.00;-999.00
1710946892771476507;0;0;0;0;0;0;82;85;10;0;27;123.95;0;-16.00;2.00;-1000.00
1710946892873684406;0;0;0;0;0;0;82;85;10;0;27;123.94;0;-16.00;4.00;-996.00
1710946892975863456;0;0;0;0;0;0;82;85;10;0;27;123.96;0;-18.00;3.00;-1002.00
1710946893077968835;0;0;0;0;0;0;82;85;10;0;27;123.98;0;-17.00;5.00;-997.00
1710946893180213212;0;0;0;0;0;0;81;86;10;0;27;123.97;0;-16.00;2.00;-997.00
1710946893281368732;0;0;0;0;0;0;81;86;10;0;27;123.97;0;-17.00;3.00;-998.00
1710946893383731603;0;0;0;0;0;0;81;86;10;0;27;123.93;0;-16.00;5.00;-999.00
1710946893485486507;0;0;0;0;0;0;81;86;10;0;27;123.94;0;-16.00;2.00;-996.00
1710946893587699651;0;0;0;0;0;0;81;86;10;0;27;123.94;0;-15.00;4.00;-998.00
1710946893691125869;0;0;0;0;0;0;81;86;10;0;27;123.96;0;-17.00;5.00;-1000.00
1710946893793229818;0;0;0;0;0;0;81;86;10;0;27;123.94;0;-18.00;3.00;-998.00
1710946893893495082;0;0;0;0;0;0;81;86;10;0;27;123.99;0;-16.00;4.00;-999.00
1710946893995358228;0;0;0;0;0;0;81;86;10;0;27;123.97;0;-17.00;4.00;-1000.00
1710946894098650693;0;0;0;0;0;0;81;86;10;0;27;124.00;0;-16.00;4.00;-1000.00
1710946894199860334;0;0;0;0;0;0;82;86;10;0;27;124.02;0;-16.00;3.00;-1001.00
1710946894301564693;0;0;0;0;0;0;82;86;10;0;27;123.96;0;-16.00;4.00;-1000.00
1710946894403702735;0;0;0;0;0;0;82;86;10;0;27;123.96;0;-17.00;4.00;-1002.00
1710946894505502462;0;0;0;0;0;0;82;86;10;0;27;123.98;0;-16.00;2.00;-1004.00
1710946894609945535;0;0;0;0;0;0;82;86;10;0;27;123.99;0;-17.00;1.00;-1001.00
1710946894710113525;0;0;0;0;0;0;82;86;10;0;27;123.98;0;-16.00;3.00;-999.00
1710946894760171890;0;0;0;0;0;0;82;86;10;0;27;123.98;0;-16.00;5.00;-1001.00
1710946894862426996;0;0;0;0;0;0;82;86;10;0;27;123.98;0;-16.00;3.00;-1000.00
1710946894969085216;0;0;0;0;0;0;82;86;10;0;27;123.97;0;-15.00;1.00;-1001.00
1710946895067750930;0;0;0;0;0;0;82;86;10;0;27;123.99;0;-15.00;4.00;-1000.00
1710946895168323040;0;0;0;0;0;0;82;86;10;0;27;123.99;0;-15.00;3.00;-998.00
1710946895270240306;0;0;0;0;0;0;82;86;10;0;27;123.99;0;-15.00;4.00;-1001.00
1710946895372653722;0;0;0;0;0;0;82;86;10;0;27;123.96;0;-16.00;3.00;-1001.00
1710946895474410533;0;0;0;0;0;0;82;86;10;0;27;123.94;0;-17.00;4.00;-999.00
1710946895576858043;0;0;0;0;0;0;82;86;10;0;27;124.02;0;-18.00;3.00;-1000.00
1710946895678398370;0;0;0;0;0;0;82;86;10;0;27;123.98;0;-16.00;3.00;-998.00
1710946895780290126;0;0;0;0;0;0;82;86;10;0;27;123.93;0;-16.00;4.00;-999.00
1710946895883550405;0;0;0;0;0;0;82;86;10;0;27;123.95;0;-18.00;3.00;-1000.00
1710946895984375238;0;0;0;0;0;0;82;86;10;0;27;123.97;0;-16.00;3.00;-999.00
1710946896087283372;0;0;0;0;0;0;82;86;10;0;27;123.92;0;-16.00;6.00;-999.00
1710946896190133094;0;0;0;0;0;0;83;86;10;0;27;123.94;0;-17.00;2.00;-1003.00
1710946896290267229;0;0;0;0;0;0;83;86;10;0;27;123.92;0;-17.00;3.00;-999.00
1710946896393680095;0;0;0;0;0;0;83;86;10;0;27;123.91;0;-17.00;4.00;-1000.00
1710946896496126890;0;0;0;0;0;0;83;86;10;0;27;123.96;0;-17.00;3.00;-1001.00
1710946896598355531;0;0;0;0;0;0;83;86;10;0;27;123.95;0;-17.00;5.00;-999.00
1710946896700146436;0;0;0;0;0;0;83;86;10;0;27;123.97;0;-15.00;4.00;-996.00
1710946896801576137;0;0;0;0;0;0;83;86;10;0;27;123.94;0;-18.00;3.00;-998.00
1710946896902424097;0;0;0;0;0;0;83;86;10;0;27;123.95;0;-17.00;5.00;-999.00
1710946897004241466;0;0;0;0;0;0;83;86;10;0;27;123.98;0;-16.00;4.00;-998.00
1710946897106376171;0;0;0;0;0;0;83;86;10;0;27;124.03;0;-16.00;3.00;-998.00
1710946897210405349;0;0;0;0;0;0;83;86;10;0;27;123.96;0;-16.00;4.00;-1001.00
1710946897312220811;0;0;0;0;0;0;83;86;10;0;27;123.95;0;-17.00;2.00;-998.00
1710946897412285327;0;0;0;0;0;0;83;86;10;0;27;123.91;0;-16.00;4.00;-997.00
1710946897517206668;0;0;0;0;0;0;83;86;10;0;27;123.96;0;-16.00;3.00;-1000.00
1710946897616456508;0;0;0;0;0;0;83;86;10;0;27;123.99;0;-18.00;4.00;-1000.00
1710946897718282699;0;0;0;0;0;0;83;86;10;0;27;124.00;0;-16.00;2.00;-999.00
1710946897820119142;0;0;0;0;0;0;83;86;10;0;27;124.00;0;-16.00;3.00;-1001.00
1710946897871137380;0;0;0;0;0;0;83;86;10;0;27;123.99;0;-16.00;3.00;-998.00
1710946897973242521;0;0;0;0;0;0;83;86;10;0;27;123.95;0;-16.00;2.00;-1001.00
1710946898075357675;0;0;0;0;0;0;83;86;10;0;27;124.04;0;-16.00;4.00;-999.00
1710946898178864240;0;0;0;0;0;0;82;86;10;0;27;123.97;0;-17.00;3.00;-999.00
1710946898279234409;0;0;0;0;0;0;82;86;10;0;27;124.02;0;-16.00;3.00;-1002.00
1710946898381205081;0;0;0;0;0;0;82;86;10;0;27;124.01;0;-17.00;3.00;-997.00
1710946898483316898;0;0;0;0;0;0;82;86;10;0;27;124.00;0;-17.00;2.00;-1001.00
1710946898585294246;0;0;0;0;0;0;82;86;10;0;27;124.01;0;-17.00;5.00;-999.00
1710946898688554525;0;0;0;0;0;0;82;86;10;0;27;124.03;0;-16.00;4.00;-1000.00
1710946898789326906;0;0;0;0;0;0;82;86;10;0;27;123.99;0;-16.00;4.00;-999.00
1710946898891251087;0;0;0;0;0;0;82;86;10;0;27;124.00;0;-16.00;4.00;-999.00
1710946898994708299;0;0;0;0;0;0;82;86;10;0;27;123.99;0;-17.00;3.00;-1001.00
1710946899095282316;0;0;0;0;0;0;82;86;10;0;27;124.01;0;-15.00;5.00;-1002.00
1710946899197676181;0;0;0;0;0;0;83;87;10;0;27;123.96;0;-18.00;5.00;-1000.00
1710946899299727916;0;0;0;0;0;0;83;87;10;0;27;123.98;0;-15.00;4.00;-1000.00
1710946899402802705;0;0;0;0;0;0;83;87;10;0;27;123.97;0;-16.00;3.00;-1000.00
1710946899503216743;0;0;0;0;0;0;83;87;10;0;27;124.02;0;-17.00;3.00;-1000.00
1710946899605267047;0;0;0;0;0;0;83;87;10;0;27;123.99;0;-18.00;4.00;-997.00
1710946899707456350;0;0;0;0;0;0;83;87;10;0;27;123.99;0;-19.00;4.00;-998.00
1710946899809060335;0;0;0;0;0;0;83;87;10;0;27;124.00;0;-17.00;3.00;-998.00
1710946899910934209;0;0;0;0;0;0;83;87;10;0;27;123.97;0;-16.00;3.00;-997.00
1710946900013223648;0;0;0;0;0;0;83;87;10;0;27;123.97;0;-15.00;3.00;-999.00
1710946900115575313;0;0;0;0;0;0;83;87;10;0;27;123.99;0;-16.00;6.00;-1000.00
1710946900218651056;0;0;0;0;0;0;83;86;10;0;27;123.95;0;-18.00;4.00;-999.00
1710946900319143056;0;0;0;0;0;0;83;86;10;0;27;123.94;0;-17.00;4.00;-1000.00
1710946900421443700;0;0;0;0;0;0;83;86;10;0;27;123.94;0;-16.00;1.00;-999.00
1710946900523426532;0;0;0;0;0;0;83;86;10;0;27;123.96;0;-16.00;2.00;-999.00
1710946900625392913;0;0;0;0;0;0;83;86;10;0;27;123.95;0;-17.00;4.00;-999.00
1710946900727265357;0;0;0;0;0;0;83;86;10;0;27;123.99;0;-17.00;4.00;-998.00
1710946900829129934;0;0;0;0;0;0;83;86;10;0;27;123.95;0;-17.00;3.00;-1003.00
1710946900931138992;0;0;0;0;0;0;83;86;10;0;27;123.95;0;-17.00;4.00;-1001.00
1710946901033018112;0;0;0;0;0;0;83;86;10;0;27;123.92;0;-19.00;5.00;-1000.00
1710946901085811853;0;0;0;0;0;0;83;86;10;0;27;123.95;0;-17.00;3.00;-1000.00
1710946901186088085;0;0;0;0;0;0;83;86;10;0;27;123.97;0;-17.00;3.00;-999.00
1710946901289590120;0;0;0;0;0;0;83;86;10;0;27;123.95;0;-17.00;2.00;-997.00
1710946901390039920;0;0;0;0;0;0;83;86;10;0;27;123.92;0;-16.00;3.00;-1000.00
1710946901491994857;0;0;0;0;0;0;83;86;10;0;27;123.91;0;-16.00;3.00;-1001.00
1710946901594114542;0;0;0;0;0;0;83;86;10;0;27;123.90;0;-17.00;3.00;-999.00
1710946901695915699;0;0;0;0;0;0;83;86;10;0;27;123.92;0;-16.00;3.00;-999.00
1710946901798165082;0;0;0;0;0;0;83;86;10;0;27;123.92;0;-16.00;4.00;-998.00
1710946901900383949;0;0;0;0;0;0;83;86;10;0;27;123.99;0;-17.00;4.00;-999.00
1710946902004074096;0;0;0;0;0;0;83;86;10;0;27;123.92;0;-17.00;3.00;-998.00
1710946902104021072;0;0;0;0;0;0;83;86;10;0;27;123.92;0;-15.00;4.00;-998.00
1710946902210485696;0;0;0;0;0;0;83;86;10;0;27;123.92;0;-16.00;3.00;-999.00
1710946902309091806;0;0;0;0;0;0;83;86;10;0;27;123.95;0;-17.00;3.00;-999.00
1710946902410074949;0;0;0;0;0;0;83;86;10;0;27;123.96;0;-17.00;4.00;-997.00
1710946902512933492;0;0;0;0;0;0;83;86;10;0;27;123.97;0;-16.00;4.00;-998.00
1710946902614079236;0;0;0;0;0;0;83;86;10;0;27;123.98;0;-15.00;3.00;-998.00
1710946902720201253;0;0;0;0;0;0;83;86;10;0;27;123.97;0;-16.00;2.00;-999.00
1710946902819676160;0;0;0;0;0;0;83;86;10;0;27;123.95;0;-15.00;4.00;-998.00
1710946902919886350;0;0;0;0;0;0;83;86;10;0;27;123.95;0;-17.00;1.00;-999.00
1710946903022381782;0;0;0;0;0;0;83;86;10;0;27;123.96;0;-17.00;4.00;-995.00
1710946903124964714;0;0;0;0;0;0;83;86;10;0;27;123.99;0;-16.00;4.00;-997.00
1710946903227109193;0;0;0;0;0;0;83;87;10;0;27;123.97;0;-15.00;3.00;-997.00
1710946903328967094;0;0;0;0;0;0;83;87;10;0;27;123.95;0;-18.00;3.00;-997.00
1710946903431075334;0;0;0;0;0;0;83;87;10;0;27;123.98;0;-15.00;3.00;-999.00
1710946903533131837;0;0;0;0;0;0;83;87;10;0;27;123.95;0;-16.00;4.00;-997.00
1710946903634800910;0;0;0;0;0;0;83;87;10;0;27;123.95;0;-18.00;2.00;-1000.00
1710946903737010955;0;0;0;0;0;0;83;87;10;0;27;123.97;0;-17.00;3.00;-999.00
1710946903839477300;0;0;0;0;0;0;83;87;10;0;27;123.99;0;-18.00;2.00;-999.00
1710946903942421913;0;0;0;0;0;0;83;87;10;0;27;123.99;0;-16.00;3.00;-1000.00
1710946904044574022;0;0;0;0;0;0;83;87;10;0;27;123.96;0;-17.00;3.00;-1001.00
1710946904145146369;0;0;0;0;0;0;83;87;10;0;27;123.94;0;-17.00;5.00;-1001.00
1710946904247971773;0;0;0;0;0;0;83;87;10;0;27;123.96;0;-16.00;3.00;-998.00
1710946904348915100;0;0;0;0;0;0;83;87;10;0;27;124.00;0;-17.00;5.00;-997.00
1710946904451121568;0;0;0;0;0;0;83;87;10;0;27;123.96;0;-16.00;3.00;-1000.00
1710946904552590370;0;0;0;0;0;0;83;87;10;0;27;123.96;0;-17.00;4.00;-998.00
1710946904603862047;0;0;0;0;0;0;83;87;10;0;27;123.99;0;-17.00;2.00;-1001.00
1710946904707660913;0;0;0;0;0;0;83;87;10;0;27;123.97;0;-16.00;3.00;-998.00
1710946904810215950;0;0;0;0;0;0;83;87;10;0;27;123.97;0;-15.00;3.00;-999.00
1710946904910000085;0;0;0;0;0;0;83;87;10;0;27;123.92;0;-17.00;3.00;-997.00
1710946905012235879;0;0;0;0;0;0;83;87;10;0;27;123.92;0;-16.00;3.00;-998.00
1710946905113910436;0;0;0;0;0;0;83;87;10;0;27;123.93;0;-17.00;2.00;-999.00
1710946905216978788;0;0;0;0;0;0;84;87;10;0;27;123.94;0;-17.00;4.00;-997.00
1710946905317894935;0;0;0;0;0;0;84;87;10;0;27;123.91;0;-17.00;2.00;-1002.00
1710946905419868707;0;0;0;0;0;0;84;87;10;0;27;123.89;0;-18.00;2.00;-1000.00
1710946905523193359;0;0;0;0;0;0;84;87;10;0;27;123.92;0;-18.00;2.00;-1001.00
1710946905624552249;0;0;0;0;0;0;84;87;10;0;27;123.92;0;-17.00;4.00;-1000.00
1710946905725724697;0;0;0;0;0;0;84;87;10;0;27;123.91;0;-15.00;3.00;-999.00
1710946905827848434;0;0;0;0;0;0;84;87;10;0;27;123.92;0;-17.00;2.00;-999.00
1710946905930885076;0;0;0;0;0;0;84;87;10;0;27;123.89;0;-16.00;2.00;-999.00
1710946906033225059;0;0;0;0;0;0;84;87;10;0;27;123.95;0;-16.00;4.00;-999.00
1710946906134048700;0;0;0;0;0;0;84;87;10;0;27;123.92;0;-16.00;3.00;-1000.00
1710946906236147642;0;0;0;0;0;0;83;88;10;0;27;123.89;0;-16.00;3.00;-1000.00
1710946906337687253;0;0;0;0;0;0;83;88;10;0;27;123.94;0;-17.00;4.00;-998.00
1710946906439837455;0;0;0;0;0;0;83;88;10;0;27;123.95;0;-16.00;3.00;-1000.00
1710946906542725324;0;0;0;0;0;0;83;88;10;0;27;123.97;0;-18.00;4.00;-1001.00
1710946906643608808;0;0;0;0;0;0;83;88;10;0;27;123.97;0;-17.00;4.00;-1000.00
1710946906745769262;0;0;0;0;0;0;83;88;10;0;27;123.98;0;-18.00;3.00;-997.00
1710946906847620248;0;0;0;0;0;0;83;88;10;0;27;123.91;0;-18.00;3.00;-1001.00
1710946906949761867;0;0;0;0;0;0;83;88;10;0;27;123.96;0;-17.00;3.00;-1001.00
1710946907052051782;0;0;0;0;0;0;83;88;10;0;27;123.89;0;-16.00;3.00;-999.00
1710946907153612613;0;0;0;0;0;0;83;88;10;0;27;123.94;0;-16.00;3.00;-999.00
1710946907256285667;0;0;0;0;0;0;84;87;10;0;27;123.92;0;-17.00;3.00;-1001.00
1710946907360872507;0;0;0;0;0;0;84;87;10;0;27;123.91;0;-16.00;3.00;-1000.00
1710946907460871696;0;0;0;0;0;0;84;87;10;0;27;123.94;0;-16.00;2.00;-1000.00
1710946907562706232;0;0;0;0;0;0;84;87;10;0;27;123.97;0;-16.00;2.00;-1001.00
1710946907664615392;0;0;0;0;0;0;84;87;10;0;27;123.95;0;-18.00;4.00;-999.00
1710946907766570568;0;0;0;0;0;0;84;87;10;0;27;123.94;0;-17.00;4.00;-1000.00
1710946907817628145;0;0;0;0;0;0;84;87;10;0;27;123.92;0;-16.00;6.00;-997.00
1710946907919932603;0;0;0;0;0;0;84;87;10;0;27;123.94;0;-18.00;3.00;-1000.00
1710946908021621942;0;0;0;0;0;0;84;87;10;0;27;123.96;0;-16.00;3.00;-999.00
1710946908123550415;0;0;0;0;0;0;84;87;10;0;27;123.90;0;-16.00;3.00;-1000.00
1710946908225878715;0;0;0;0;0;0;83;87;10;0;27;123.94;0;-15.00;4.00;-998.00
1710946908327955007;0;0;0;0;0;0;83;87;10;0;27;123.93;0;-15.00;3.00;-999.00
1710946908431027412;0;0;0;0;0;0;83;87;10;0;27;123.96;0;-16.00;4.00;-999.00
1710946908531830072;0;0;0;0;0;0;83;87;10;0;27;123.97;0;-16.00;2.00;-998.00
1710946908634271383;0;0;0;0;0;0;83;87;10;0;27;123.93;0;-17.00;3.00;-997.00
1710946908735859632;0;0;0;0;0;0;83;87;10;0;27;123.94;0;-15.00;5.00;-999.00
1710946908838502407;0;0;0;0;0;0;83;87;10;0;27;123.97;0;-16.00;3.00;-1000.00
1710946908939801931;0;0;0;0;0;0;83;87;10;0;27;123.92;0;-17.00;5.00;-998.00
1710946909041694641;0;0;0;0;0;0;83;87;10;0;27;123.94;0;-15.00;5.00;-999.00
1710946909143646478;0;0;0;0;0;0;83;87;10;0;27;123.95;0;-17.00;4.00;-1001.00
1710946909247350692;0;0;0;0;0;0;84;87;10;0;27;123.93;0;-15.00;4.00;-1000.00
1710946909348168134;0;0;0;0;0;0;84;87;10;0;27;123.90;0;-16.00;2.00;-999.00
1710946909449618101;0;0;0;0;0;0;84;87;10;0;27;123.92;0;-18.00;3.00;-1000.00
1710946909551510095;0;0;0;0;0;0;84;87;10;0;27;123.96;0;-15.00;3.00;-998.00
1710946909653522968;0;0;0;0;0;0;84;87;10;0;27;123.95;0;-16.00;2.00;-999.00
1710946909757255315;0;0;0;0;0;0;84;87;10;0;27;123.93;0;-15.00;4.00;-997.00
1710946909858536481;0;0;0;0;0;0;84;87;10;0;27;123.93;0;-15.00;2.00;-998.00
1710946909961382627;0;0;0;0;0;0;84;87;10;0;27;123.91;0;-16.00;3.00;-1000.00
1710946910062761783;0;0;0;0;0;0;84;87;10;0;27;123.88;0;-17.00;2.00;-1001.00
1710946910166433334;0;0;0;0;0;0;84;87;10;0;27;123.91;0;-16.00;2.00;-999.00
1710946910265914440;0;0;0;0;0;0;85;87;10;0;27;123.92;0;-15.00;1.00;-999.00
1710946910371949911;0;0;0;0;0;0;85;87;10;0;27;123.89;0;-15.00;2.00;-1000.00
1710946910469675064;0;0;0;0;0;0;85;87;10;0;27;123.90;0;-18.00;3.00;-1001.00
1710946910571606159;0;0;0;0;0;0;85;87;10;0;27;123.90;0;-14.00;0.00;-998.00
1710946910673702239;0;0;0;0;0;0;85;87;10;0;27;123.90;0;-18.00;12.00;-1001.00
1710946910775482416;0;0;0;0;0;0;85;87;10;0;27;123.90;0;-21.00;-4.00;-1005.00
1710946910877541542;0;0;0;0;0;0;85;87;10;0;27;123.90;0;-30.00;1.00;-996.00
1710946910979465007;0;0;0;0;0;0;85;87;10;0;27;123.90;0;-11.00;-12.00;-1062.00
1710946911030556678;0;0;0;0;0;1;85;87;10;0;27;123.90;0;19.00;-18.00;-1207.00
1710946911133517265;0;0;0;0;0;3;85;87;10;0;27;123.90;0;-19.00;15.00;-1362.00
1710946911287178039;0;0;0;0;0;6;84;87;16;0;27;123.95;0;-9.00;12.00;-1203.00
1710946911387322187;0;0;0;0;0;7;84;87;25;10;27;124.25;0;-6.00;13.00;-1082.00
1710946911438363552;0;0;0;0;0;8;84;87;33;20;27;124.36;1;-8.00;29.00;-1010.00
1710946911540595293;0;0;0;0;0;8;84;87;43;30;27;124.37;1;0.00;18.00;-983.00
1710946911644123315;0;0;0;0;0;7;84;87;49;30;27;124.47;1;-12.00;15.00;-922.00
1710946911746124029;0;0;0;0;0;6;84;87;56;40;27;124.50;1;-14.00;17.00;-900.00
1710946911846460342;0;0;0;0;0;5;84;87;63;50;27;124.59;1;5.00;0.00;-834.00
1710946911948281288;0;0;0;0;0;4;84;87;67;50;27;124.69;1;-31.00;17.00;-896.00
1710946912050390243;0;0;0;0;0;3;84;87;71;60;27;124.63;1;21.00;-21.00;-911.00
1710946912153854370;0;0;0;0;0;2;84;87;74;60;27;124.65;1;-12.00;20.00;-937.00
1710946912256350994;0;0;0;0;0;1;84;87;75;60;27;124.71;1;-21.00;16.00;-931.00
1710946912356744527;0;0;0;0;0;0;84;87;77;60;27;124.73;1;-21.00;-3.00;-934.00
1710946912460497617;0;0;0;0;0;0;84;87;77;60;27;124.80;2;-13.00;7.00;-956.00
1710946912561484575;0;0;0;0;0;0;84;87;78;60;27;124.78;2;22.00;-10.00;-994.00
1710946912664809226;0;0;0;0;0;0;84;87;78;60;27;124.77;2;-1.00;-4.00;-964.00
1710946912768072605;0;0;0;0;0;0;84;87;79;60;27;124.72;2;-5.00;3.00;-973.00
1710946912868334770;0;0;0;0;0;0;84;87;79;60;27;124.77;2;1.00;-3.00;-1002.00
1710946912969626665;0;0;0;0;0;0;84;87;79;60;27;124.79;2;-35.00;26.00;-1016.00
1710946913071337223;0;0;0;0;0;0;84;87;80;70;27;124.79;2;-26.00;34.00;-988.00
1710946913173338174;0;0;0;0;0;0;84;87;80;70;27;124.79;2;6.00;3.00;-1008.00
1710946913275328397;0;0;0;0;0;0;83;87;81;70;27;124.82;2;-14.00;3.00;-978.00
1710946913377212762;0;0;0;0;0;0;83;87;81;70;27;124.80;2;-14.00;12.00;-991.00
1710946913479873418;0;0;0;0;0;0;83;87;81;70;27;124.74;3;15.00;0.00;-999.00
1710946913581449985;0;0;0;0;0;0;83;87;81;70;27;124.78;3;7.00;-16.00;-1002.00
1710946913683339357;0;0;0;0;0;0;83;87;81;70;27;124.78;3;-18.00;16.00;-996.00
1710946913785279750;0;0;0;0;0;0;83;87;81;70;27;124.73;3;18.00;-4.00;-981.00
1710946913887256860;0;0;0;0;0;0;83;87;81;70;27;124.77;3;13.00;-19.00;-1007.00
1710946913989460229;0;0;0;0;0;0;83;87;81;70;27;124.78;3;4.00;-15.00;-973.00
1710946914092647075;0;0;0;0;0;0;83;87;81;70;27;124.79;3;7.00;-10.00;-1024.00
1710946914193485260;0;0;0;0;0;0;83;87;80;70;27;124.71;3;-30.00;5.00;-1008.00
1710946914296836853;0;0;0;0;0;0;83;87;80;70;27;124.66;3;-2.00;-14.00;-1025.00
1710946914397392034;0;0;0;0;0;0;83;87;80;70;27;124.74;3;-28.00;24.00;-990.00
1710946914499412059;0;0;0;0;0;0;83;87;80;70;27;124.72;4;-30.00;8.00;-1014.00
1710946914552076578;0;0;0;0;0;0;83;87;80;70;27;124.71;4;-31.00;21.00;-997.00
1710946914655700683;0;0;0;0;0;0;83;87;79;70;27;124.73;4;-26.00;15.00;-1022.00
1710946914756612300;0;0;0;0;0;0;83;87;79;70;27;124.74;4;-16.00;23.00;-1017.00
1710946914858841896;0;0;0;0;0;0;83;87;79;70;27;124.71;4;-4.00;10.00;-1019.00
1710946914959117412;0;0;0;0;0;0;83;87;79;70;27;124.75;4;-9.00;14.00;-987.00
1710946915061478614;0;0;0;0;0;0;83;87;79;70;27;124.71;4;16.00;-15.00;-1000.00
1710946915164870977;0;0;0;0;0;0;83;87;79;70;27;124.76;4;-6.00;-11.00;-987.00
1710946915265613079;0;0;0;0;0;0;83;86;78;70;27;124.78;4;13.00;0.00;-992.00
1710946915369132518;0;0;0;0;0;0;83;86;78;70;27;124.77;4;-7.00;-4.00;-999.00
1710946915470829486;0;0;0;0;0;0;83;86;78;70;27;124.80;5;-10.00;8.00;-1013.00
1710946915571736097;0;0;0;0;0;0;83;86;78;70;27;124.75;5;-27.00;19.00;-1006.00
1710946915674501895;0;0;0;0;0;0;83;86;78;70;27;124.79;5;1.00;5.00;-983.00
1710946915775036811;0;0;0;0;0;0;83;86;78;60;27;124.75;5;-8.00;8.00;-1028.00
1710946915877089500;0;0;0;0;0;0;83;86;78;60;27;124.74;5;-18.00;17.00;-1000.00
1710946915979200363;0;0;0;0;0;0;83;86;78;60;27;124.71;5;-6.00;0.00;-991.00
1710946916081302881;0;0;0;0;0;0;83;86;78;60;27;124.70;5;-8.00;9.00;-1029.00
1710946916185360670;0;0;0;0;0;0;83;86;78;60;27;124.71;5;-37.00;36.00;-991.00
1710946916287214040;0;0;0;0;0;0;82;86;77;60;27;124.71;5;-2.00;9.00;-1003.00
1710946916388534069;0;0;0;0;0;0;82;86;78;60;27;124.69;5;-2.00;0.00;-990.00
1710946916489221811;0;0;0;0;0;0;82;86;78;60;27;124.72;6;-10.00;-7.00;-984.00
1710946916593580961;0;0;0;0;0;0;82;86;78;60;27;124.76;6;1.00;-5.00;-1029.00
1710946916693465232;0;0;0;0;0;0;82;86;78;60;27;124.83;6;-24.00;27.00;-1021.00
1710946916797139883;0;0;0;0;0;0;82;86;78;60;27;124.72;6;-14.00;11.00;-1000.00
1710946916897330760;0;0;0;0;0;0;82;86;79;60;27;124.72;6;-16.00;20.00;-1013.00
1710946916999367237;0;0;0;0;0;0;82;86;78;70;27;124.76;6;-21.00;22.00;-981.00
1710946917101349353;0;0;0;0;0;0;82;86;79;70;27;124.70;6;0.00;13.00;-1012.00
1710946917203231811;0;0;0;0;0;0;82;86;79;70;27;124.75;6;-2.00;-1.00;-997.00
1710946917305432081;0;0;0;0;0;0;83;86;79;70;27;124.79;6;12.00;-15.00;-990.00
1710946917407191991;0;0;0;0;0;0;83;86;79;70;27;124.79;6;-16.00;17.00;-1016.00
1710946917509307384;0;0;0;0;0;0;83;86;79;70;27;124.71;7;-48.00;31.00;-985.00
1710946917615047454;0;0;0;0;0;0;83;86;80;70;27;124.72;7;-6.00;18.00;-1001.00
1710946917713038921;0;0;0;0;0;0;83;86;79;70;27;124.73;7;0.00;4.00;-992.00
1710946917815994262;0;0;0;0;0;0;83;86;80;70;27;124.71;7;5.00;0.00;-978.00
1710946917920426845;0;0;0;0;0;0;83;86;79;70;27;124.72;7;2.00;0.00;-1002.00
1710946918019049406;0;0;0;0;0;0;83;86;79;70;27;124.73;7;-23.00;-5.00;-999.00
1710946918069959640;0;0;0;0;0;0;83;86;79;70;27;124.75;7;-27.00;19.00;-991.00
1710946918172350406;0;0;0;0;0;0;83;86;79;70;27;124.73;7;0.00;-10.00;-992.00
1710946918325176239;0;0;0;0;0;0;82;85;79;70;27;124.69;7;-15.00;8.00;-1008.00
1710946918427188396;0;0;0;0;0;0;82;85;79;70;27;124.72;7;-29.00;6.00;-1006.00
1710946918478270053;0;0;0;0;0;0;82;85;79;70;27;124.66;8;-48.00;38.00;-981.00
1710946918584546566;0;0;0;0;0;0;82;85;79;70;27;124.65;8;-6.00;16.00;-1021.00
1710946918682572364;0;0;0;0;0;0;82;85;79;70;27;124.72;8;-30.00;29.00;-992.00
1710946918784142732;0;0;0;0;0;0;82;85;79;70;27;124.67;8;-14.00;30.00;-1016.00
1710946918888031244;0;0;0;0;0;0;82;85;79;70;27;124.70;8;-5.00;1.00;-983.00
1710946918988205909;0;0;0;0;0;0;82;85;79;70;27;124.73;8;16.00;-17.00;-1001.00
1710946919090196132;0;0;0;0;0;0;82;85;79;70;27;124.72;8;-5.00;-1.00;-966.00
1710946919194130420;0;0;0;0;0;0;82;85;79;70;27;124.71;8;5.00;3.00;-1005.00
1710946919295108079;0;0;0;0;0;0;82;85;79;70;27;124.71;8;4.00;2.00;-974.00
1710946919398679971;0;0;0;0;0;0;82;85;79;70;27;124.71;8;-10.00;9.00;-987.00
1710946919498000860;0;0;0;0;0;0;82;85;77;70;27;124.70;9;0.00;-6.00;-1030.00
1710946919604016304;-6;0;0;0;0;0;82;85;77;70;27;124.69;9;7.00;-1.00;-991.00
1710946919708570718;-8;0;0;-1;0;0;82;85;78;70;27;124.70;9;-1.00;-7.00;-978.00
1710946919805108547;-8;0;0;-2;0;0;82;85;78;60;27;124.68;9;-42.00;12.00;-1010.00
1710946919907114982;-8;0;0;-4;0;0;82;85;78;60;27;124.62;9;-15.00;-5.00;-1009.00
1710946920009520292;-6;0;0;-5;0;0;82;85;78;60;27;124.67;9;-44.00;1.00;-1011.00
1710946920112766981;-5;0;0;-5;0;0;82;85;79;60;27;124.66;9;-66.00;26.00;-995.00
1710946920214306592;-4;0;0;-6;0;0;82;85;79;60;27;124.62;9;-47.00;4.00;-1014.00
1710946920315745353;-5;0;0;-6;0;0;82;84;79;60;27;124.69;9;-25.00;-5.00;-994.00
1710946920418269634;-5;0;0;-7;0;0;82;84;80;60;27;124.58;9;-91.00;37.00;-992.00
1710946920519007444;-2;0;0;-7;0;0;82;84;79;60;27;124.60;10;-59.00;8.00;-1001.00
1710946920621449708;1;0;0;-6;0;0;82;84;80;60;27;124.61;10;-43.00;-7.00;-973.00
1710946920723075151;3;0;0;-6;0;0;82;84;81;70;27;124.63;10;-71.00;14.00;-1008.00
1710946920825592517;3;0;0;-4;0;0;82;84;81;70;27;124.66;10;-19.00;-19.00;-989.00
1710946920928905963;2;0;0;-3;0;0;82;84;81;70;27;124.64;10;-52.00;28.00;-987.00
1710946921030508279;0;0;0;-3;0;0;82;84;81;70;27;124.62;10;-35.00;12.00;-1016.00
1710946921132045030;0;0;0;-3;0;0;82;84;81;70;27;124.68;10;-20.00;4.00;-992.00
1710946921233123540;0;0;0;-2;0;0;82;84;81;70;27;124.73;10;-23.00;-11.00;-976.00
1710946921335051059;0;0;0;-2;0;0;80;84;81;70;27;124.69;10;-4.00;-7.00;-996.00
1710946921437291860;-1;0;0;-2;0;0;80;84;81;70;27;124.70;11;-17.00;-5.00;-981.00
1710946921541744947;-1;0;0;-2;0;0;80;84;81;70;27;124.70;11;-2.00;-14.00;-993.00
1710946921642658710;-1;0;0;-2;0;0;80;84;82;70;27;124.70;11;-12.00;-2.00;-980.00
1710946921742776155;-1;0;0;-2;0;0;80;84;82;70;27;124.65;11;-24.00;20.00;-992.00
1710946921845085620;0;0;0;-2;0;0;80;84;81;70;27;124.61;11;-32.00;14.00;-1010.00
1710946921948034524;0;0;0;-2;0;0;80;84;81;70;27;124.66;11;-49.00;22.00;-987.00
1710946922049855470;0;0;0;-1;0;0;80;84;81;70;27;124.72;11;-22.00;5.00;-1018.00
1710946922101571083;3;0;0;-1;0;0;80;84;81;70;27;124.69;11;4.00;-19.00;-977.00
1710946922203191518;1;0;0;0;0;0;80;84;81;70;27;124.70;11;-6.00;0.00;-995.00
1710946922354959249;0;0;0;0;0;0;81;84;81;70;27;124.67;11;-21.00;15.00;-985.00
1710946922456857919;0;0;-4;0;0;0;81;84;81;70;27;124.76;12;-1.00;12.00;-1020.00
1710946922509774684;0;0;-10;0;0;0;81;84;81;70;27;124.73;12;-8.00;22.00;-1020.00
1710946922609804630;-1;0;-15;0;0;0;81;84;81;70;27;124.73;12;-13.00;18.00;-998.00
1710946922715443849;0;0;-21;0;0;0;81;84;81;70;27;124.72;12;-27.00;33.00;-1011.00
1710946922815351963;0;0;-28;0;0;0;81;84;81;70;27;124.74;12;-1.00;-13.00;-993.00
1710946922915780544;0;0;-34;0;0;0;81;84;81;70;27;124.74;12;-36.00;21.00;-977.00
1710946923017966508;0;0;-40;0;0;0;81;84;80;70;27;124.67;12;-7.00;21.00;-1011.00
1710946923120415687;0;0;-46;0;0;0;81;84;80;70;27;124.70;12;-31.00;27.00;-999.00
1710946923221930027;0;0;-52;0;0;0;81;84;80;70;27;124.68;12;4.00;16.00;-1019.00
1710946923324374198;0;0;-58;0;0;0;81;84;80;70;27;124.64;12;4.00;-5.00;-967.00
1710946923425966262;0;0;-64;0;0;0;81;84;80;70;27;124.68;13;27.00;-19.00;-1016.00
1710946923528323650;0;0;-70;0;0;0;81;84;80;70;27;124.61;13;-4.00;-8.00;-986.00
1710946923630398273;0;0;-74;0;0;0;81;84;80;70;27;124.72;13;-14.00;18.00;-1032.00
1710946923731739282;0;0;-78;0;0;0;81;84;80;70;27;124.68;13;4.00;0.00;-1007.00
1710946923835314512;0;0;-80;0;0;0;81;84;80;70;27;124.74;13;-9.00;15.00;-1001.00
1710946923936361312;0;0;-82;0;0;0;81;84;80;70;27;124.68;13;-20.00;11.00;-1014.00
1710946924037778615;0;0;-84;0;0;0;81;84;80;70;27;124.73;13;-3.00;16.00;-1014.00
1710946924139566659;0;0;-85;0;0;0;81;84;80;70;27;124.73;13;2.00;3.00;-1012.00
1710946924242186069;0;0;-86;0;0;0;81;84;80;70;27;124.70;13;13.00;-9.00;-987.00
1710946924343967437;0;0;-87;0;0;0;80;84;80;70;27;124.71;13;-34.00;35.00;-976.00
1710946924450919389;0;0;-87;0;0;0;80;84;80;70;27;124.67;14;-25.00;11.00;-1014.00
1710946924548857450;0;0;-87;0;0;0;80;84;80;70;27;124.73;14;-11.00;12.00;-995.00
1710946924650976657;-6;0;-87;0;0;0;80;84;80;70;27;124.73;14;4.00;-3.00;-984.00
1710946924752907514;-9;0;-87;0;1;0;80;84;81;70;27;124.67;14;9.00;-12.00;-993.00
1710946924854974508;-8;0;-87;0;2;0;80;84;81;70;27;124.70;14;-26.00;0.00;-960.00
1710946924956783056;-5;0;-87;0;4;0;80;84;80;70;27;124.67;14;-33.00;2.00;-1001.00
1710946925058904170;-1;0;-87;0;4;0;80;84;80;70;27;124.65;14;-29.00;-21.00;-980.00
1710946925162744283;1;0;-87;0;4;0;80;84;80;70;27;124.65;14;-43.00;14.00;-982.00
1710946925262705087;1;0;-87;0;3;0;80;84;80;70;27;124.64;14;-13.00;-12.00;-1013.00
1710946925366713285;0;0;-87;0;3;0;80;83;80;70;27;124.66;14;-48.00;20.00;-986.00
1710946925466821432;0;0;-87;0;2;0;80;83;80;70;27;124.68;15;-24.00;-6.00;-1011.00
1710946925568994045;0;0;-87;0;2;0;80;83;80;70;27;124.65;15;-46.00;16.00;-969.00
1710946925671984672;0;0;-87;0;2;0;80;83;80;70;27;124.68;15;-26.00;0.00;-985.00
1710946925774632453;0;0;-87;0;2;0;80;83;81;70;27;124.65;15;-35.00;-1.00;-986.00
1710946925827279090;-1;0;-87;0;2;0;80;83;81;70;27;124.71;15;-8.00;-5.00;-1001.00
1710946925927176475;-1;0;-87;0;2;0;80;83;81;70;27;124.67;15;-23.00;15.00;-1000.00
1710946926028164386;-1;0;-87;0;2;0;80;83;81;70;27;124.73;15;-54.00;24.00;-983.00
1710946926131077051;-1;0;-87;0;2;0;80;83;81;70;27;124.75;15;-16.00;-3.00;-1016.00
1710946926231689453;-1;0;-87;0;2;0;80;83;81;70;27;124.70;15;-27.00;23.00;-1003.00
1710946926333667993;0;0;-87;0;2;0;80;84;81;70;27;124.72;15;9.00;-18.00;-1004.00
1710946926437010765;4;0;-87;0;2;0;80;84;82;70;27;124.80;16;-63.00;23.00;-1010.00
1710946926539766550;3;0;-87;0;1;0;80;84;81;70;27;124.81;16;-10.00;4.00;-996.00
1710946926640874862;1;0;-87;0;0;0;80;84;81;70;27;124.71;16;-7.00;11.00;-1008.00
1710946926742768526;0;0;-89;0;0;0;80;84;81;70;27;124.71;16;-20.00;12.00;-998.00
1710946926844566345;0;0;-94;0;0;0;80;84;81;70;27;124.79;16;27.00;-18.00;-998.00
1710946926947998046;0;0;-100;0;0;0;80;84;81;70;27;124.74;16;-11.00;16.00;-1018.00
1710946927048742055;0;0;-106;0;0;0;80;84;81;70;27;124.74;16;7.00;2.00;-1000.00
1710946927151991844;0;0;-112;0;0;0;80;84;81;70;27;124.74;16;-4.00;15.00;-997.00
1710946927252849340;0;0;-118;0;0;0;80;84;81;70;27;124.73;16;-3.00;8.00;-996.00
1710946927356464624;0;-1;-124;0;0;0;79;83;81;70;27;124.81;16;-26.00;27.00;-1002.00
1710946927459847211;0;-1;-130;0;0;0;79;83;81;70;27;124.72;17;-5.00;-18.00;-975.00
1710946927561008453;0;-1;-136;0;0;0;79;83;81;70;27;124.71;17;-33.00;31.00;-995.00
1710946927661996841;0;-1;-143;0;0;0;79;83;82;70;27;124.70;17;-11.00;15.00;-996.00
1710946927762880563;0;0;-149;0;0;0;79;83;82;70;27;124.83;17;-19.00;22.00;-1011.00
1710946927864898204;0;0;-155;0;0;0;79;83;82;70;27;124.75;17;-8.00;9.00;-994.00
1710946927966576099;0;0;-161;0;0;0;79;83;83;70;27;124.83;17;1.00;10.00;-994.00
1710946928068599700;0;0;-165;0;0;0;79;83;83;70;27;124.79;17;9.00;0.00;-998.00
1710946928170335531;0;0;-168;0;0;0;79;83;83;70;27;124.78;17;-1.00;-1.00;-994.00
1710946928272436141;0;0;-171;0;0;0;79;83;83;70;27;124.80;17;5.00;-14.00;-1012.00
1710946928374514341;0;0;-172;0;0;0;80;82;83;70;27;124.77;17;7.00;-2.00;-1008.00
1710946928478093862;0;0;-174;0;0;0;80;82;84;70;27;124.81;18;-3.00;19.00;-1013.00
1710946928579644680;0;0;-175;0;0;0;80;82;84;70;27;124.76;18;-13.00;18.00;-1008.00
1710946928681881666;0;0;-176;0;0;0;80;82;84;70;27;124.75;18;16.00;-6.00;-983.00
1710946928783172607;0;0;-176;0;0;0;80;82;84;70;27;124.73;18;16.00;7.00;-1013.00
1710946928884655475;0;0;-177;0;0;0;80;82;84;70;27;124.80;18;-15.00;-12.00;-1007.00
1710946928987828731;-5;0;-177;0;0;0;80;82;84;70;27;124.79;18;-1.00;12.00;-994.00
1710946929088886499;-8;0;-177;1;0;0;80;82;85;70;27;124.77;18;21.00;-13.00;-981.00
1710946929192088842;-8;-1;-177;3;0;0;80;82;85;70;27;124.80;18;-41.00;40.00;-1031.00
1710946929243419408;-8;-1;-177;4;0;0;80;82;84;70;27;124.76;18;-32.00;16.00;-996.00
1710946929394475460;-8;-1;-177;5;0;0;79;82;84;70;27;124.69;18;-28.00;-13.00;-994.00
1710946929496557474;-7;-1;-176;6;0;0;79;82;84;70;27;124.76;19;-81.00;36.00;-1015.00
1710946929547464132;-6;0;-176;7;0;0;79;82;83;70;27;124.72;19;-66.00;26.00;-1007.00
1710946929649589538;-6;0;-176;7;0;0;79;82;83;70;27;124.61;19;-57.00;4.00;-967.00
1710946929751636505;-3;0;-176;8;0;0;79;82;82;70;27;124.65;19;-76.00;10.00;-971.00
1710946929853462696;0;-1;-176;7;0;0;79;82;82;70;27;124.54;19;-79.00;41.00;-998.00
1710946929956490993;2;-1;-177;7;0;0;79;82;81;70;27;124.69;19;-52.00;-8.00;-980.00
1710946930057695150;4;0;-177;6;0;0;79;82;82;70;27;124.66;19;-93.00;24.00;-987.00
1710946930161406278;3;0;-177;5;0;0;79;82;82;70;27;124.79;19;-61.00;21.00;-1014.00
1710946930261432647;2;-1;-177;4;0;0;79;82;81;70;27;124.80;19;-71.00;28.00;-1004.00
1710946930363481760;0;-1;-177;3;0;0;78;82;81;70;27;124.78;19;-64.00;25.00;-1013.00
1710946930468415737;0;-1;-177;3;0;0;78;82;81;70;27;124.77;20;-64.00;28.00;-1000.00
1710946930567566633;0;-1;-177;3;0;0;78;82;81;70;27;124.74;20;-20.00;1.00;-1002.00
1710946930669914960;0;-1;-177;3;0;0;78;82;81;70;27;124.74;20;-40.00;18.00;-998.00
1710946930771399497;2;0;-177;2;0;0;78;82;81;70;27;124.77;20;10.00;-15.00;-1007.00
1710946930873482942;4;0;-177;2;0;0;78;82;82;70;27;124.72;20;-62.00;31.00;-999.00
1710946930975969552;3;0;-177;1;0;0;78;82;81;70;27;124.75;20;1.00;-10.00;-1001.00
1710946931079210281;1;0;-177;0;0;0;78;82;81;70;27;124.72;20;-50.00;24.00;-1007.00
1710946931180822849;0;-3;-177;0;0;0;78;82;81;70;27;124.76;20;18.00;-8.00;-1007.00
1710946931282991170;0;-5;-177;0;0;0;78;82;81;70;27;124.80;20;18.00;2.00;-979.00
1710946931383934974;0;-4;-177;0;0;0;79;81;81;70;27;124.77;20;-26.00;10.00;-1018.00
1710946931485693693;0;0;-177;0;-1;0;79;81;82;70;27;124.82;21;-22.00;47.00;-984.00
1710946931589545249;0;3;179;0;0;0;79;81;82;70;27;124.81;21;-56.00;39.00;-1004.00
1710946931692420005;0;0;173;0;0;0;79;81;81;70;27;124.84;21;-40.00;38.00;-1029.00
1710946931793278932;0;-1;167;0;0;0;79;81;81;70;27;124.85;21;-4.00;-4.00;-993.00
1710946931893486738;0;-1;161;0;0;0;79;81;81;70;27;124.80;21;-11.00;3.00;-978.00
1710946931997348785;0;-1;155;0;0;0;79;81;81;70;27;124.77;21;-21.00;25.00;-1009.00
1710946932100765466;0;-1;150;0;0;0;79;81;81;70;27;124.76;21;-18.00;20.00;-992.00
1710946932201158046;0;-1;144;0;0;0;79;81;80;70;27;124.71;21;-5.00;0.00;-1012.00
1710946932303533315;0;-1;138;0;0;0;79;81;80;70;27;124.71;21;-26.00;10.00;-992.00
1710946932404257774;0;-1;132;0;0;0;78;81;80;70;27;124.81;21;-19.00;12.00;-1021.00
1710946932507001399;0;-1;126;0;0;0;78;81;80;70;27;124.79;22;-29.00;18.00;-966.00
1710946932607519388;0;-1;121;0;0;0;78;81;80;70;27;124.81;22;23.00;-28.00;-1005.00
1710946932712025880;0;-1;115;0;0;0;78;81;80;70;27;124.77;22;12.00;-24.00;-1018.00
1710946932814903736;0;-1;109;0;0;0;78;81;80;70;27;124.82;22;-3.00;2.00;-995.00
1710946932915534734;0;-1;105;0;0;0;78;81;80;70;27;124.73;22;-17.00;12.00;-1019.00
1710946933019826412;0;-1;102;0;0;0;78;81;80;70;27;124.73;22;-57.00;34.00;-980.00
1710946933119080305;-1;-1;100;0;0;0;78;81;80;70;27;124.75;22;-2.00;-18.00;-983.00
1710946933219428777;-1;-1;98;0;0;0;78;81;80;70;27;124.77;22;-20.00;12.00;-1017.00
1710946933270232677;-1;-1;96;0;0;0;78;81;80;70;27;124.79;22;-24.00;4.00;-1000.00
1710946933425371408;-1;-1;95;0;0;0;78;82;81;70;27;124.78;22;-52.00;12.00;-987.00
1710946933525825738;-1;-1;94;0;0;0;78;82;81;70;27;124.78;23;-40.00;42.00;-1025.00
1710946933577107191;-1;-1;93;0;0;0;78;82;81;70;27;124.81;23;-29.00;37.00;-1016.00
1710946933681658267;-1;-1;93;0;0;0;78;82;81;70;27;124.73;23;-16.00;0.00;-989.00
1710946933782867431;-1;-1;93;0;0;0;78;82;81;70;27;124.77;23;-22.00;1.00;-1035.00
1710946933884616374;-7;0;93;0;0;0;78;82;82;70;27;124.79;23;-28.00;34.00;-966.00
1710946933991971015;-8;0;93;0;-1;0;78;82;82;70;27;124.81;23;-41.00;10.00;-1016.00
1710946934089159250;-8;-1;93;0;-2;0;78;82;82;70;27;124.73;23;-9.00;2.00;-1006.00
1710946934190937042;-6;-1;93;0;-3;0;78;82;82;70;27;124.74;23;-52.00;26.00;-1013.00
1710946934293965578;-1;-1;93;0;-3;0;78;82;81;70;27;124.72;23;-54.00;33.00;-1045.00
1710946934393355846;0;-1;93;0;-3;0;78;81;82;70;27;124.67;23;-35.00;5.00;-995.00
1710946934495639324;0;-1;93;0;-3;0;78;81;82;70;27;124.77;24;-13.00;5.00;-1005.00
1710946934597915649;-1;0;93;0;-2;0;78;81;82;70;27;124.72;24;-41.00;11.00;-988.00
1710946934701023817;-1;0;93;0;-2;0;78;81;82;70;27;124.78;24;-19.00;-8.00;-1011.00
1710946934801413297;-1;0;93;0;-2;0;78;81;82;70;27;124.80;24;-33.00;0.00;-1000.00
1710946934903290510;-2;0;93;0;-2;0;78;81;82;70;27;124.77;24;-39.00;16.00;-993.00
1710946935006999731;-1;0;93;0;-2;0;78;81;82;70;27;124.78;24;-34.00;-3.00;-983.00
1710946935108243465;-2;0;93;0;-2;0;78;81;82;70;27;124.82;24;-17.00;-9.00;-985.00
1710946935215559482;-1;0;93;0;-2;0;78;81;82;70;27;124.78;24;-29.00;12.00;-1013.00
1710946935312284946;-1;0;93;0;-2;0;78;81;82;70;27;124.81;24;-49.00;12.00;-987.00
1710946935413145303;-1;-1;93;0;-2;0;77;80;82;70;27;124.75;24;-8.00;-10.00;-1014.00
1710946935515257835;-1;-2;93;0;-2;0;77;80;82;70;27;124.77;25;-57.00;22.00;-993.00
1710946935618786334;-1;-2;93;0;-2;0;77;80;82;70;27;124.75;25;-12.00;-10.00;-1012.00
1710946935719874620;-1;-2;93;0;-2;0;77;80;81;70;27;124.74;25;-39.00;17.00;-988.00
1710946935821188211;-1;-1;93;0;-2;0;77;80;81;70;27;124.72;25;-30.00;-9.00;-987.00
1710946935923393011;-1;-1;93;0;-2;0;77;80;81;70;27;124.67;25;-22.00;2.00;-1016.00
1710946936026715278;-1;-1;93;-1;-2;0;77;80;82;70;27;124.70;25;-6.00;-4.00;-1012.00
1710946936128745317;0;2;93;0;-2;0;77;80;81;70;27;124.70;25;-43.00;20.00;-1017.00
1710946936229382038;3;1;93;0;-1;0;77;80;82;70;27;124.79;25;-30.00;9.00;-1036.00
1710946936331879854;1;0;93;0;0;0;77;80;81;70;27;124.74;25;-43.00;21.00;-1005.00
1710946936433134078;0;0;93;0;0;0;77;81;81;70;27;124.76;25;-8.00;-28.00;-962.00
1710946936535186767;0;0;93;0;0;0;77;81;82;70;27;124.74;26;-23.00;10.00;-997.00
1710946936637460470;0;0;93;0;0;0;77;81;82;70;27;124.78;26;-22.00;7.00;-1005.00
1710946936692154169;0;0;93;0;0;0;77;81;82;70;27;124.69;26;0.00;-11.00;-997.00
1710946936792493343;0;0;93;0;0;0;77;81;81;70;27;124.68;26;-15.00;6.00;-983.00
1710946936893225908;0;0;93;0;0;0;77;81;81;70;27;124.78;26;-21.00;8.00;-953.00
1710946936995111703;0;0;93;0;0;0;77;81;80;70;27;124.76;26;-3.00;-10.00;-920.00
1710946937102544546;0;-1;93;0;0;-1;77;81;78;70;27;124.70;26;-16.00;20.00;-946.00
1710946937200245857;0;0;93;0;0;-2;77;81;75;60;27;124.64;26;-12.00;5.00;-924.00
1710946937301448822;0;0;93;0;0;-3;77;81;72;60;27;124.62;26;-28.00;19.00;-946.00
1710946937403921127;0;0;93;0;0;-4;77;80;68;50;27;124.61;27;-10.00;-8.00;-906.00
1710946937505375385;0;0;93;0;0;-4;77;80;63;50;27;124.58;27;-5.00;-6.00;-925.00
1710946937608385324;0;0;93;0;0;-4;77;80;59;40;27;124.51;27;-31.00;18.00;-955.00
1710946937709763765;0;0;93;0;0;-4;77;80;54;40;27;124.50;27;-24.00;21.00;-961.00
1710946937811179876;0;0;93;0;0;-4;77;80;53;40;27;124.46;27;-10.00;11.00;-1001.00
1710946937913058757;0;0;93;0;0;-4;77;80;47;30;27;124.40;27;-10.00;4.00;-988.00
1710946938015087127;0;0;93;0;0;-4;77;80;42;30;27;124.41;27;5.00;-11.00;-998.00
1710946938118471145;0;0;93;0;0;-4;77;80;37;20;27;124.31;27;-9.00;7.00;-996.00
1710946938220680713;0;0;93;0;0;-4;77;80;33;20;27;124.28;27;-8.00;2.00;-1016.00
1710946938320987939;0;0;93;0;0;-4;77;80;28;10;27;124.23;27;-6.00;10.00;-995.00
1710946938423668622;0;0;93;0;0;-4;77;81;23;10;27;124.08;28;-7.00;-4.00;-1000.00
1710946938525088071;0;0;93;0;0;-4;77;81;17;0;27;123.92;28;-8.00;5.00;-978.00
1710946938628547430;0;0;93;0;0;-4;77;81;13;0;27;123.04;28;-32.00;9.00;-1057.00
1710946938732491731;0;0;93;0;0;-3;77;81;10;0;27;122.09;28;5.00;-2.00;-1048.00
1710946938831352472;1;-2;93;0;0;-2;77;81;10;0;27;120.12;28;-254.00;-108.00;-2240.00
1710946938933010339;-2;0;94;-1;1;0;77;81;10;0;27;121.73;28;-10.00;-5.00;-727.00
1710946939038225650;0;0;94;-1;1;-1;77;81;10;0;27;120.95;28;-22.00;32.00;-2178.00
1710946939138877153;0;0;94;0;1;0;77;81;10;0;27;121.66;28;-9.00;7.00;-920.00
1710946939238886356;0;0;95;0;1;0;77;81;10;0;27;122.31;28;-6.00;44.00;-960.00
1710946939341933965;0;0;95;-1;1;0;77;81;10;0;27;122.84;28;-7.00;0.00;-988.00
1710946939446446895;0;0;94;-1;1;0;77;80;10;0;27;123.04;29;-20.00;11.00;-992.00
1710946939544876337;0;0;94;-1;1;0;77;80;10;0;27;123.23;29;-9.00;1.00;-998.00
1710946939646977901;0;0;94;-1;1;0;77;80;10;0;27;123.21;29;-8.00;5.00;-996.00
1710946939750258445;0;0;94;-1;1;0;77;80;10;0;27;123.04;29;-6.00;17.00;-999.00
1710946939853189229;0;0;94;-1;1;0;77;80;10;0;27;123.23;29;-7.00;0.00;-998.00
1710946939953966140;0;0;94;-1;1;0;77;80;10;0;27;123.38;29;-9.00;5.00;-1002.00
1710946940059204339;0;-1;94;-1;2;-1;77;80;10;0;27;123.53;29;-6.00;6.00;-999.00
1710946940158360004;0;-1;94;-1;2;-2;77;80;10;0;27;123.64;29;-8.00;6.00;-994.00
1710946940208905220;0;-1;94;-1;2;-2;77;80;10;0;27;123.83;29;-8.00;4.00;-991.00
1710946940314198970;0;-1;94;-1;2;-2;77;80;10;0;27;123.82;29;-2.00;16.00;-999.00
1710946940465949535;0;-1;94;-2;2;-2;77;80;10;0;27;123.85;29;-12.00;10.00;-991.00
1710946940517266511;0;-1;94;-2;2;-2;77;80;10;0;27;123.89;29;-3.00;7.00;-995.00
1710946940616921901;0;-1;94;-2;2;-1;77;80;10;0;27;123.87;29;-19.00;1.00;-997.00
1710946940720916748;0;-1;94;0;0;0;77;80;10;0;27;123.92;29;-9.00;8.00;-997.00
1710946940821264743;0;-1;94;0;0;0;77;80;10;0;27;123.89;29;-9.00;7.00;-1002.00
1710946940923080444;0;-1;94;0;0;1;77;80;10;0;27;123.90;29;-12.00;8.00;-1000.00
1710946941024720668;0;0;94;0;0;0;77;80;10;0;27;123.90;29;-9.00;7.00;-1001.00
1710946941127733707;0;0;94;0;0;0;77;80;10;0;27;123.92;29;-10.00;7.00;-1002.00
1710946941229803085;0;0;94;0;0;0;77;80;10;0;27;123.89;29;-12.00;9.00;-997.00
1710946941331920862;0;0;94;0;0;0;77;80;10;0;27;123.88;29;-10.00;8.00;-1001.00
1710946941434065818;0;0;94;0;0;0;77;80;10;0;27;123.87;29;-7.00;8.00;-1002.00
1710946941535738945;0;0;94;0;0;0;77;80;10;0;27;123.89;29;-10.00;8.00;-1002.00
1710946941638319969;0;0;94;0;0;0;77;80;10;0;27;123.94;29;-12.00;8.00;-1002.00
1710946941741509199;0;0;94;0;0;0;77;80;10;0;27;123.92;29;-10.00;9.00;-1000.00
1710946941842853784;0;0;94;0;0;0;77;80;10;0;27;123.95;29;-9.00;9.00;-999.00
1710946941946386098;0;0;94;0;0;0;77;80;10;0;27;123.91;29;-12.00;6.00;-998.00
1710946942048368453;0;0;94;0;0;0;77;80;10;0;27;123.91;29;-10.00;8.00;-1000.00
1710946942148940563;0;0;94;0;0;0;77;80;10;0;27;123.91;29;-9.00;9.00;-999.00
1710946942251029253;0;0;94;0;0;0;77;80;10;0;27;123.89;29;-11.00;8.00;-999.00
1710946942352519750;0;0;94;0;0;0;77;80;10;0;27;123.96;29;-11.00;6.00;-1000.00
1710946942457846641;0;0;94;0;0;0;76;80;10;0;27;123.88;29;-10.00;8.00;-1002.00
1710946942558122158;0;0;94;0;0;0;76;80;10;0;27;123.89;29;-11.00;8.00;-998.00
1710946942661156177;0;0;94;0;0;0;76;80;10;0;27;123.91;29;-11.00;8.00;-998.00
1710946942761962175;0;0;94;0;0;0;76;80;10;0;27;123.89;29;-10.00;9.00;-1001.00
1710946942863757371;0;0;94;0;0;0;76;80;10;0;27;123.93;29;-11.00;6.00;-996.00
1710946942966604948;0;0;94;0;0;0;76;80;10;0;27;123.93;29;-9.00;7.00;-999.00
1710946943067800998;0;0;94;0;0;0;76;80;10;0;27;123.92;29;-9.00;10.00;-999.00
1710946943171612501;0;0;94;0;0;0;76;80;10;0;27;123.91;29;-10.00;8.00;-998.00
1710946943273566961;0;0;94;0;0;0;76;80;10;0;27;123.97;29;-8.00;8.00;-998.00
1710946943322773456;0;0;94;0;0;0;76;80;10;0;27;123.91;29;-11.00;9.00;-1000.00
1710946943476059198;0;0;94;0;0;0;76;79;10;0;27;123.91;29;-11.00;9.00;-997.00
