timestampns;pitch;roll;yaw;vgx;vgy;vgz;templ;temph;tof;h;bat;baro;time;agx;agy;agz;
1710163671710586071;0;0;2;0;0;0;84;86;10;0;78;640.23;0;-10.00;-2.00;-1003.00
1710163671812403202;0;0;2;0;0;0;84;86;10;0;78;640.18;0;-16.00;-6.00;-1000.00
1710163671914768457;0;0;2;0;0;0;84;86;10;0;78;640.18;0;-14.00;-4.00;-1001.00
1710163672017232894;0;0;2;0;0;0;84;86;10;0;78;640.19;0;-16.00;-6.00;-998.00
1710163672118714332;0;0;2;0;0;0;84;86;10;0;78;640.16;0;-19.00;-6.00;-990.00
1710163672220631837;0;0;2;0;0;0;84;86;10;0;78;640.17;0;-14.00;-3.00;-1002.00
1710163672322697162;0;0;2;0;0;0;84;86;10;0;78;640.26;0;-14.00;-2.00;-1000.00
1710163672424987792;0;0;2;0;0;0;84;86;10;0;78;640.18;0;-18.00;-5.00;-999.00
1710163672526658058;0;0;2;0;0;0;84;86;10;0;78;640.20;0;-15.00;-4.00;-1001.00
1710163672630707979;0;0;2;0;0;0;84;86;10;0;78;640.21;0;-18.00;-7.00;-998.00
1710163672731515407;0;0;2;0;0;0;84;86;10;0;78;640.27;0;-13.00;-2.00;-1000.00
1710163672833503484;0;0;2;0;0;0;84;86;10;0;78;640.25;0;-10.00;1.00;-1008.00
1710163672935467481;0;0;2;0;0;0;84;86;10;0;78;640.26;0;-15.00;-5.00;-1000.00
1710163673037491083;0;0;2;0;0;0;84;86;10;0;78;640.23;0;-15.00;-3.00;-1000.00
1710163673088472366;0;0;2;0;0;0;84;86;10;0;78;640.27;0;-21.00;-10.00;-992.00
1710163673190479040;0;0;2;0;0;0;84;86;10;0;78;640.21;0;-12.00;-1.00;-999.00
1710163673292680501;0;0;2;0;0;0;84;86;10;0;78;640.21;0;-9.00;0.00;-1011.00
1710163673396811485;0;0;2;0;0;0;84;86;10;0;78;640.20;0;-16.00;-8.00;-1007.00
1710163673498917341;-1;0;8;0;0;0;84;86;10;0;78;640.21;0;-13.00;-1.00;-1001.00
1710163673599404335;-1;0;21;0;0;0;84;86;10;0;78;640.20;0;-38.00;154.00;-977.00
1710163673701562643;0;0;31;0;0;0;84;86;10;0;78;640.22;0;89.00;-57.00;-982.00
1710163673803615093;0;0;45;0;0;0;84;86;10;0;78;640.22;0;-92.00;62.00;-997.00
1710163673905993223;0;0;59;0;0;0;84;87;10;0;78;640.21;0;25.00;54.00;-1004.00
1710163674007530927;0;0;71;0;0;0;84;87;10;0;78;640.16;0;-90.00;-168.00;-1010.00
1710163674109737396;0;0;84;0;0;0;84;87;10;0;78;640.19;0;-84.00;-3.00;-999.00
1710163674212088346;0;0;86;0;0;0;84;87;10;0;78;640.23;0;60.00;114.00;-993.00
1710163674313595533;0;0;86;0;0;0;84;87;10;0;78;640.23;0;-30.00;139.00;-932.00
1710163674416060447;0;0;86;0;0;0;84;87;10;0;78;640.19;0;-61.00;-18.00;-996.00
1710163674517457962;0;0;86;0;0;0;84;87;10;0;78;640.20;0;-25.00;-1.00;-986.00
1710163674619704246;0;0;86;0;0;0;84;87;10;0;78;640.22;0;-11.00;8.00;-999.00
1710163674721458673;0;0;86;0;0;0;84;87;10;0;78;640.21;0;-11.00;10.00;-999.00
1710163674823973417;0;0;86;0;0;0;84;87;10;0;78;640.20;0;-10.00;9.00;-1001.00
1710163674925373792;0;0;86;0;0;0;85;87;10;0;78;640.22;0;-11.00;11.00;-999.00
1710163675027379035;0;0;93;0;0;0;85;87;10;0;78;640.19;0;-11.00;10.00;-999.00
1710163675129851579;0;0;104;0;0;0;85;87;10;0;78;640.23;0;-2.00;12.00;-1005.00
1710163675231478929;0;0;124;0;0;0;85;87;10;0;78;640.25;0;-124.00;33.00;-1020.00
1710163675333447217;0;0;146;0;0;0;85;87;10;0;78;640.21;0;-171.00;119.00;-1000.00
1710163675437299013;0;0;164;0;0;0;85;87;10;0;78;640.20;0;336.00;147.00;-1010.00
1710163675537447690;0;0;177;0;0;0;85;87;10;0;78;640.25;0;24.00;35.00;-990.00
1710163675639134883;0;0;177;0;0;0;85;87;10;0;77;640.23;0;12.00;11.00;-1002.00
1710163675741412401;0;0;177;0;0;0;85;87;10;0;77;640.18;0;7.00;5.00;-994.00
1710163675843935966;0;0;177;0;0;0;85;87;10;0;77;640.17;0;7.00;7.00;-1000.00
1710163675946283817;0;0;177;0;0;0;85;87;10;0;77;640.20;0;-9.00;-6.00;-996.00
1710163676048590660;0;0;177;0;0;0;85;87;10;0;77;640.25;0;18.00;19.00;-1009.00
1710163676150702953;0;0;177;0;0;0;85;87;10;0;77;640.22;0;4.00;3.00;-993.00
1710163676253358125;0;0;177;0;0;0;85;87;10;0;77;640.24;0;5.00;5.00;-1001.00
1710163676354701280;0;0;177;0;0;0;85;87;10;0;77;640.21;0;18.00;15.00;-1002.00
1710163676456309556;0;0;178;0;0;0;85;87;10;0;77;640.19;0;57.00;-135.00;-1050.00
1710163676507357358;0;0;-155;0;0;0;85;87;10;0;77;640.17;0;-285.00;133.00;-1001.00
1710163676610137462;0;0;-145;0;0;0;85;87;10;0;77;640.23;0;140.00;-69.00;-1008.00
1710163676712085247;0;0;-127;0;0;0;85;87;10;0;77;640.23;0;143.00;-62.00;-1001.00
1710163676813403606;0;0;-114;0;0;0;85;87;10;0;77;640.27;0;67.00;-10.00;-978.00
1710163676916436195;0;0;-93;0;0;0;85;88;10;0;77;640.26;0;-328.00;72.00;-1002.00
1710163677018485069;0;0;-92;0;0;0;85;88;10;0;77;640.27;0;-46.00;-36.00;-1005.00
1710163677120430707;0;0;-90;0;0;0;85;88;10;0;77;640.29;0;47.00;141.00;-987.00
1710163677221254348;0;0;-90;0;0;0;85;88;10;0;77;640.28;0;0.00;-10.00;-998.00
1710163677323426723;0;0;-90;0;0;0;85;88;10;0;77;640.25;0;2.00;-11.00;-1000.00
1710163677425290346;0;0;-90;0;0;0;85;88;10;0;77;640.19;0;1.00;-10.00;-1000.00
1710163677527286529;0;0;-90;0;0;0;85;88;10;0;77;640.21;0;2.00;-10.00;-1000.00
1710163677630469083;0;0;-90;0;0;0;85;88;10;0;77;640.23;0;9.00;-5.00;-1009.00
1710163677731254816;0;0;-90;0;0;0;85;88;10;0;77;640.24;0;-8.00;-20.00;-989.00
1710163677833265304;0;0;-90;0;0;0;85;88;10;0;77;640.25;0;-5.00;-19.00;-1002.00
1710163677936105251;0;0;-82;0;0;0;85;86;10;0;77;640.28;0;-89.00;15.00;-1038.00
1710163678038002252;0;0;-72;0;0;0;85;86;10;0;77;640.26;0;1.00;-90.00;-993.00
1710163678140411138;0;0;-59;0;0;0;85;86;10;0;77;640.26;0;-1.00;56.00;-1016.00
1710163678241683483;0;0;-45;0;0;0;85;86;10;0;77;640.24;0;-132.00;-104.00;-1013.00
1710163678344125270;0;0;-29;0;0;0;85;86;10;0;77;640.22;0;96.00;-9.00;-995.00
1710163678445447444;0;0;-16;0;0;0;85;86;10;0;77;640.24;0;-3.00;6.00;-996.00
1710163678547428131;0;0;-6;0;0;0;85;86;10;0;77;640.26;0;-85.00;92.00;-1019.00
1710163678653463602;0;0;0;0;0;0;85;86;10;0;77;640.26;0;-123.00;-30.00;-999.00
1710163678751554489;0;0;0;0;0;0;85;86;10;0;77;640.27;0;-14.00;-2.00;-999.00
1710163678853337764;0;0;0;0;0;0;85;86;10;0;77;640.28;0;-12.00;0.00;-999.00
1710163678955752134;0;0;0;0;0;0;85;87;10;0;77;640.32;0;-13.00;-4.00;-999.00
1710163679057352781;0;0;0;0;0;0;85;87;10;0;77;640.24;0;-16.00;-6.00;-1000.00
1710163679159892559;0;0;0;0;0;0;85;87;10;0;77;640.28;0;-15.00;-7.00;-999.00
1710163679263483285;0;0;0;0;0;0;85;87;10;0;77;640.24;0;-16.00;-5.00;-1000.00
1710163679364617824;0;0;0;0;0;0;85;87;10;0;77;640.22;0;-13.00;-5.00;-999.00
1710163679466465234;0;0;0;0;0;0;85;87;10;0;77;640.18;0;-16.00;-7.00;-1001.00
1710163679567719697;0;0;0;0;0;0;85;87;10;0;77;640.24;0;-14.00;-5.00;-998.00
1710163679618234157;0;0;0;0;0;0;85;87;10;0;77;640.27;0;-16.00;-6.00;-1000.00
1710163679720154523;0;0;0;0;0;0;85;87;10;0;77;640.22;0;-14.00;-4.00;-1002.00
1710163679823208808;0;0;0;0;0;0;85;87;10;0;77;640.22;0;-16.00;-4.00;-1000.00
1710163679976255416;0;0;0;0;0;0;85;87;10;0;77;640.20;0;-15.00;-4.00;-997.00
1710163680026474952;0;0;0;0;0;0;85;87;10;0;77;640.24;0;-14.00;-5.00;-999.00
1710163680129735946;0;0;0;0;0;0;85;87;10;0;77;640.29;0;-16.00;-4.00;-998.00
1710163680232306003;0;0;0;0;0;0;85;87;10;0;77;640.28;0;-16.00;-3.00;-1003.00
1710163680333231210;0;0;0;0;0;0;85;87;10;0;77;640.28;0;-17.00;-7.00;-1002.00
1710163680435309171;0;0;0;0;0;0;85;87;10;0;77;640.27;0;-10.00;-10.00;-1001.00
1710163680537271738;0;0;0;0;0;0;85;87;10;0;77;640.24;0;-16.00;-2.00;-1003.00
1710163680639725208;0;0;0;0;0;0;85;87;10;0;77;640.23;0;-15.00;-7.00;-1000.00
1710163680741404771;0;0;0;0;0;0;85;87;10;0;77;640.22;0;-15.00;-3.00;-1000.00
1710163680848922729;0;0;0;0;0;0;85;87;10;0;77;640.24;0;-15.00;-5.00;-998.00
1710163680945170164;0;0;0;0;0;0;85;87;10;0;77;640.21;0;-14.00;-5.00;-998.00
1710163681048314809;0;0;0;0;0;0;85;87;10;0;77;640.23;0;-16.00;-4.00;-1000.00
1710163681150184154;0;0;0;0;0;0;85;87;10;0;77;640.23;0;-14.00;-5.00;-1001.00
1710163681252143859;0;0;0;0;0;0;85;87;10;0;77;640.26;0;-15.00;-5.00;-998.00
1710163681354141950;0;0;0;0;0;0;85;87;10;0;77;640.22;0;-14.00;-5.00;-997.00
1710163681459695100;0;0;0;0;0;0;85;87;10;0;77;640.28;0;-17.00;-5.00;-1000.00
1710163681558294296;0;0;0;0;0;0;85;87;10;0;77;640.17;0;-15.00;-5.00;-1000.00
1710163681660826444;0;0;0;0;0;0;85;87;10;0;77;640.18;0;-14.00;-7.00;-998.00
